"lat";"long";"accuracy";"formatted_address";"index";"tipo";"default"
"-30.0624738";"-51.1580307";"street_address";"R. Padre Todesco, 248 - Partenon, Porto Alegre - RS, 91530-360, Brazil";1;"MINI-MERCADO";"R PADRE TODESCO, 248"
"-30.1804075";"-51.1852593";"street_address";"Av. Principal da Ponta Grossa, 860 - Ponta Grossa, Porto Alegre - RS, 91780-590, Brazil";2;"BAR/CAFE/LANCHERIA";"ESTR RETIRO DA PONTA GROSSA, 860"
"-30.1849";"-51.210192";"street_address";"Estr. Retiro da Ponta Grossa, 3620 - Ponta Grossa, Porto Alegre - RS, 91780-590, Brazil";3;"ARMAZEM";"ESTR PONTA GROSSA, 3620"
"-30.010663";"-51.157838";"street_address";"Av. Assis Brasil, 2937 - Cristo Redentor, Porto Alegre - RS, 91010-007, Brazil";4;"ARTIGOS DO VESTUARIO";"AV ASSIS BRASIL, 2937"
"-30.0526088";"-51.2039318";"premise";"R. Veador Pôrto, 53 - Partenon, Porto Alegre - RS, Brazil";5;"PRESENTES/ARTESANATOS/SOUVENIRS";"R VEADOR PORTO, 53"
"-30.0370267";"-51.2220914";"street_address";"R. Sofia Veloso, 61 - Cidade Baixa, Porto Alegre - RS, 90050-140, Brazil";6;"BAR/CAFE/LANCHERIA";"R SOFIA VELOSO, 61"
"-30.09141";"-51.2418042";"street_address";"Av. Icaraí, 1428 - Cristal, Porto Alegre - RS, Brazil";7;"COSMETICOS E OU PRODUTOS PARA SALAO DE BELEZA";"AV ICARAI, 1428"
"-30.0480139";"-51.221285";"street_address";"Av. Ipiranga, 692 - Praia de Belas, Porto Alegre - RS, 90160-092, Brazil";8;"LOJA DE ARTIGOS DE DECORACAO";"AV IPIRANGA, 692"
"-30.0429121";"-51.2148222";"street_address";"Av. João Pessoa, 1370 - Farroupilha, Porto Alegre - RS, 90040-001, Brazil";9;"BAZAR";"AV JOAO PESSOA, 1370"
"-30.0116165";"-51.1678015";"street_address";"Av. Assis Brasil, 1978 - Passo d'Areia, Porto Alegre - RS, 91010-005, Brazil";10;"LANCHERIA";"AV ASSIS BRASIL, 1978/2"
"-30.130036";"-51.23865";"street_address";"Av. Cel. Marcos, 2040 - Ipanema, Porto Alegre - RS, 91760-000, Brazil";11;"RESTAURANTE E PIZZARIA SEM FORNO A LENHA";"AV CEL MARCOS, 2040"
"-29.996165";"-51.1930327";"street_address";"R. Lauro Müller, 860 - Humaitá, Porto Alegre - RS, Brazil";12;"COMERCIO ATACADISTA DE BIJOUTERIAS";"R LAURO MULLER, 860/5"
"-30.116476";"-51.207056";"street_address";"Rua Miguel Ascoleze, 92 - Vila Nova, Porto Alegre - RS, 91740-470, Brazil";13;"LOJA DE PECAS E ACESSORIOS P/APARELHOS ELETRICOS  OU NAO";"R MIGUEL ASCOLEZE, 92"
"-30.0314255";"-51.227989";"street_address";"Av. Borges de Medeiros, 549 - Centro, Porto Alegre - RS, 90010-241, Brazil";14;"PRODUTOS DE HIGIENE PESSOAL";"AV BORGES DE MEDEIROS, 549/503"
NA;NA;NA;"R JULIO VERNE 906 STA M GORETTI Porto Alegre %26&key=AIzaSyBA2Kt4jMYJe3up70J0Kl48Idrm69K6n0I";15;"FERRAGEM";"R JULIO VERNE, 906"
"-30.0120985";"-51.1937524";"street_address";"Av. Benjamin Constant, 1154 - São João, Porto Alegre - RS, 90550-003, Brazil";16;"LOJA DE MOVEIS";"AV BENJAMIN CONSTANT, 1154"
"-30.0179111";"-51.1504437";"street_address";"R. Alberto Silva, 775 - Vila Ipiranga, Porto Alegre - RS, 91370-001, Brazil";17;"SORVETERIA";"R ALBERTO SILVA, 775"
"-30.028969";"-51.200079";"street_address";"Largo Caixeiros Viajantes, 30 - Moinhos de Vento, Porto Alegre - RS, 90430-070, Brazil";18;"SORVETERIA";"LG CAIXEIROS VIAJANTES, 30/11"
"-30.0278847";"-51.2256139";"street_address";"R. Voluntários da Pátria, 55 - Centro, Porto Alegre - RS, 90030-002, Brazil";19;"PRESENTES/ARTESANATOS/SOUVENIRS";"R VOLUNTARIOS DA PATRIA, 55"
"-30.027997";"-51.2234099";"street_address";"Av. Alberto Bins, 324 - Centro Histórico, Porto Alegre - RS, 90030-140, Brazil";20;"CALCADOS/ARTEFATOS DE COURO";"AV ALBERTO BINS, 324"
"-30.0350387";"-51.1792663";"street_address";"Av. Lajeado, 1265 - Petrópolis, Porto Alegre - RS, 90460-110, Brazil";21;"RESTAURANTE E PIZZARIA SEM FORNO A LENHA";"AV LAGEADO, 1265"
"-30.097656";"-51.2307499";"street_address";"Av. da Cavalhada, 2360 - Cavalhada, Porto Alegre - RS, 91740-000, Brazil";22;"LANCHERIA";"AV CAVALHADA, 2360/104"
"-30.0350038";"-51.2115343";"street_address";"Av. Osvaldo Aranha, 1098 - Bom Fim, Porto Alegre - RS, 90035-191, Brazil";23;"CAFETERIA";"AV OSVALDO ARANHA, 1098"
"-30.0153174";"-51.159487";"street_address";"Av. Francisco Trein, 439 - Cristo Redentor, Porto Alegre - RS, Brazil";24;"CAFETERIA";"AV FRANCISCO TREIN, 439"
"-30.0965457";"-51.2495033";"street_address";"Av. Diário de Notícias, 1475 - Centro, Porto Alegre - RS, 90810-080, Brazil";25;"BAZAR";"AV DIARIO DE NOTICIAS, 1475/2"
"-30.0186961";"-51.1519705";"street_address";"Av. do Forte, 914 - Vila Ipiranga, Porto Alegre - RS, 91360-001, Brazil";26;"CARNES E DERIVADOS";"AV FORTE, 914/201"
"-30.0118188";"-51.2045567";"street_address";"Av. Pres. Franklin Roosevelt, 1387 - São Geraldo, Porto Alegre - RS, 90230-002, Brazil";27;"PERFUMARIA";"AV PRESIDENTE FRANKLIN ROOSEVELT, 1387"
"-30.0201166";"-51.1517925";"street_address";"Av. do Forte, 1088 - Vila Ipiranga, Porto Alegre - RS, Brazil";28;"RESTAURANTE E PIZZARIA SEM FORNO A LENHA";"AV FORTE, 1088"
"-30.1037562";"-51.2535685";"street_address";"Av. Pereira Passos, 1125 - Vila Assunção, Porto Alegre - RS, 91900-240, Brazil";29;"LOJA DE CONFECCOES";"AV PEREIRA PASSOS, 1125/4"
"-30.0855884";"-51.240251";"street_address";"Av. Icaraí, 780 - Cristal, Porto Alegre - RS, 90810-000, Brazil";30;"ARTIGOS DO VESTUARIO";"AV ICARAI, 780/101"
"-30.018296";"-51.2012548";"street_address";"Av. Cristóvão Colombo, 1931 - Floresta, Porto Alegre - RS, 90560-004, Brazil";31;"RESTAURANTE E PIZZARIA SEM FORNO A LENHA";"AV CRISTOVAO COLOMBO, 1931"
"-30.131397";"-51.235576";"street_address";"Av. Cel. Marcos, 2354 - Ipanema, Porto Alegre - RS, 91760-000, Brazil";32;"ALIMENTOS PERECIVEIS (VEDADO COMERCIALIZAR PRODUTOHORTIFRUTIGRANJEIROS)";"AV CEL MARCOS, 2354"
"-30.0303257";"-51.2280664";"street_address";"Tv. Eng. Acilino de Carvalho, 43 - Centro Histórico, Porto Alegre - RS, 90010-200, Brazil";33;"LANCHERIA";"TRAV ENG ACILINO CARVALHO, 43"
"-29.9950203";"-51.126047";"street_address";"Avenida Alcídes São Severiano, 150 - Sarandi, Porto Alegre - RS, 91130-500, Brazil";34;"COSMETICOS E OU PRODUTOS PARA SALAO DE BELEZA";"AV ALCIDES S SEVERIANO, 150/3"
"-30.0365668";"-51.2058782";"street_address";"R. Miguel Tostes, 941 - Rio Branco, Porto Alegre - RS, 90430-061, Brazil";35;"BAR/CAFE/LANCHERIA";"R MIGUEL TOSTES, 941"
"-30.1074446";"-51.2536584";"street_address";"Av. Wenceslau Escobar, 2170 - Vila Conceição, Porto Alegre - RS, 91900-001, Brazil";36;"LOJA DE MOVEIS";"AV WENCESLAU ESCOBAR, 2170"
"-30.0311229";"-51.2335775";"establishment";"R. dos Andradas, 820 - Centro Histórico, Porto Alegre - RS, 90010-020, Brazil";37;"COSMETICOS E OU PRODUTOS PARA SALAO DE BELEZA";"R ANDRADAS, 820"
"-30.0366052";"-51.2239823";"street_address";"R. Gen. Lima e Silva, 297 - Centro Histórico, Porto Alegre - RS, 90050-101, Brazil";38;"ARTIGOS DO VESTUARIO";"R GEN LIMA E SILVA, 297"
"-30.0238068";"-51.1872132";"street_address";"Rua Eudoro Berlink, 1026 - Auxiliadora, Porto Alegre - RS, 90450-030, Brazil";39;"SUPRIMENTO P/ COMPUTADORES E MATERIAIS INFORMATICA";"R EUDORO BERLINK, 1026"
"-30.0119922";"-51.1973522";"street_address";"Av. São Pedro, 1210 - São Geraldo, Porto Alegre - RS, 90230-122, Brazil";40;"MATERIAL ELETRICO";"AV SAO PEDRO, 1210"
"-30.0504236";"-51.2242071";"premise";"Av. Bastian, 366 - Menino Deus, Porto Alegre - RS, 90130-021, Brazil";41;"LOJA DE ACESSORIOS PARA ANIMAIS";"AV BASTIAN, 366"
"-30.0193741";"-51.2004272";"premise";"R. Dr. Timóteo, 471 - Floresta, Porto Alegre - RS, 90570-041, Brazil";42;"RESTAURANTE";"R DR TIMOTEO, 471"
"-30.0317272";"-51.2347274";"establishment";"R. dos Andradas, 685 - Centro, Porto Alegre - RS, 90020-003, Brazil";43;"BAR/CAFE/LANCHERIA";"R ANDRADAS, 932/1"
"-30.0232588";"-51.2031525";"street_address";"R. Dinarte Ribeiro, 116 - Moinhos de Vento, Porto Alegre - RS, 90570-050, Brazil";44;"RESTAURANTE E PIZZARIA SEM FORNO A LENHA";"R DINARTE RIBEIRO, 116"
NA;NA;NA;"R RUBENS ROSA GUEDES 225/4 JAR ITU SABARA Porto Alegre %26&key=AIzaSyBA2Kt4jMYJe3up70J0Kl48Idrm69K6n0I";45;"LOJA DE ARTIGOS DE DECORACAO";"R RUBENS ROSA GUEDES, 225/4"
NA;NA;NA;"AV JUCA BATISTA 1734/4 ZONA INDEFIN. 2 Porto Alegre %26&key=AIzaSyBA2Kt4jMYJe3up70J0Kl48Idrm69K6n0I";46;"FARMACIA/DROGARIA/PERFUMARIA";"AV JUCA BATISTA, 1734/4"
"-30.0831221";"-51.2396525";"street_address";"Av. Capivari, 843 - Cristal, Porto Alegre - RS, 90810-070, Brazil";47;"PADARIA SEM UTILIZACAO DE FORNO A LENHA";"AV CAPIVARI, 843"
"-30.0110143";"-51.1524953";"street_address";"R. Zéca Neto, 45 - Cristo Redentor, Porto Alegre - RS, 91370-100, Brazil";48;"ARTIGOS DO VESTUARIO";"R ZECA NETO, 45/302"
"-30.0133122";"-51.1721724";"premise";"Av. Plínio Brasil Milano, 2370 - Higienópolis, Porto Alegre - RS, 90520-001, Brazil";49;"RESTAURANTE E PIZZARIA SEM FORNO A LENHA";"AV PLINIO BRASIL MILANO, 2370"
"-30.0552293";"-51.1655248";"street_address";"Av. Ipiranga, 7308 - Praia de Belas, Porto Alegre - RS, Brazil";50;"LOJA DE MOVEIS";"AV IPIRANGA, 7308"
"-30.0207851";"-51.1909565";"street_address";"R. Auxiliadora, 176 - Auxiliadora, Porto Alegre - RS, 90540-120, Brazil";51;"RESTAURANTE E PIZZARIA SEM FORNO A LENHA";"R AUXILIADORA, 176"
"-30.0291299";"-51.1930814";"premise";"Av. Mariland, 1587 - Mont'Serrat, Porto Alegre - RS, 90440-190, Brazil";52;"RESTAURANTE E PIZZARIA SEM FORNO A LENHA";"AV MARILAND, 1587"
"-30.0229611";"-51.2029387";"street_address";"Praça Dr. Maurício Cardoso, 61 - Moinhos de Vento, Porto Alegre - RS, 90570-020, Brazil";53;"BAR/CAFE/LANCHERIA";"PCA DR MAURICIO CARDOSO, 61"
"-30.029678";"-51.2293383";"establishment";"R. dos Andradas, 1234 - Centro Histórico, Porto Alegre - RS, 90010-000, Brazil";54;"INSTRUMENTOS MEDICO HOSPITALARES/MATERIAL ODONTO- LOGICO,APARELHOS ORTOPEDICOS,AUDITIVOS E EQUIPA-  MENTOS CIENTIFICOS E DE LABORATORIO";"R ANDRADAS, 1727/65"
"-30.0097479";"-51.1350091";"street_address";"Av. Baltazar de Oliveira Garcia, 940 - São Sebastião, Porto Alegre - RS, Brazil";55;"LOJA DE CONFECCOES";"AV BALTAZAR DE OLIVEIRA GARCIA, 940"
"-30.049779";"-51.2284706";"street_address";"Av. Praia de Belas, 1181 - Praia de Belas, Porto Alegre - RS, 90110-001, Brazil";56;"ARTIGOS DO VESTUARIO";"AV PRAIA DE BELAS, 1181/2102"
"-29.993187";"-51.112737";"street_address";"Av. Plínio Kroeff, 2080 - Rubem Berta, Porto Alegre - RS, 91150-170, Brazil";57;"METAIS";"AV PLINIO KROEFF, 2080"
"-30.0050937";"-51.1383484";"street_address";"Av. Assis Brasil, 4990 - Passo d'Areia, Porto Alegre - RS, Brazil";58;"LOJA DE INSTRUMENTOS MEDICO-HOSPITALARES";"AV ASSIS BRASIL, 4990/301"
"-29.9869222";"-51.1580599";"street_address";"Av. Severo Dullius, 195 - São João, Porto Alegre - RS, 90200-310, Brazil";59;"PRODUTOS AGRICOLAS E VETERINARIOS";"AV SEVERO DULLIUS, 195/106"
"-30.0117352";"-51.1523932";"premise";"R. Zéca Neto, 133 - Cristo Redentor, Porto Alegre - RS, 91370-100, Brazil";60;"PRODUTOS AGRICOLAS E VETERINARIOS";"R ZECA NETO, 133"
"-29.9817963";"-51.1131898";"street_address";"Av. Bernardino Silveira Amorim, 1 - Sarandi, Porto Alegre - RS, Brazil";61;"DEPOSITO DE MATERIAL DE LIMPEZA E HIGIENE";"AV BERNARDINO SILVEIRA DE AMORIM, 1161/1"
"-30.0292335";"-51.1827435";"premise";"R. Regente, 409 - Petrópolis, Porto Alegre - RS, 90470-170, Brazil";62;"DISTRIBUIDORA DE BENS DE TERCEIROS";"R REGENTE, 409"
"-30.0292335";"-51.1827435";"premise";"R. Regente, 409 - Petrópolis, Porto Alegre - RS, 90470-170, Brazil";63;"LOJA DE MOVEIS";"R REGENTE, 409"
"-30.0067693";"-51.1372847";"premise";"R. Eng. Ubatuba de Faria, 157 - Sarandi, Porto Alegre - RS, 91130-070, Brazil";64;"ARTIGOS DO VESTUARIO";"R ENG UBATUBA DE FARIA, 157"
"-30.0298722";"-51.2256283";"establishment";"R. dos Andradas, 1593 - Centro Histórico, Porto Alegre - RS, 90010-140, Brazil";65;"JOALHERIA";"R ANDRADAS, 833"
"-30.0288694";"-51.2248999";"establishment";"Rua Doutor Flores, 383 - Centro Histórico, Porto Alegre - RS, 90020-123, Brazil";66;"LOJA DE MATERIAL ODONTOLOGICO";"R DR FLORES, 383/904"
"-30.029678";"-51.2293383";"establishment";"R. dos Andradas, 1234 - Centro Histórico, Porto Alegre - RS, 90010-000, Brazil";67;"LOJA DE EQUIPAMENTOS AUDITIVOS";"R ANDRADAS, 1727/60"
"-30.0386718";"-51.1759137";"street_address";"Av. Protásio Alves, 3474 - Petrópolis, Porto Alegre - RS, 90410-007, Brazil";68;"LOJA DE APARELHOS ORTOPEDICOS";"AV PROTASIO ALVES, 3474"
"-30.0351572";"-51.2389497";"street_address";"R. Duque de Caxias, 259 - Centro Histórico, Porto Alegre - RS, 90010-280, Brazil";69;"ESPECIALIDADES FARMACEUTICAS ALOPATICAS OU HOMEOPATICAS (VITAMINAS E COMPLEMENTOS ALIMENTARES)";"R DUQUE DE CAXIAS, 259"
"-29.991987";"-51.2016022";"street_address";"R. Frederico Mentz, 1115 - Navegantes, Porto Alegre - RS, 90240-110, Brazil";70;"DISTRIBUIDORA DE MEDICAMENTOS";"R FREDERICO MENTZ, 1115"
"-30.0293447";"-51.2224893";"street_address";"Praça Dom Feliciano, 78 - Centro Histórico, Porto Alegre - RS, 90020-160, Brazil";71;"INSTRUMENTOS MEDICO HOSPITALARES/MATERIAL ODONTO- LOGICO,APARELHOS ORTOPEDICOS,AUDITIVOS E EQUIPA-  MENTOS CIENTIFICOS E DE LABORATORIO";"PCA DOM FELICIANO, 78/211"
"-30.0585529";"-51.2298001";"street_address";"Av. Praia de Belas, 2254 - Praia de Belas, Porto Alegre - RS, Brazil";72;"LOJA DE EQUIPAMENTOS CIENTIFICOS E DE LABORATORIO";"AV PRAIA DE BELAS, 2254"
"-30.0117352";"-51.1523932";"premise";"R. Zéca Neto, 133 - Cristo Redentor, Porto Alegre - RS, 91370-100, Brazil";73;"DEPOSITO DE PRODUTOS AGRICOLAS E VETERINARIOS";"R ZECA NETO, 133"
"-29.9905578";"-51.1097727";"street_address";"Av. Bernardino Silveira Amorim, 1161 - Rubem Berta, Porto Alegre - RS, 91160-241, Brazil";74;"DEPOSITO DE MATERIAL DE LIMPEZA E HIGIENE";"AV BERNARDINO SILVEIRA DE AMORIM, 1161"
"-30.030454";"-51.223409";"doctor";"R. Gen. Vitorino, 330/401 - Centro Histórico, Porto Alegre - RS, 90020-170, Brazil";75;"OTICAS";"R GEN VITORINO, 305/301"
"-30.0311234";"-51.2266742";"street_address";"R. Mal. Floriano Peixoto, 270 - Centro, Porto Alegre - RS, 90020-020, Brazil";76;"MATERIAL OTICO";"R MARECHAL FLORIANO PEIXOTO, 270/71"
"-30.0000488";"-51.2052042";"street_address";"R. Comendador Taváres, 89 - Navegantes, Porto Alegre - RS, 90230-020, Brazil";77;"DEPOSITO DE PRODUTOS QUIMICOS";"R COMENDADOR TAVARES, 89"
"-29.9998833";"-51.2061932";"street_address";"R. Voluntários da Pátria, 3969 - Centro Histórico, Porto Alegre - RS, Brazil";78;"DISTRIBUIDORA DE MEDICAMENTOS";"R VOLUNTARIOS DA PATRIA, 3969"
"-30.0575393";"-51.2210952";"street_address";"R. Gonçalves Dias, 840 - Menino Deus, Porto Alegre - RS, 90130-060, Brazil";79;"LOJA DE MATERIAL ODONTOLOGICO";"R GONCALVES DIAS, 840"
"-30.024486";"-51.20734";"street_address";"Rua Dr. Vale, 296 - Moinhos de Vento, Porto Alegre - RS, 90560-010, Brazil";80;"INSTRUMENTOS MEDICO HOSPITALARES/MATERIAL ODONTO- LOGICO,APARELHOS ORTOPEDICOS,AUDITIVOS E EQUIPA-  MENTOS CIENTIFICOS E DE LABORATORIO";"R DR VALE, 296"
"-30.0198947";"-51.2119006";"street_address";"R. Comendador Azevedo, 151 - Floresta, Porto Alegre - RS, 90220-150, Brazil";81;"PRODUTOS FARMACEUTICOS";"R COMENDADOR AZEVEDO, 151"
"-30.004643";"-51.19945";"street_address";"Av. Cairú, 750 - Navegantes, Porto Alegre - RS, 90230-030, Brazil";82;"DISTRIBUIDORA DE MEDICAMENTOS";"R CAIRU, 750"
"-30.0251439";"-51.2227353";"establishment";"Av. Júlio de Castilhos, 435 - Centro, Porto Alegre - RS, 90030-131, Brazil";83;"MAQUINAS,APARELHOS,EQUIPAMENTOS DIVERSOS";"AV JULIO DE CASTILHOS, 132/802"
"-30.005971";"-51.1979397";"street_address";"Av. Brasil, 944 - Navegantes, Porto Alegre - RS, 90230-060, Brazil";84;"VIDRACARIAS";"AV BRASIL, 944"
"-29.9938931";"-51.1441942";"street_address";"R. Sérgio Jungblut Dieterich, 820 - Sarandi, Porto Alegre - RS, 91060-410, Brazil";85;"INSTRUMENTOS MEDICO HOSPITALARES/MATERIAL ODONTO- LOGICO,APARELHOS ORTOPEDICOS,AUDITIVOS E EQUIPA-  MENTOS CIENTIFICOS E DE LABORATORIO";"R SERGIO JUNGBLUT DIETERICH, 820/18"
"-29.9954607";"-51.1350085";"premise";"Tv. José Girardi, 25 - Sarandi, Porto Alegre - RS, 91110-330, Brazil";86;"LOJA DE EQUIPAMENTOS CIENTIFICOS E DE LABORATORIO";"TRAV JOSE GIRARDI, 25"
"-30.0013659";"-51.1161178";"street_address";"Av. Plínio Kroeff, 1030 - Rubem Berta, Porto Alegre - RS, Brazil";87;"MINI-MERCADO";"AV PLINIO KROEFF, 1030/301"
"-30.004465";"-51.2001115";"street_address";"Av. Cairú, 702 - Navegantes, Porto Alegre - RS, Brazil";88;"MINI-MERCADO";"R CAIRU, 702"
"-29.9983925";"-51.1903245";"street_address";"Av. Ceará, 278 - São João, Porto Alegre - RS, 90240-510, Brazil";89;"PECAS E ACESSORIOS PARA VEICULOS";"AV CEARA, 278"
"-29.9982938";"-51.1902964";"street_address";"Av. Ceará, 264 - São João, Porto Alegre - RS, 90240-510, Brazil";90;"PECAS E ACESSORIOS PARA VEICULOS";"AV CEARA, 264"
"-30.023199";"-51.1903543";"street_address";"R. Silva Jardim, 120 - Auxiliadora, Porto Alegre - RS, 90450-070, Brazil";91;"PECAS E ACESSORIOS PARA VEICULOS";"R SILVA JARDIM, 120"
"-30.0623679";"-51.1881157";"street_address";"Av. Bento Gonçalves, 2727 - Partenon, Porto Alegre - RS, 90650-002, Brazil";92;"OTICAS";"AV BENTO GONCALVES, 2727/101"
"-30.0267476";"-51.150028";"street_address";"Rua Pero Vaz de Caminha, 61 - Vila Ipiranga, Porto Alegre - RS, 91320-270, Brazil";93;"LOJA DE MOVEIS";"R PERO VAZ DE CAMINHA, 61"
"-30.0280404";"-51.1698228";"street_address";"Av. Dr. Nilo Peçanha, 2254 - Boa Vista, Porto Alegre - RS, 90330-002, Brazil";94;"LOJA DE MOVEIS";"AV DR NILO PECANHA, 2254"
"-30.0386717";"-51.1910786";"street_address";"R. Amélia Téles, 396 - Petrópolis, Porto Alegre - RS, 90460-070, Brazil";95;"LOJA DE COLCHOES";"R AMELIA TELES, 396"
"-30.156787";"-51.223488";"street_address";"R. Jacipuia, 201 - Guarujá, Porto Alegre - RS, 91770-030, Brazil";96;"SUPRIMENTO P/ COMPUTADORES E MATERIAIS INFORMATICA";"R JACIPUIA, 201"
"-30.0316666";"-51.226079";"street_address";"R. Riachuelo, 1555 - Centro Histórico, Porto Alegre - RS, 90010-270, Brazil";97;"ARTIGOS DO VESTUARIO";"R RIACHUELO, 1555"
"-30.0200352";"-51.1798713";"street_address";"Av. Plínio Brasil Milano, 1100 - Higienópolis, Porto Alegre - RS, Brazil";98;"LANCHERIA";"AV PLINIO BRASIL MILANO, 1100/107"
"-30.0384471";"-51.2031069";"street_address";"Av. Protásio Alves, 525 - Petrópolis, Porto Alegre - RS, Brazil";99;"BAR/CAFE/LANCHERIA";"AV PROTASIO ALVES, 525"
"-30.029678";"-51.2293383";"establishment";"R. dos Andradas, 1234 - Centro Histórico, Porto Alegre - RS, 90010-000, Brazil";100;"ARTIGOS DO VESTUARIO";"R ANDRADAS, 409/1"
"-30.0764163";"-51.1683371";"establishment";"R. Dona Firmina, 1650 - São José, Porto Alegre - RS, 91520-210, Brazil";101;"MATERIAL ELETRICO";"PCA CARNEIRO DA FONTOURA, 12"
"-30.0097533";"-51.134809";"street_address";"Av. Baltazar de Oliveira Garcia, 960 - São Sebastião, Porto Alegre - RS, Brazil";102;"PAPELARIA";"AV BALTAZAR DE OLIVEIRA GARCIA, 960/305"
"-30.0103759";"-51.2029568";"street_address";"Av. São Pedro, 645 - São Geraldo, Porto Alegre - RS, Brazil";103;"COSMETICOS E OU PRODUTOS PARA SALAO DE BELEZA";"AV SAO PEDRO, 645"
"-30.0278384";"-51.2304199";"establishment";"R. Gen. Câmara, 60 - Centro Histórico, Porto Alegre - RS, 90010-230, Brazil";104;"LIVRARIA";"R GEN CAMARA, 385"
"-30.0311917";"-51.2268783";"street_address";"R. Mal. Floriano Peixoto, 280 - Centro Histórico, Porto Alegre - RS, 90020-060, Brazil";105;"COSMETICOS E OU PRODUTOS PARA SALAO DE BELEZA";"R MARECHAL FLORIANO PEIXOTO, 280/21"
"-30.0435551";"-51.1825015";"street_address";"Av. Protásio Alves, 2677 - Petrópolis, Porto Alegre - RS, 90410-006, Brazil";106;"OTICAS";"AV PROTASIO ALVES, 2677/1"
"-30.0263411";"-51.2222615";"establishment";"Praça Osvaldo Cruz, 15 - conj. 2806 - Centro Histórico, Porto Alegre - RS, 90245-470, Brazil";107;"PAPELARIA";"PCA OSVALDO CRUZ, 15/1103"
"-30.0859242";"-51.2312693";"street_address";"R. Cruzeiro do Sul, 2997 - Cristal, Porto Alegre - RS, 90840-000, Brazil";108;"ALIMENTOS PARA ANIMAIS(CONGELADOS OU NAO)";"R CRUZEIRO DO SUL, 2997"
"-30.0461564";"-51.1975432";"street_address";"R. Vicente da Fontoura, 1804 - Rio Branco, Porto Alegre - RS, 90640-001, Brazil";109;"MATERIAL DE CONSTRUCAO";"R VICENTE DA FONTOURA, 1804/2"
"-29.9933792";"-51.1177888";"street_address";"Av. Francisco Silveira Bitencourt, 1225 - Sarandi, Porto Alegre - RS, 91150-010, Brazil";110;"LOJA DE MOVEIS";"AV FRANCISCO SILVEIRA BITENCOURT, 1225/8"
"-30.046126";"-51.20015";"street_address";"R. Dr. Gastão Rhodes, 320 - Santana, Porto Alegre - RS, 90620-040, Brazil";111;"FERRAGEM";"R DR GASTAO RHODES, 320"
NA;NA;NA;"AV BERNARDINO SILVEIRA DE AMORIM 1258 ZONA INDEFINIDA Porto Alegre %26&key=AIzaSyBA2Kt4jMYJe3up70J0Kl48Idrm69K6n0I";112;"VEICULOS";"AV BERNARDINO SILVEIRA DE AMORIM, 1258"
"-30.0625922";"-51.1775494";"street_address";"Av. Bento Gonçalves, 3871 - Partenon, Porto Alegre - RS, 90650-002, Brazil";113;"COSMETICOS E OU PRODUTOS PARA SALAO DE BELEZA";"AV BENTO GONCALVES, 3871/4"
"-29.9809798";"-51.1288986";"street_address";"Av. Souza Melo, 658 - Sarandi, Porto Alegre - RS, Brazil";114;"BAZAR";"AV SOUZA MELO, 658"
"-30.0655235";"-51.2114736";"street_address";"R. Cel. Neves, 80 - Medianeira, Porto Alegre - RS, Brazil";115;"ALIMENTOS PERECIVEIS (VEDADO COMERCIALIZAR PRODUTOHORTIFRUTIGRANJEIROS)";"R CEL NEVES, 80"
"-30.0795724";"-51.2090472";"street_address";"Av. Teresópolis, 2956 - Teresópolis, Porto Alegre - RS, 90870-000, Brazil";116;"LANCHERIA";"AV TERESOPOLIS, 2956/3"
"-30.0232591";"-51.2101509";"street_address";"Av. Cristóvão Colombo, 882 - Floresta, Porto Alegre - RS, 90560-001, Brazil";117;"RESTAURANTE E PIZZARIA SEM FORNO A LENHA";"AV CRISTOVAO COLOMBO, 882"
"-29.995564";"-51.1290377";"premise";"Av. Salvador Leão, 100 - Sarandi, Porto Alegre - RS, 91130-700, Brazil";118;"MATERIAL ELETRICO";"AV SALVADOR LEAO, 100"
"-30.021833";"-51.1625768";"street_address";"Av. Túlio de Rose, 80 - Passo d'Areia, Porto Alegre - RS, Brazil";119;"RESTAURANTE E PIZZARIA SEM FORNO A LENHA";"AV TULIO DE ROSE, 80/335"
"-30.0318185";"-51.1512279";"street_address";"Av. Saturnino de Brito, 1146 - Vila Jardim, Porto Alegre - RS, Brazil";120;"PECAS E ACESSORIOS PARA VEICULOS";"AV SATURNINO DE BRITO, 1146"
"-30.0197934";"-51.1542208";"premise";"Rua Engenheiro Walter Boehl, 10 - Vila Ipiranga, Porto Alegre - RS, 91360-090, Brazil";121;"LOJA DE VARIEDADES (VESTUARIO, CALCADOS, BRINQUEDOARMARINHOS, BIJOUTERIAS EM PEQUENO ESTOQUE";"R ENG WALTER BOEHL, 10"
"-29.9788079";"-51.1741939";"street_address";"R. Ângelo Dourado, 118 - Anchieta, Porto Alegre - RS, 90200-060, Brazil";122;"RESTAURANTE E PIZZARIA SEM FORNO A LENHA";"R ANGELO DOURADO, 118"
"-30.1555333";"-51.1733516";"street_address";"Av. Edgar Píres de Castro, 1800 - Aberta dos Morros, Porto Alegre - RS, 91788-000, Brazil";123;"POSTO DE ABASTECIMENTO";"AV EDGAR PIRES DE CASTRO, 1800"
"-30.0063211";"-51.2034993";"street_address";"Av. Maranhão, 130 - São Geraldo, Porto Alegre - RS, 90230-041, Brazil";124;"LOJA DE BARCOS, TRAILERS E EQUIPAMENTOS NAUTICOS";"AV MARANHAO, 130"
"-30.0049568";"-51.1685231";"establishment";"Av. João de Saldanha, 120 - Santa Maria Goretti, Porto Alegre - RS, 91030-440, Brazil";125;"EQUIPAMENTOS DE SEGURANCA";"AV JOAO DE SALDANHA, 120"
"-29.9961321";"-51.2023877";"establishment";"R. Frederico Mentz, 1561 - Navegantes, Porto Alegre - RS, Brazil";126;"LOJA DE MOVEIS";"R FREDERICO MENTZ, 1561/181"
"-30.023646";"-51.1841286";"street_address";"Av. Carlos Gomes, 141 - Auxiliadora, Porto Alegre - RS, 90480-003, Brazil";127;"CENTRAL DE PREPARO E DISTRIBUICAO DE ALIMENTOS    PARA TERCEIROS E/OU FILIAIS";"AV CARLOS GOMES, 141/1202"
"-30.028557";"-51.2254947";"street_address";"Av. Otávio Rocha, 116 - Centro Histórico, Porto Alegre - RS, 90020-150, Brazil";128;"LOJA DE CONFECCOES";"AV OTAVIO ROCHA, 116/42"
"-30.0539851";"-51.2003841";"street_address";"Av. Bento Gonçalves, 1262 - Partenon, Porto Alegre - RS, 90650-001, Brazil";129;"PADARIA SEM UTILIZACAO DE FORNO A LENHA";"AV BENTO GONCALVES, 1262"
"-30.037854";"-51.203012";"street_address";"R. Cel. Paulino Teixeira, 416 - Rio Branco, Porto Alegre - RS, 90420-160, Brazil";130;"BAR/CAFE/LANCHERIA";"R CEL PAULINO TEIXEIRA, 416"
"-30.027558";"-51.2256171";"street_address";"R. Voluntários da Pátria, 97 - Centro Histórico, Porto Alegre - RS, 90030-002, Brazil";131;"LOJA DE CONFECCOES";"R VOLUNTARIOS DA PATRIA, 97"
"-30.049629";"-51.2212942";"street_address";"R. Marcílio Dias, 804 - Menino Deus, Porto Alegre - RS, 90130-000, Brazil";132;"FERRAGEM";"R MARCILIO DIAS, 804/1"
"-30.0133899";"-51.1709172";"street_address";"Av. Plínio Brasil Milano, 2343 - Passo d'Areia, Porto Alegre - RS, 90520-003, Brazil";133;"MATERIAL DE CONSTRUCAO";"AV PLINIO BRASIL MILANO, 2343"
"-30.0286003";"-51.2222569";"street_address";"R. Pinto Bandeira, 486 - Centro Histórico, Porto Alegre - RS, 90030-150, Brazil";134;"ARTIGOS DESPORTIVOS";"R PINTO BANDEIRA, 486"
"-30.0543541";"-51.2146522";"street_address";"Av. da Azenha, 1195 - Azenha, Porto Alegre - RS, 90160-003, Brazil";135;"MAQUINAS,APARELHOS,EQUIPAMENTOS DIVERSOS";"AV AZENHA, 1195/8"
NA;NA;NA;"LE PERCORRENDO BAIRROS - SMIC 1 - Porto Alegre %26&key=AIzaSyBA2Kt4jMYJe3up70J0Kl48Idrm69K6n0I";136;"PERCORRENDO BAIRROS";"LE PERCORRENDO BAIRROS - SMIC, 1"
"-30.0373784";"-51.2335355";"route";"Av. Loureiro da Silva, Porto Alegre - RS, Brazil";137;"MERCADAO DO PRODUTOR RAMO 2";"AV LOUREIRO DA SILVA, 1"
"-30.023683";"-51.204544";"street_address";"R. Luciana de Abreu, 184 - Moinhos de Vento, Porto Alegre - RS, 90570-060, Brazil";138;"LOJA DE CONFECCOES";"R LUCIANA DE ABREU, 184/1"
"-30.0307275";"-51.2261641";"street_address";"Av. Sen. Salgado Filho, 148 - Centro Histórico, Porto Alegre - RS, 90010-221, Brazil";139;"BAR/CAFE/LANCHERIA";"AV SENADOR SALGADO FILHO, 148"
"-30.064959";"-51.18295";"street_address";"Av. Bento Gonçalves, 3277 - Paternon, Porto Alegre - RS, 90650-003, Brazil";140;"ARTIGOS DO VESTUARIO";"AV BENTO GONCALVES, 3277"
NA;NA;NA;"R SANTOS ZOTTIS 166 ZONA INDEFIN. 1 Porto Alegre %26&key=AIzaSyBA2Kt4jMYJe3up70J0Kl48Idrm69K6n0I";141;"ARTIGOS DO VESTUARIO";"R SANTOS ZOTTIS, 166"
"-30.0479236";"-51.1998346";"street_address";"R. Vicente da Fontoura, 1487 - Santana, Porto Alegre - RS, 90640-003, Brazil";142;"TABACARIA/REVISTAS";"R VICENTE DA FONTOURA, 1487"
"-30.0045876";"-51.1368115";"street_address";"Av. Assis Brasil, 5143 - Passo d'Areia, Porto Alegre - RS, 91010-004, Brazil";143;"MATERIAL DE CONSTRUCAO";"AV ASSIS BRASIL, 5143"
"-29.990836";"-51.129752";"street_address";"Av. Minas Gerais, 225 - Sarandi, Porto Alegre - RS, 91110-480, Brazil";144;"ARTIGOS SANITARIOS/MATERIAL DE CONSTRUCAO";"AV MINAS GERAIS, 225"
"-30.0553043";"-51.1979342";"premise";"R. Monteiro Lobato, 67 - Partenon, Porto Alegre - RS, 90620-270, Brazil";145;"PRESENTES/ARTESANATOS/SOUVENIRS";"R MONTEIRO LOBATO, 67"
"-30.0066805";"-51.1971243";"street_address";"Av. Pará, 466 - Navegantes, Porto Alegre - RS, 90240-592, Brazil";146;"PECAS E ACESSORIOS PARA VEICULOS";"AV PARA, 466/104"
"-30.102354";"-51.2328138";"street_address";"Av. Otto Niemeyer, 2686 - Tristeza, Porto Alegre - RS, 91910-001, Brazil";147;"ARTIGOS SANITARIOS/MATERIAL DE CONSTRUCAO";"AV OTTO NIEMEYER, 2686"
"-29.9923716";"-51.1956363";"route";"Rua Dona Teodora, Porto Alegre - RS, Brazil";148;"PECAS E ACESSORIOS PARA VEICULOS";"R DONA TEODORA, 1643"
"-30.02213";"-51.2098083";"premise";"R. Gaspar Martins, 510 - Floresta, Porto Alegre - RS, 90220-160, Brazil";149;"RESTAURANTE E PIZZARIA SEM FORNO A LENHA";"R GASPAR MARTINS, 510"
"-30.0400802";"-51.165095";"street_address";"Av. Protásio Alves, 4678 - Alto Petrópolis, Porto Alegre - RS, Brazil";150;"RESTAURANTE E PIZZARIA SEM FORNO A LENHA";"AV PROTASIO ALVES, 4678"
"-30.0298722";"-51.2256283";"establishment";"R. dos Andradas, 1593 - Centro Histórico, Porto Alegre - RS, 90010-140, Brazil";151;"ARTIGOS DO VESTUARIO";"R ANDRADAS, 1583"
"-30.0262208";"-51.212016";"street_address";"Av. Cristóvão Colombo, 545 - Floresta, Porto Alegre - RS, 90560-003, Brazil";152;"LOJA DE ARTIGOS DE DECORACAO";"AV CRISTOVAO COLOMBO, 545/1012"
"-30.10823";"-51.2542455";"street_address";"Av. Wenceslau Escobar, 2247 - Tristeza, Porto Alegre - RS, 91900-160, Brazil";153;"RESTAURANTE E PIZZARIA SEM FORNO A LENHA";"AV WENCESLAU ESCOBAR, 2247/1"
"-30.1038084";"-51.2333866";"street_address";"R. Silvio Silveira Soares, 2600 - Tristeza, Porto Alegre - RS, 91910-460, Brazil";154;"DEPOSITO DE FERRO VELHO";"R SILVIO SILVEIRA SOARES, 2600"
"-30.0315079";"-51.2263666";"street_address";"R. Riachuelo, 1506 - Centro Histórico, Porto Alegre - RS, 90010-273, Brazil";155;"FARMACIA/DROGARIA";"R RIACHUELO, 1506"
"-30.0795724";"-51.2090472";"street_address";"Av. Teresópolis, 2956 - Teresópolis, Porto Alegre - RS, 90870-000, Brazil";156;"PAPELARIA";"AV TERESOPOLIS, 2956/7"
"-29.9983873";"-51.1537205";"premise";"Av. Sertório, 5201 - Jardim Lindoia, Porto Alegre - RS, Brazil";157;"VEICULOS";"AV SERTORIO, 5201"
"-30.0259152";"-51.1965471";"street_address";"R. Cel. Bordini, 905 - Auxiliadora, Porto Alegre - RS, 90440-001, Brazil";158;"CASA DE CHA";"R CEL BORDINI, 905"
"-30.027539";"-51.195357";"street_address";"R. Anita Garibaldi, 77 - Mont'Serrat, Porto Alegre - RS, 90450-001, Brazil";159;"RESTAURANTE E PIZZARIA SEM FORNO A LENHA";"R ANITA GARIBALDI, 77"
NA;NA;NA;"MER MERCADO DO BOM FIM 1 FARROUPILHA Porto Alegre %26&key=AIzaSyBA2Kt4jMYJe3up70J0Kl48Idrm69K6n0I";160;"SORVETERIA";"MER MERCADO DO BOM FIM, 1"
NA;NA;NA;"R TEN ARY TARRAGO 3035 ZONA INDEFIN. 3 Porto Alegre %26&key=AIzaSyBA2Kt4jMYJe3up70J0Kl48Idrm69K6n0I";161;"FERRAGEM";"R TEN ARY TARRAGO, 3035"
"-30.0966255";"-51.252897";"street_address";"Av. Guaíba, 2040 - Vila Assunção, Porto Alegre - RS, 91900-420, Brazil";162;"BAR/CAFE/LANCHERIA";"AV GUAIBA, 2040"
"-30.035232";"-51.205052";"street_address";"R. São Manoel, 161 - Rio Branco, Porto Alegre - RS, 90620-110, Brazil";163;"ARTIGOS DO VESTUARIO";"R SAO MANOEL, 161"
"-30.040524";"-51.1963915";"street_address";"Av. Protásio Alves, 1197 - Rio Branco, Porto Alegre - RS, 90410-001, Brazil";164;"MOVEIS E ARTIGOS DE DECORACAO";"AV PROTASIO ALVES, 1197"
"-30.0417245";"-51.2169506";"street_address";"Av. Venâncio Aires, 303 - Cidade Baixa, Porto Alegre - RS, 90040-191, Brazil";165;"PRESENTES/ARTESANATOS/SOUVENIRS";"AV VENANCIO AIRES, 303"
"-30.015107";"-51.195133";"street_address";"Av. Berlim, 835 - São Geraldo, Porto Alegre - RS, 90240-581, Brazil";166;"RESTAURANTE E PIZZARIA SEM FORNO A LENHA";"AV BERLIM, 835"
"-29.9942105";"-51.1271979";"street_address";"Av. Francisco Silveira Bitencourt, 179 - Sarandi, Porto Alegre - RS, 91150-010, Brazil";167;"FERRAGEM";"AV FRANCISCO SILVEIRA BITENCOURT, 179"
"-30.0593787";"-51.1919642";"street_address";"R. Barão do Amazonas, 1839 - Partenon, Porto Alegre - RS, 90670-002, Brazil";168;"LANCHERIA";"R BARAO DO AMAZONAS, 1839/10"
NA;NA;NA;"AV JUCA BATISTA 1480/18 ZONA INDEFIN. 2 Porto Alegre %26&key=AIzaSyBA2Kt4jMYJe3up70J0Kl48Idrm69K6n0I";169;"LANCHERIA";"AV JUCA BATISTA, 1480/18"
NA;NA;NA;"AV ASSIS BRASIL 2158 JAR SAO PEDRO Porto Alegre %26&key=AIzaSyBA2Kt4jMYJe3up70J0Kl48Idrm69K6n0I";170;"BAR/CAFE/LANCHERIA";"AV ASSIS BRASIL, 2158"
"-30.0120503";"-51.1670752";"street_address";"R. Umbú, 15 - Passo d'Areia, Porto Alegre - RS, 91350-100, Brazil";171;"BAR/CAFE/LANCHERIA";"R UMBU, 15"
"-30.0137114";"-51.20344";"street_address";"R. Félix da Cunha, 91 - Floresta, Porto Alegre - RS, 90570-001, Brazil";172;"BAR/CAFE/LANCHERIA";"R FELIX DA CUNHA, 91/1"
"-30.0059516";"-51.2021977";"street_address";"Av. Pres. Franklin Roosevelt, 693 - Navegantes, Porto Alegre - RS, 90230-080, Brazil";173;"LANCHERIA";"AV PRESIDENTE FRANKLIN ROOSEVELT, 693"
NA;NA;NA;"VDT OTAVIO ROCHA 6 CENTRO HISTORIC Porto Alegre %26&key=AIzaSyBA2Kt4jMYJe3up70J0Kl48Idrm69K6n0I";174;"RESTAURANTE E PIZZARIA SEM FORNO A LENHA";"VDT OTAVIO ROCHA, 6"
"-30.017593";"-51.2000334";"street_address";"R. Dr. Timóteo, 272 - Floresta, Porto Alegre - RS, 90570-040, Brazil";175;"LANCHERIA";"R DR TIMOTEO, 272"
"-30.0998753";"-51.2422927";"street_address";"R. Cel. Massot, 649 - Cristal, Porto Alegre - RS, 91910-530, Brazil";176;"BAR/CAFE/LANCHERIA";"R CEL MASSOT, 649"
"-30.011101";"-51.205253";"street_address";"R. Moura Azevedo, 451 - São Geraldo, Porto Alegre - RS, 90230-151, Brazil";177;"RESTAURANTE";"R MOURA AZEVEDO, 451"
"-30.0287889";"-51.2264655";"street_address";"R. Mal. Floriano Peixoto, 18 - Centro Histórico, Porto Alegre - RS, 90020-060, Brazil";178;"LANCHERIA";"R MARECHAL FLORIANO PEIXOTO, 18"
"-30.0092307";"-51.1576842";"street_address";"Rua Domingos Rubbo, 212 - Cristo Redentor, Porto Alegre - RS, 91040-000, Brazil";179;"LANCHERIA";"R DOMINGOS RUBBO, 212"
"-30.0348132";"-51.2335498";"street_address";"R. Cel. Fernando Machado, 400 - Centro Histórico, Porto Alegre - RS, 90010-321, Brazil";180;"RESTAURANTE E PIZZARIA SEM FORNO A LENHA";"R CEL FERNANDO MACHADO, 400"
"-30.0036553";"-51.1994361";"premise";"Av. França, 722 - Navegantes, Porto Alegre - RS, 90230-220, Brazil";181;"LANCHERIA";"AV FRANCA, 722"
"-29.9922693";"-51.1160978";"premise";"Av. Francisco Silveira Bitencourt, 1240 - Sarandi, Porto Alegre - RS, 91150-010, Brazil";182;"LANCHERIA";"AV FRANCISCO SILVEIRA BITENCOURT, 1240"
"-30.0328635";"-51.227101";"street_address";"R. Mal. Floriano Peixoto, 439 - Centro Histórico, Porto Alegre - RS, 90020-061, Brazil";183;"BAR/CAFE/LANCHERIA";"R MARECHAL FLORIANO PEIXOTO, 439"
"-30.0240129";"-51.2190823";"street_address";"Largo Vespasiano Júlio Veppo, 1 - Centro Histórico, Porto Alegre - RS, Brazil";184;"BAR/CAFE/LANCHERIA";"LG VESPASIANO JULIO VEPPO, 1/116"
"-30.002374";"-51.1348146";"street_address";"Av. Assis Brasil, 5424 - Sarandi, Porto Alegre - RS, 91110-000, Brazil";185;"BAR/CAFE/LANCHERIA";"AV ASSIS BRASIL, 5424/4"
"-30.0267798";"-51.2272104";"street_address";"Praça Pereira Parobé, 1 - Centro Histórico, Porto Alegre - RS, 90030-170, Brazil";186;"BAR/CAFE/LANCHERIA";"PCA PEREIRA PAROBE, 1/9"
"-30.0106714";"-51.1456756";"street_address";"Av. Assis Brasil, 4037 - Passo d'Areia, Porto Alegre - RS, 91010-004, Brazil";187;"LANCHERIA";"AV ASSIS BRASIL, 4037"
"-30.0021229";"-51.2006044";"street_address";"Av. Pres. Franklin Roosevelt, 244 - Navegantes, Porto Alegre - RS, 90230-002, Brazil";188;"BAR/CAFE/LANCHERIA";"AV PRESIDENTE FRANKLIN ROOSEVELT, 244"
"-30.0240129";"-51.2190823";"street_address";"Largo Vespasiano Júlio Veppo, 1 - Centro Histórico, Porto Alegre - RS, Brazil";189;"BAR/CAFE/LANCHERIA";"LG VESPASIANO JULIO VEPPO, 1/73"
"-30.0511944";"-51.2111428";"street_address";"Av. Bento Gonçalves, 189 - Azenha, Porto Alegre - RS, 90650-002, Brazil";190;"BAR/CAFE/LANCHERIA";"AV BENTO GONCALVES, 189"
NA;NA;NA;"AV JULIO DE CASTILHOS 265 CENTRO HISTORIC Porto Alegre %26&key=AIzaSyBA2Kt4jMYJe3up70J0Kl48Idrm69K6n0I";191;"BAR/CAFE";"AV JULIO DE CASTILHOS, 265"
"-30.0290766";"-51.2257169";"street_address";"R. Vig. José Inácio, 379 - Centro, Porto Alegre - RS, 90020-100, Brazil";192;"LANCHERIA";"R VIGARIO JOSE IGNACIO, 379"
"-30.010487";"-51.210481";"establishment";"R. Voluntários da Pátria, 2616 - Floresta, Porto Alegre - RS, 90030-002, Brazil";193;"BAR/CAFE/LANCHERIA";"R VOLUNTARIOS DA PATRIA, 170/46"
"-30.0035746";"-51.1389309";"street_address";"R. Dona Alzira, 740 - Sarandi, Porto Alegre - RS, Brazil";194;"BAR/CAFE/LANCHERIA";"R DONA ALZIRA, 740"
"-30.0516998";"-51.2150389";"street_address";"Rua General Caldwell, 1225 - Menino Deus, Porto Alegre - RS, 90130-050, Brazil";195;"RESTAURANTE";"R GEN CALDWELL, 1225"
"-30.0230529";"-51.2179174";"street_address";"Largo Vespasiano Júlio Veppo, 127 - Centro Histórico, Porto Alegre - RS, Brazil";196;"BAR/CAFE/LANCHERIA";"LG VESPASIANO JULIO VEPPO, 1/127"
"-30.0240129";"-51.2190823";"street_address";"Largo Vespasiano Júlio Veppo, 1 - Centro Histórico, Porto Alegre - RS, Brazil";197;"BAR/CAFE/LANCHERIA";"LG VESPASIANO JULIO VEPPO, 1/120"
"-30.078372";"-51.208864";"street_address";"Av. Teresópolis, 2805 - Teresópolis, Porto Alegre - RS, 90870-001, Brazil";198;"CANTINA SEM FORNO A LENHA";"AV TERESOPOLIS, 2805"
"-30.0336424";"-51.2264899";"street_address";"R. Duque de Caxias, 1475 - Centro Histórico, Porto Alegre - RS, 90010-280, Brazil";199;"CANTINA SEM FORNO A LENHA";"R DUQUE DE CAXIAS, 1475"
"-30.0265745";"-51.2248207";"street_address";"Praça Rui Barbosa, 165 - Centro Histórico, Porto Alegre - RS, 90030-100, Brazil";200;"LANCHERIA";"PCA RUI BARBOSA, 165"
"-30.015362";"-51.1524391";"street_address";"Av. do Forte, 536 - Vila Ipiranga, Porto Alegre - RS, 91360-001, Brazil";201;"LANCHERIA";"AV FORTE, 536"
"-30.0134203";"-51.2043661";"street_address";"Av. Pres. Franklin Roosevelt, 1562 - Floresta, Porto Alegre - RS, 90220-231, Brazil";202;"LANCHERIA";"AV PRESIDENTE FRANKLIN ROOSEVELT, 1562"
"-30.0284215";"-51.2276487";"street_address";"Praça Quinze de Novembro, 19 - Centro Histórico, Porto Alegre - RS, 90020-080, Brazil";203;"BAR/CAFE/LANCHERIA";"PCA QUINZE DE NOVEMBRO, 19/39"
"-30.0329575";"-51.2223635";"premise";"Av. João Pessoa, 52 - Centro Histórico, Porto Alegre - RS, 90040-000, Brazil";204;"LANCHERIA";"AV JOAO PESSOA, 52"
"-30.0106193";"-51.1560982";"street_address";"Av. Assis Brasil, 3103 - Passo d'Areia, Porto Alegre - RS, 91010-004, Brazil";205;"BAR/CAFE/LANCHERIA";"AV ASSIS BRASIL, 3103"
"-30.0284215";"-51.2276487";"street_address";"Praça Quinze de Novembro, 19 - Centro Histórico, Porto Alegre - RS, 90020-080, Brazil";206;"LANCHERIA";"PCA QUINZE DE NOVEMBRO, 19/19"
"-30.0732272";"-51.1999391";"street_address";"R. Pedro Boticário, 505 - Partenon, Porto Alegre - RS, 90660-070, Brazil";207;"BAR/CAFE";"R PEDRO BOTICARIO, 505"
"-30.028035";"-51.219049";"street_address";"Av. Alberto Bins, 753 - Centro Histórico, Porto Alegre - RS, 90030-142, Brazil";208;"BAR/CAFE/LANCHERIA";"AV ALBERTO BINS, 753"
"-30.0280987";"-51.2243278";"street_address";"Rua Doutor Flores, 106 - Centro Histórico, Porto Alegre - RS, 90020-120, Brazil";209;"FIAMBRERIA";"R DR FLORES, 106/4"
"-30.005329";"-51.135235";"street_address";"R. Eng. João Luderitz, 191 - Sarandi, Porto Alegre - RS, 91130-050, Brazil";210;"ARMAZEM";"R ENG JOAO LUDERITZ, 191"
"-30.0387267";"-51.2248613";"street_address";"R. José do Patrocínio, 361 - Cidade Baixa, Porto Alegre - RS, 90050-101, Brazil";211;"RESTAURANTE E PIZZARIA SEM FORNO A LENHA";"R JOSE DO PATROCINIO, 361"
"-30.0240129";"-51.2190823";"street_address";"Largo Vespasiano Júlio Veppo, 1 - Centro Histórico, Porto Alegre - RS, Brazil";212;"BAR/CAFE/LANCHERIA";"LG VESPASIANO JULIO VEPPO, 1"
"-30.0083604";"-51.1771459";"establishment";"Av. Assis Brasil, 864 - Santa Maria Goretti, Porto Alegre - RS, 91010-000, Brazil";213;"BAR/CAFE/LANCHERIA";"AV ASSIS BRASIL, 1190"
"-30.0280186";"-51.2220181";"street_address";"Av. Alberto Bins, 462 - Centro, Porto Alegre - RS, 90030-140, Brazil";214;"BAR/CAFE/LANCHERIA";"AV ALBERTO BINS, 462"
"-30.0292771";"-51.2174616";"street_address";"Av. Independência, 394 - Independência, Porto Alegre - RS, Brazil";215;"LANCHERIA";"AV INDEPENDENCIA, 394"
"-30.0458002";"-51.214217";"street_address";"Av. da Azenha, 221 - Azenha, Porto Alegre - RS, 90160-000, Brazil";216;"BAR/CAFE/LANCHERIA";"AV AZENHA, 221"
"-30.0053709";"-51.2021131";"street_address";"Av. Pres. Franklin Roosevelt, 637 - São Geraldo, Porto Alegre - RS, 90230-001, Brazil";217;"RESTAURANTE E PIZZARIA SEM FORNO A LENHA";"AV PRESIDENTE FRANKLIN ROOSEVELT, 637"
"-30.0203432";"-51.163053";"street_address";"R. Roque Calage, 959 - Passo d'Areia, Porto Alegre - RS, 91350-090, Brazil";218;"RESTAURANTE E PIZZARIA SEM FORNO A LENHA";"R ROQUE CALAGE, 959"
"-30.0403945";"-51.1966776";"street_address";"Av. Protásio Alves, 1173 - Alto Petrópolis, Porto Alegre - RS, Brazil";219;"RESTAURANTE E PIZZARIA SEM FORNO A LENHA";"AV PROTASIO ALVES, 1173"
"-30.0302362";"-51.2266203";"bar";"R. Gen. Vitorino, 18 - Centro, Porto Alegre - RS, 90020-171, Brazil";220;"RESTAURANTE E PIZZARIA SEM FORNO A LENHA";"R GEN VITORINO, 18"
"-30.0457406";"-51.2141978";"street_address";"Av. da Azenha, 217 - Azenha, Porto Alegre - RS, 90160-000, Brazil";221;"RESTAURANTE";"AV AZENHA, 217"
"-30.0244861";"-51.2155198";"street_address";"R. Ernesto Alves, 127 - Floresta, Porto Alegre - RS, 90220-190, Brazil";222;"LANCHERIA";"R ERNESTO ALVES, 127"
"-30.0252979";"-51.2151228";"street_address";"Av. Farrapos, 459 - Floresta, Porto Alegre - RS, 90220-010, Brazil";223;"RESTAURANTE E PIZZARIA SEM FORNO A LENHA";"AV FARRAPOS, 459"
"-30.0018377";"-51.1626568";"street_address";"R. Nicolau Ely, 27 - Jardim Floresta, Porto Alegre - RS, Brazil";224;"RESTAURANTE E PIZZARIA SEM FORNO A LENHA";"R NICOLAU ELY, 27"
"-30.0179326";"-51.2014183";"street_address";"Av. Cristóvão Colombo, 1958 - Floresta, Porto Alegre - RS, 90560-002, Brazil";225;"RESTAURANTE E PIZZARIA SEM FORNO A LENHA";"AV CRISTOVAO COLOMBO, 1958"
"-30.0279524";"-51.2229025";"street_address";"Av. Alberto Bins, 382 - Centro Histórico, Porto Alegre - RS, 90030-141, Brazil";226;"BAR/CAFE/LANCHERIA";"AV ALBERTO BINS, 382"
"-30.0043303";"-51.1685952";"establishment";"Av. Carneiro da Fontoura, 796 - Santa Maria Goretti, Porto Alegre - RS, 91040-170, Brazil";227;"BAR/CAFE/LANCHERIA";"AV CARNEIRO DA FONTOURA, 796"
"-30.0383878";"-51.2034209";"street_address";"Av. Protásio Alves, 501 - Santa Cecilia, Porto Alegre - RS, 90410-000, Brazil";228;"BAR/CAFE/LANCHERIA";"AV PROTASIO ALVES, 501"
"-30.040554";"-51.225465";"street_address";"R. João Alfredo, 422 - Cidade Baixa, Porto Alegre - RS, 90050-230, Brazil";229;"BAR/CAFE/LANCHERIA";"R JOAO ALFREDO, 422"
"-30.0816352";"-51.212728";"street_address";"Praça Guia Lopes, 90 - Teresópolis, Porto Alegre - RS, 90840-330, Brazil";230;"LANCHERIA";"PCA GUIA LOPES, 90"
"-30.0240129";"-51.2190823";"street_address";"Largo Vespasiano Júlio Veppo, 1 - Centro Histórico, Porto Alegre - RS, Brazil";231;"LANCHERIA";"LG VESPASIANO JULIO VEPPO, 1/191"
"-30.0230529";"-51.2179174";"street_address";"Largo Vespasiano Júlio Veppo, 127 - Centro Histórico, Porto Alegre - RS, Brazil";232;"LANCHERIA";"LG VESPASIANO JULIO VEPPO, 1/127"
"-30.0280839";"-51.2229164";"bus_station";"Av. Alberto Bins, 392 - Centro, Porto Alegre - RS, 90030-142, Brazil";233;"LANCHERIA";"EST RODOVIARIA, 1"
"-30.0431264";"-51.2200984";"street_address";"R. José do Patrocínio, 1011 - Cidade Baixa, Porto Alegre - RS, 90050-002, Brazil";234;"BAR/CAFE";"R JOSE DO PATROCINIO, 1011"
"-30.0248577";"-51.2214253";"street_address";"R. Cel. Vicente, 146 - Centro, Porto Alegre - RS, 90030-040, Brazil";235;"LANCHERIA";"R CEL VICENTE, 146"
"-30.0177434";"-51.1592137";"street_address";"Av. Francisco Trein, 707 - Cristo Redentor, Porto Alegre - RS, 91350-200, Brazil";236;"BAR/CAFE/LANCHERIA";"AV FRANCISCO TREIN, 707"
"-30.0532598";"-51.2142749";"street_address";"Av. da Azenha, 1067 - Azenha, Porto Alegre - RS, 90160-006, Brazil";237;"BAR/CAFE/LANCHERIA";"AV AZENHA, 1067/2"
"-30.0415459";"-51.2166061";"street_address";"Av. Venâncio Aires, 341 - Cidade Baixa, Porto Alegre - RS, 90040-191, Brazil";238;"BAR/CAFE/LANCHERIA";"AV VENANCIO AIRES, 341"
"-30.0147479";"-51.1574779";"street_address";"R. Álvares Cabral, 574 - Cristo Redentor, Porto Alegre - RS, 91350-250, Brazil";239;"BAR/CAFE";"R ALVARES CABRAL, 574"
"-30.0234007";"-51.1726773";"street_address";"R. Erasto Roxo de Araújo Corrêa, 12 - Boa Vista, Porto Alegre - RS, 91340-180, Brazil";240;"LANCHERIA";"R ERASTO ROXO DE ARAUJO CORREA, 12"
"-30.2091709";"-51.1807852";"street_address";"R. Dr. Cecílio Monza, 10822 - Belém Novo, Porto Alegre - RS, 91780-060, Brazil";241;"LANCHERIA";"R DR CECILIO MONZA, 10822"
"-30.057478";"-51.1776285";"street_address";"Av. Ipiranga, 6500 - Jardim Botânico, Porto Alegre - RS, Brazil";242;"LANCHERIA";"AV IPIRANGA, 6500"
"-30.0251439";"-51.2227353";"establishment";"Av. Júlio de Castilhos, 435 - Centro, Porto Alegre - RS, 90030-131, Brazil";243;"BAR/CAFE/LANCHERIA";"AV JULIO DE CASTILHOS, 31/1"
"-30.044554";"-51.210554";"street_address";"R. Santana, 703 - Farroupilha, Porto Alegre - RS, 90040-373, Brazil";244;"LANCHERIA";"R SANTANA, 703"
"-30.0273917";"-51.2259435";"establishment";"R. Voluntários da Pátria, 70 - Centro Histórico, Porto Alegre - RS, Brazil";245;"LANCHERIA";"R VOLUNTARIOS DA PATRIA, 70/3"
"-30.0279055";"-51.2264929";"street_address";"Praça Quinze de Novembro, 16 - Centro Histórico, Porto Alegre - RS, 90020-080, Brazil";246;"RESTAURANTE E PIZZARIA SEM FORNO A LENHA";"PCA QUINZE DE NOVEMBRO, 16"
NA;NA;NA;"AV BALTAZAR DE OLIVEIRA GARCIA 2787/2 ZONA INDEFIN. 4 Porto Alegre %26&key=AIzaSyBA2Kt4jMYJe3up70J0Kl48Idrm69K6n0I";247;"LANCHERIA";"AV BALTAZAR DE OLIVEIRA GARCIA, 2787/2"
"-30.0240129";"-51.2190823";"street_address";"Largo Vespasiano Júlio Veppo, 1 - Centro Histórico, Porto Alegre - RS, Brazil";248;"BAR/CAFE/LANCHERIA";"LG VESPASIANO JULIO VEPPO, 1"
"-30.0275663";"-51.2268829";"street_address";"Praça Quinze de Novembro, 119 - Centro Histórico, Porto Alegre - RS, 90020-061, Brazil";249;"LANCHERIA";"PCA PEREIRA PAROBE, 119"
NA;NA;NA;"R MAJOR PM ANTONIO POMPILIO DA FONSECA 38/8 VILA IPIRANGA Porto Alegre %26&key=AIzaSyBA2Kt4jMYJe3up70J0Kl48Idrm69K6n0I";250;"LANCHERIA";"R MAJOR PM ANTONIO POMPILIO DA FONSECA, 38/8"
"-30.023073";"-51.2191284";"street_address";"Largo Vespasiano Júlio Veppo, 70 - Centro Histórico, Porto Alegre - RS, Brazil";251;"BAR/CAFE/LANCHERIA";"LG VESPASIANO JULIO VEPPO, 70/196"
NA;NA;NA;"AV JULIO DE CASTILHOS 265 CENTRO HISTORIC Porto Alegre %26&key=AIzaSyBA2Kt4jMYJe3up70J0Kl48Idrm69K6n0I";252;"BAR/CAFE/LANCHERIA";"AV JULIO DE CASTILHOS, 265"
"-30.0527191";"-51.2052859";"street_address";"Av. Bento Gonçalves, 781 - Partenon, Porto Alegre - RS, 90650-002, Brazil";253;"BAR/CAFE/LANCHERIA";"AV BENTO GONCALVES, 781"
"-30.0327205";"-51.233468";"street_address";"R. Riachuelo, 817 - Centro Histórico, Porto Alegre - RS, 90010-273, Brazil";254;"LANCHERIA";"R RIACHUELO, 817"
"-30.0218159";"-51.2129454";"street_address";"R. Ramiro Barcelos, 209 - Floresta, Porto Alegre - RS, Brazil";255;"RESTAURANTE E PIZZARIA SEM FORNO A LENHA";"R RAMIRO BARCELOS, 209"
"-30.0134203";"-51.2043661";"street_address";"Av. Pres. Franklin Roosevelt, 1562 - Floresta, Porto Alegre - RS, 90220-231, Brazil";256;"LANCHERIA";"AV PRESIDENTE FRANKLIN ROOSEVELT, 1562"
NA;NA;NA;"AV MANOEL ELIAS 2001 ZONA INDEFIN. 4 Porto Alegre %26&key=AIzaSyBA2Kt4jMYJe3up70J0Kl48Idrm69K6n0I";257;"ARMAZEM";"AV MANOEL ELIAS, 2001"
"-30.0278384";"-51.2304199";"establishment";"R. Gen. Câmara, 60 - Centro Histórico, Porto Alegre - RS, 90010-230, Brazil";258;"RESTAURANTE";"R GEN CAMARA, 391"
"-30.1565917";"-51.1856445";"street_address";"Av. Edgar Píres de Castro, 503 - Aberta dos Morros, Porto Alegre - RS, 91787-000, Brazil";259;"LANCHERIA";"AV EDGAR PIRES DE CASTRO, 503/3"
NA;NA;NA;"EST RODOVIARIA 1/124 CENTRO HISTORIC Porto Alegre %26&key=AIzaSyBA2Kt4jMYJe3up70J0Kl48Idrm69K6n0I";260;"LANCHERIA";"EST RODOVIARIA, 1/124"
NA;NA;NA;"AV BALTAZAR DE OLIVEIRA GARCIA 3255 ZONA INDEFIN. 4 Porto Alegre %26&key=AIzaSyBA2Kt4jMYJe3up70J0Kl48Idrm69K6n0I";261;"LANCHERIA";"AV BALTAZAR DE OLIVEIRA GARCIA, 3255"
"-30.0272093";"-51.2032177";"establishment";"R. Dr. Florêncio Ygartua, 53 - M. de Vento, Porto Alegre - RS, Brazil";262;"RESTAURANTE";"R DR FLORENCIO YGARTUA, 53/1"
"-30.063716";"-51.198456";"street_address";"R. Humberto de Campos, 645 - Paternon, Porto Alegre - RS, 90660-280, Brazil";263;"BAR/CAFE/LANCHERIA";"R HUMBERTO DE CAMPOS, 645"
"-30.0277098";"-51.2277836";"cafe";"Galeria Mercado Público Central, s/n - Centro Histórico, Porto Alegre - RS, 90020-070, Brazil";264;"BAR/CAFE/LANCHERIA";"LE MERCADO PUBLICO CENTRAL-EXTERNO, 1"
"-30.0284725";"-51.2276381";"street_address";"Praça Quinze de Novembro, 1 - Centro Histórico, Porto Alegre - RS, 90020-080, Brazil";265;"BAR/CAFE";"PCA QUINZE DE NOVEMBRO, 1/23"
"-30.0372743";"-51.2091669";"street_address";"R. Augusto Pestana, 16 - Santana, Porto Alegre - RS, 90040-200, Brazil";266;"RESTAURANTE";"R AUGUSTO PESTANA, 16/3"
"-30.0185373";"-51.1980048";"street_address";"R. Quintino Bocaiúva, 59 - São João, Porto Alegre - RS, Brazil";267;"LANCHERIA";"R QUINTINO BOCAIUVA, 59/4"
"-30.0277098";"-51.2277836";"cafe";"Galeria Mercado Público Central, s/n - Centro Histórico, Porto Alegre - RS, 90020-070, Brazil";268;"BAR/CAFE/LANCHERIA";"LE MERCADO PUBLICO CENTRAL-EXTERNO, 1"
"-30.0288818";"-51.2251152";"bakery";"Av. Otávio Rocha, 151 - Centro Histórico, Porto Alegre - RS, 90020-151, Brazil";269;"LANCHERIA";"VDT OTAVIO ROCHA, 31"
"-30.0437398";"-51.2148955";"street_address";"R. Dr. Sebastião Leão, 317 - Azenha, Porto Alegre - RS, 90050-090, Brazil";270;"BAR/CAFE";"R DR SEBASTIAO LEAO, 317"
"-30.0324417";"-51.2367966";"bakery";"R. dos Andradas, 483 - Centro Histórico, Porto Alegre - RS, 90020-001, Brazil";271;"BAR/CAFE/LANCHERIA";"R ANDRADAS, 471"
"-30.0284215";"-51.2276487";"street_address";"Praça Quinze de Novembro, 19 - Centro Histórico, Porto Alegre - RS, 90020-080, Brazil";272;"LANCHERIA";"PCA QUINZE DE NOVEMBRO, 19"
"-30.0208694";"-51.1516705";"street_address";"Av. do Forte, 1152 - Vila Ipiranga, Porto Alegre - RS, 91360-001, Brazil";273;"LANCHERIA";"AV FORTE, 1152"
"-30.0284215";"-51.2276487";"street_address";"Praça Quinze de Novembro, 19 - Centro Histórico, Porto Alegre - RS, 90020-080, Brazil";274;"LANCHERIA";"PCA QUINZE DE NOVEMBRO, 19"
"-30.0643835";"-51.2024623";"street_address";"R. Caldre e Fião, 358 - Santo Antônio, Porto Alegre - RS, 90660-110, Brazil";275;"LANCHERIA";"R CALDRE E FIAO, 358"
"-30.0395457";"-51.2084183";"street_address";"R. Ramiro Barcelos, 2329 - Santana, Porto Alegre - RS, 90035-007, Brazil";276;"BAR/CAFE/LANCHERIA";"R RAMIRO BARCELOS, 2329"
"-30.0171323";"-51.1969534";"street_address";"Av. Benjamin Constant, 1796 - Floresta, Porto Alegre - RS, 90550-002, Brazil";277;"BAR/CAFE/LANCHERIA";"AV BENJAMIN CONSTANT, 1796"
"-30.0106646";"-51.1477803";"street_address";"Av. Assis Brasil, 3905 - Jardim Itati, Porto Alegre - RS, 91010-007, Brazil";278;"BAR/CAFE/LANCHERIA";"AV ASSIS BRASIL, 3905"
"-30.0240129";"-51.2190823";"street_address";"Largo Vespasiano Júlio Veppo, 1 - Centro Histórico, Porto Alegre - RS, Brazil";279;"LANCHERIA";"LG VESPASIANO JULIO VEPPO, 1/23"
"-30.0579764";"-51.2136325";"street_address";"Av. Dr. Carlos Barbosa, 239 - Azenha, Porto Alegre - RS, 90880-001, Brazil";280;"LANCHERIA";"AV DR CARLOS BARBOSA, 239"
"-30.0224595";"-51.2192117";"establishment";"Largo Vespasiano Júlio Veppo, 70 - Marcilio Dias, Porto Alegre - RS, 90030-131, Brazil";281;"LANCHERIA";"EST RODOVIARIA, 26"
"-30.007229";"-51.182126";"establishment";"R. Padre Hildebrando, 329 - Santa Maria Goretti, Porto Alegre - RS, 91030-310, Brazil";282;"RESTAURANTE E PIZZARIA SEM FORNO A LENHA";"R PADRE HILDEBRANDO, 657"
"-30.0093601";"-51.1490689";"street_address";"R. Bogotá, 120 - Jardim Lindoia, Porto Alegre - RS, Brazil";283;"LANCHERIA";"AV BOGOTA, 120"
"-30.1014014";"-51.2315053";"street_address";"Av. da Cavalhada, 2847 - Cavalhada, Porto Alegre - RS, 91740-001, Brazil";284;"BAR/CAFE/LANCHERIA";"AV CAVALHADA, 2847"
NA;NA;NA;"AV JUSCELINO KUBITSCHEK DE OLIVEIRA 1160 ZONA INDEFIN. 4 Porto Alegre %26&key=AIzaSyBA2Kt4jMYJe3up70J0Kl48Idrm69K6n0I";285;"LANCHERIA";"AV JUSCELINO KUBITSCHEK DE OLIVEIRA, 1160"
"-30.0432883";"-51.1436325";"car_repair";"Av. Protásio Alves, 6950 - Petrópolis, Porto Alegre - RS, 91310-001, Brazil";286;"LANCHERIA";"AV PROTASIO ALVES, 6602/10"
"-30.0284215";"-51.2276487";"street_address";"Praça Quinze de Novembro, 19 - Centro Histórico, Porto Alegre - RS, 90020-080, Brazil";287;"LANCHERIA";"PCA QUINZE DE NOVEMBRO, 19"
NA;NA;NA;"AV BALTAZAR DE OLIVEIRA GARCIA 179 JAR ITU SABARA Porto Alegre %26&key=AIzaSyBA2Kt4jMYJe3up70J0Kl48Idrm69K6n0I";288;"BAR/CAFE/LANCHERIA";"AV BALTAZAR DE OLIVEIRA GARCIA, 179"
"-30.0318184";"-51.2250948";"street_address";"Praça Conde de Porto Alegre, 26 - Centro Histórico, Porto Alegre - RS, 90020-122, Brazil";289;"RESTAURANTE E PIZZARIA SEM FORNO A LENHA";"PCA CONDE DE PORTO ALEGRE, 26"
NA;NA;NA;"EST RODOVIARIA 1/72 CENTRO HISTORIC Porto Alegre %26&key=AIzaSyBA2Kt4jMYJe3up70J0Kl48Idrm69K6n0I";290;"BAR/CAFE";"EST RODOVIARIA, 1/72"
"-30.0579674";"-51.2131694";"street_address";"Av. Dr. Carlos Barbosa, 268 - Medianeira, Porto Alegre - RS, Brazil";291;"RESTAURANTE";"AV DR CARLOS BARBOSA, 268"
"-30.113516";"-51.2181256";"street_address";"Av. João Salomoni, 824 - Vila Nova, Porto Alegre - RS, 91740-830, Brazil";292;"BAR/CAFE/LANCHERIA";"ESTR JOAO SALOMONI, 824"
"-30.0029977";"-51.1524945";"street_address";"Tv. Cmte. Gustavo Cramer, 90 - Jardim Lindoia, Porto Alegre - RS, 91050-190, Brazil";293;"LANCHERIA";"TRAV COMANDANTE GUSTAVO CRAMER, 90"
"-30.0343321";"-51.2219472";"street_address";"Av. João Pessoa, 217 - Cidade Baixa, Porto Alegre - RS, 90040-000, Brazil";294;"BAR/CAFE/LANCHERIA";"AV JOAO PESSOA, 217"
"-30.0103371";"-51.1584307";"street_address";"Av. Assis Brasil, 2884 - Cristo Redentor, Porto Alegre - RS, 91010-003, Brazil";295;"BAR/CAFE/LANCHERIA";"AV ASSIS BRASIL, 2884"
"-30.0230213";"-51.2093866";"street_address";"Av. Cristóvão Colombo, 941 - Floresta, Porto Alegre - RS, 90560-001, Brazil";296;"BAR/CAFE/LANCHERIA";"AV CRISTOVAO COLOMBO, 941"
"-30.0283761";"-51.227658";"street_address";"Praça Quinze de Novembro, 35 - Centro Histórico, Porto Alegre - RS, 90020-080, Brazil";297;"LANCHERIA";"PCA QUINZE DE NOVEMBRO, 35"
"-30.0282432";"-51.2231151";"street_address";"Av. Alberto Bins, 357 - Centro, Porto Alegre - RS, 90030-142, Brazil";298;"RESTAURANTE E PIZZARIA SEM FORNO A LENHA";"AV ALBERTO BINS, 357"
"-30.0240129";"-51.2190823";"street_address";"Largo Vespasiano Júlio Veppo, 1 - Centro Histórico, Porto Alegre - RS, Brazil";299;"LANCHERIA";"LG VESPASIANO JULIO VEPPO, 1/36"
NA;NA;NA;"AV DIQUE 1/5 ZONA INDEFINIDA Porto Alegre %26&key=AIzaSyBA2Kt4jMYJe3up70J0Kl48Idrm69K6n0I";300;"BAR/CAFE";"AV DIQUE, 1/5"
"-30.0191992";"-51.2003198";"street_address";"R. Dr. Timóteo, 459 - Floresta, Porto Alegre - RS, Brazil";301;"BAR/CAFE";"R DR TIMOTEO, 459"
"-30.104091";"-51.2360441";"street_address";"Av. Otto Niemeyer, 2325 - Tristeza, Porto Alegre - RS, 91910-001, Brazil";302;"LANCHERIA";"AV OTTO NIEMEYER, 2325"
"-30.0283875";"-51.2276557";"street_address";"Praça Quinze de Novembro, 31 - Centro Histórico, Porto Alegre - RS, 90020-080, Brazil";303;"LANCHERIA";"PCA QUINZE DE NOVEMBRO, 31"
"-30.0280987";"-51.2243278";"street_address";"Rua Doutor Flores, 106 - Centro Histórico, Porto Alegre - RS, 90020-120, Brazil";304;"LANCHERIA";"R DR FLORES, 106/3"
"-30.0329425";"-51.2347378";"street_address";"R. Gen. Bento Martins, 353 - Centro Histórico, Porto Alegre - RS, 90010-080, Brazil";305;"LANCHERIA";"R GEN BENTO MARTINS, 353"
"-30.0298722";"-51.2256283";"establishment";"R. dos Andradas, 1593 - Centro Histórico, Porto Alegre - RS, 90010-140, Brazil";306;"BAR/CAFE/LANCHERIA";"R ANDRADAS, 419"
"-30.0039912";"-51.1677385";"street_address";"Rua Marquês de Souza, 36 - Jardim Sao Pedro, Porto Alegre - RS, 91040-230, Brazil";307;"BAR/CAFE/LANCHERIA";"AV MARQUES DE SOUZA, 36/1"
"-30.1049374";"-51.2390925";"street_address";"Av. Otto Niemeyer, 2037 - Tristeza, Porto Alegre - RS, 91910-001, Brazil";308;"LANCHERIA";"AV OTTO NIEMEYER, 2037"
"-30.014701";"-51.1526301";"street_address";"Av. do Forte, 468 - Vila Ipiranga, Porto Alegre - RS, 91360-001, Brazil";309;"LANCHERIA";"AV FORTE, 468"
"-30.0300064";"-51.2248252";"street_address";"Rua Doutor Flores, 317 - Centro Histórico, Porto Alegre - RS, 90020-122, Brazil";310;"LANCHERIA";"R DR FLORES, 317"
"-30.0535981";"-51.2030957";"street_address";"Av. Bento Gonçalves, 1005 - Partenon, Porto Alegre - RS, Brazil";311;"BAR/CAFE/LANCHERIA";"AV BENTO GONCALVES, 1005"
"-30.006053";"-51.202487";"street_address";"Av. Pátria, 527 - São Geraldo, Porto Alegre - RS, 90230-071, Brazil";312;"BAR/CAFE/LANCHERIA";"AV PATRIA, 527"
"-30.0403384";"-51.1972293";"street_address";"Av. Protásio Alves, 1121 - Santa Cecilia, Porto Alegre - RS, 90410-000, Brazil";313;"LANCHERIA";"AV PROTASIO ALVES, 1121/5"
"-30.0251439";"-51.2227353";"establishment";"Av. Júlio de Castilhos, 435 - Centro, Porto Alegre - RS, 90030-131, Brazil";314;"LANCHERIA";"AV JULIO DE CASTILHOS, 447"
"-30.1086623";"-51.1741641";"street_address";"R. Prof. Oscar Pereira, 8300 - Cascata, Porto Alegre - RS, 91712-320, Brazil";315;"LANCHERIA";"AV PROF OSCAR PEREIRA, 8300"
"-30.1062259";"-51.2341938";"street_address";"R. Dr. Pereira Neto, 1847 - Camaquã, Porto Alegre - RS, 91920-530, Brazil";316;"BAR/CAFE/LANCHERIA";"R DR PEREIRA NETO, 1847"
"-30.0414159";"-51.2166009";"street_address";"Av. Venâncio Aires, 353 - Cidade Baixa, Porto Alegre - RS, 90040-191, Brazil";317;"LANCHERIA";"AV VENANCIO AIRES, 353"
"-30.0464937";"-51.1975438";"street_address";"Av. Ipiranga, 3070 - Praia de Belas, Porto Alegre - RS, 90160-092, Brazil";318;"BAR/CAFE/LANCHERIA";"AV IPIRANGA, 3070"
"-30.0373035";"-51.2256988";"street_address";"R. José do Patrocínio, 202 - Cidade Baixa, Porto Alegre - RS, 90050-000, Brazil";319;"BAR/CAFE/LANCHERIA";"R JOSE DO PATROCINIO, 202"
"-30.0107496";"-51.1573379";"street_address";"Av. Assis Brasil, 2983 - Passo d'Areia, Porto Alegre - RS, 91010-004, Brazil";320;"BAR/CAFE/LANCHERIA";"AV ASSIS BRASIL, 2983"
"-30.0366183";"-51.2238566";"street_address";"R. Gen. Lima e Silva, 303 - Centro Histórico, Porto Alegre - RS, 90050-101, Brazil";321;"CHURRASCARIA";"R GEN LIMA E SILVA, 303"
"-30.0290244";"-51.201053";"street_address";"Av. Goethe, 13 - Moinhos de Vento, Porto Alegre - RS, 90430-100, Brazil";322;"BAR/CAFE/LANCHERIA";"AV GOETHE, 13"
"-30.024266";"-51.210638";"street_address";"Av. Cristóvão Colombo, 767 - Floresta, Porto Alegre - RS, 90560-003, Brazil";323;"LANCHERIA";"AV CRISTOVAO COLOMBO, 767"
"-30.0423092";"-51.2208641";"street_address";"R. José do Patrocínio, 893 - Cidade Baixa, Porto Alegre - RS, 90050-002, Brazil";324;"BAR/CAFE/LANCHERIA";"R JOSE DO PATROCINIO, 893"
"-30.0002594";"-51.190927";"street_address";"Av. Ceará, 488 - São João, Porto Alegre - RS, 90240-512, Brazil";325;"LANCHERIA";"AV CEARA, 488"
"-30.0421851";"-51.2074293";"street_address";"R. Ramiro Barcelos, 2600 - Floresta, Porto Alegre - RS, 90035-002, Brazil";326;"BAR/CAFE/LANCHERIA";"R RAMIRO BARCELOS, 2600"
"-30.0100268";"-51.142839";"street_address";"Av. Baltazar de Oliveira Garcia, 165 - São Sebastião, Porto Alegre - RS, 91380-000, Brazil";327;"BAR/CAFE";"AV BALTAZAR DE OLIVEIRA GARCIA, 165"
"-30.0062468";"-51.1842183";"street_address";"Av. Assis Brasil, 164 - São João, Porto Alegre - RS, 91010-001, Brazil";328;"LANCHERIA";"AV ASSIS BRASIL, 164/48"
"-30.0550755";"-51.1868768";"street_address";"Av. Ipiranga, 5200 - Jardim Botânico, Porto Alegre - RS, 90160-001, Brazil";329;"BAR/CAFE/LANCHERIA";"AV IPIRANGA, 5200/132"
"-30.0187613";"-51.1975486";"street_address";"R. Cel. Bordini, 74 - Auxiliadora, Porto Alegre - RS, Brazil";330;"BAR/CAFE/LANCHERIA";"R CEL BORDINI, 74"
"-30.0285247";"-51.2277714";"street_address";"Praça Quinze de Novembro, 21 - Centro Histórico, Porto Alegre - RS, 90020-080, Brazil";331;"BAR/CAFE";"PCA QUINZE DE NOVEMBRO, 1/21"
"-29.9990317";"-51.1356691";"street_address";"Rua Magalhães Calvet, 309 - Sarandi, Porto Alegre - RS, 91110-140, Brazil";332;"BAR/CAFE/LANCHERIA";"R MAGALHAES CALVET, 309"
"-30.030476";"-51.226284";"establishment";"Ed. Fleming - R. Gen. Vitorino, 53 - sala 31 - Centro Histórico, Porto Alegre - RS, 90020-170, Brazil";333;"BAR/CAFE/LANCHERIA";"R GEN VITORINO, 291/10"
"-30.0267882";"-51.2247184";"street_address";"Praça Rui Barbosa, 177 - Centro Histórico, Porto Alegre - RS, 90030-100, Brazil";334;"LANCHERIA";"PCA RUI BARBOSA, 177"
"-30.0053511";"-51.1966776";"street_address";"Av. Pará, 330 - Navegantes, Porto Alegre - RS, 90240-592, Brazil";335;"LOJA DE CONFECCOES";"AV PARA, 330/201"
"-29.977269";"-51.1855486";"street_address";"Av. Clóvis Paim Grivot, 201 - Humaitá, Porto Alegre - RS, 90250-020, Brazil";336;"FARMACIA, DROGARIA, PERFUMARIA SEM MANIPULACAO";"AV CLOVIS PAIM GRIVOT, 201/107"
"-30.0267269";"-51.2212797";"street_address";"R. Voluntários da Pátria, 527 - Centro Histórico, Porto Alegre - RS, 90030-002, Brazil";337;"LOJA DE VARIEDADES (VESTUARIO, CALCADOS, BRINQUEDOARMARINHOS, BIJOUTERIAS EM PEQUENO ESTOQUE";"R VOLUNTARIOS DA PATRIA, 527/40"
"-30.0298722";"-51.2256283";"establishment";"R. dos Andradas, 1593 - Centro Histórico, Porto Alegre - RS, 90010-140, Brazil";338;"RESTAURANTE E PIZZARIA SEM FORNO A LENHA";"R ANDRADAS, 805"
"-30.0033914";"-51.1724833";"car_repair";"Av. Sertório, 3253 - Santa Maria Goretti, Porto Alegre - RS, 91030-541, Brazil";339;"PECAS E ACESSORIOS PARA VEICULOS";"AV SERTORIO, 2995"
"-30.1076";"-51.2279686";"street_address";"Av. da Cavalhada, 3623 - Cavalhada, Porto Alegre - RS, 91740-001, Brazil";340;"LOJA DE ROUPAS USADAS";"AV CAVALHADA, 3623/5"
"-30.0792302";"-51.203429";"street_address";"R. Prof. Carvalho de Freitas, 857 - Teresópolis, Porto Alegre - RS, 91720-090, Brazil";341;"MINI-MERCADO";"R PROF CARVALHO FREITAS, 857"
"-30.0506934";"-51.2132141";"street_address";"Av. da Azenha, 765 - Azenha, Porto Alegre - RS, Brazil";342;"CALCADOS/ARTEFATOS DE COURO";"AV AZENHA, 765"
"-30.0143372";"-51.1645643";"premise";"Av. João Wallig, 280 - Passo d'Areia, Porto Alegre - RS, 91340-001, Brazil";343;"LIVRARIA";"AV JOAO WALLIG, 280"
"-30.0571022";"-51.1571572";"street_address";"Av. Ipiranga, 8049 - Praia de Belas, Porto Alegre - RS, 90160-092, Brazil";344;"DEPOSITO/POSTO DE REVENDA DE GAS  GLP CLASSE 3";"AV IPIRANGA, 8049"
"-30.0666485";"-51.153402";"street_address";"R. Pedro Pereira de Souza, 101 - Partenon, Porto Alegre - RS, 91530-580, Brazil";345;"DEPOSITO/POSTO DE REVENDA DE GAS  GLP CLASSE 3";"R PEDRO PEREIRA DE SOUZA, 101"
"-30.0120648";"-51.1547619";"premise";"R. Dom Diogo de Souza, 180 - Cristo Redentor, Porto Alegre - RS, 91350-000, Brazil";346;"MATERIAL DE CONSTRUCAO";"R DOM DIOGO DE SOUZA, 180"
"-30.0323714";"-51.2336952";"establishment";"R. Riachuelo, 800 - Centro, Porto Alegre - RS, 90010-272, Brazil";347;"BAR/CAFE/LANCHERIA";"R RIACHUELO, 800"
"-30.016991";"-51.1976136";"street_address";"Av. Benjamin Constant, 1835 - São João, Porto Alegre - RS, Brazil";348;"LOJA DE COMPONENTES ELETRONICOS";"AV BENJAMIN CONSTANT, 1835/302"
"-30.0561766";"-51.2148932";"street_address";"Av. Dr. Carlos Barbosa, 5 - Medianeira, Porto Alegre - RS, Brazil";349;"LOJA DE ARTIGOS DE DECORACAO";"AV DR CARLOS BARBOSA, 5"
"-29.99728";"-51.136856";"premise";"Av. dos Gaúchos, 443 - Sarandi, Porto Alegre - RS, Brazil";350;"LOJA DE CONFECCOES";"AV GAUCHOS, 443"
"-30.0270861";"-51.2235305";"street_address";"R. Voluntários da Pátria, 313 - Centro Histórico, Porto Alegre - RS, 90030-002, Brazil";351;"MAQUINAS,VEICULOS E EQUIPAMENTOS";"R VOLUNTARIOS DA PATRIA, 313/32"
"-30.0317272";"-51.2347274";"establishment";"R. dos Andradas, 685 - Centro, Porto Alegre - RS, 90020-003, Brazil";352;"RESTAURANTE E PIZZARIA SEM FORNO A LENHA";"R ANDRADAS, 1001/102"
"-29.985933";"-51.1917339";"street_address";"R. Lima Barreto, 16 - Humaitá, Porto Alegre - RS, 90245-340, Brazil";353;"PERFUMARIA";"R LIMA BARRETO, 16/6"
"-29.9961321";"-51.2023877";"establishment";"R. Frederico Mentz, 1561 - Navegantes, Porto Alegre - RS, Brazil";354;"LANCHERIA";"R FREDERICO MENTZ, 1561/16"
"-29.9739534";"-51.1948182";"premise";"Av. Padre Leopoldo Brentano, 110 - Humaitá, Porto Alegre - RS, 90250-590, Brazil";355;"BOMBONIERE";"AV PADRE LEOPOLDO BRENTANO, 110/420"
"-30.0308945";"-51.2235522";"street_address";"Rua Professor Annes Dias, 150 - Centro Histórico, Porto Alegre - RS, 90010-490, Brazil";356;"ARMARINHOS/BIJUTERIAS";"R PROF ANNES DIAS, 150"
"-30.0403305";"-51.2188761";"street_address";"R. Gen. Lima e Silva, 924 - Centro Histórico, Porto Alegre - RS, 90050-102, Brazil";357;"BAR/CAFE/LANCHERIA";"R GEN LIMA E SILVA, 924"
"-30.0272093";"-51.2032177";"establishment";"R. Dr. Florêncio Ygartua, 53 - M. de Vento, Porto Alegre - RS, Brazil";358;"COSMETICOS E OU PRODUTOS PARA SALAO DE BELEZA";"R DR FLORENCIO YGARTUA, 53/405"
"-30.028449";"-51.2256086";"street_address";"R. Vig. José Inácio, 310 - Centro, Porto Alegre - RS, 90020-010, Brazil";359;"MATERIAL ELETRICO";"R VIGARIO JOSE IGNACIO, 310"
"-30.0087053";"-51.1541391";"premise";"R. Aliança, 177 - Jardim Lindoia, Porto Alegre - RS, Brazil";360;"CONFEITARIA";"R ALIANCA, 177"
"-30.0310426";"-51.2193084";"street_address";"R. da Conceição, 389 - Centro Histórico, Porto Alegre - RS, 90030-030, Brazil";361;"BAR/CAFE/LANCHERIA";"R CONCEICAO, 389/501"
"-30.0310426";"-51.2193084";"street_address";"R. da Conceição, 389 - Centro Histórico, Porto Alegre - RS, 90030-030, Brazil";362;"BAR/CAFE";"R CONCEICAO, 389/405"
"-30.0094296";"-51.1942869";"street_address";"Av. Ceará, 1530 - São Geraldo, Porto Alegre - RS, 90240-512, Brazil";363;"MAQUINAS,VEICULOS E EQUIPAMENTOS";"AV CEARA, 1530"
"-30.0121865";"-51.1673994";"street_address";"Av. Assis Brasil, 2005 - Passo d'Areia, Porto Alegre - RS, Brazil";364;"ARTIGOS DO VESTUARIO";"AV ASSIS BRASIL, 2005/26"
"-30.0114625";"-51.1665073";"street_address";"Av. Assis Brasil, 2100 - Passo d'Areia, Porto Alegre - RS, 91010-002, Brazil";365;"ARTIGOS DO VESTUARIO";"AV ASSIS BRASIL, 2100/3"
"-30.0104996";"-51.1977708";"premise";"Av. Amazonas, 829 - São Geraldo, Porto Alegre - RS, 90240-541, Brazil";366;"VIDRACARIAS";"AV AMAZONAS, 829"
"-30.036171";"-51.161518";"street_address";"Av. José Gertum, 379 - Chácara das Pedras, Porto Alegre - RS, 91330-450, Brazil";367;"ESPECIALIDADES FARMACEUTICAS ALOPATICAS OU HOMEOPATICAS (VITAMINAS E COMPLEMENTOS ALIMENTARES)";"AV JOSE GERTUM, 379"
"-29.9883666";"-51.1702317";"street_address";"Av. Severo Dullius, 1395 - São João, Porto Alegre - RS, 90200-310, Brazil";368;"RESTAURANTE E PIZZARIA SEM FORNO A LENHA";"AV SEVERO DULLIUS, 1395"
"-30.0239719";"-51.1885512";"street_address";"Rua Eudoro Berlink, 892 - Auxiliadora, Porto Alegre - RS, 90450-030, Brazil";369;"COSMETICOS E OU PRODUTOS PARA SALAO DE BELEZA";"R EUDORO BERLINK, 892"
"-30.0452763";"-51.2294265";"establishment";"Av. Borges de Medeiros, 2105 - PR Belas, Porto Alegre - RS, Brazil";370;"INSTRUMENTOS MEDICO HOSPITALARES/MATERIAL ODONTO- LOGICO,APARELHOS ORTOPEDICOS,AUDITIVOS E EQUIPA-  MENTOS CIENTIFICOS E DE LABORATORIO";"AV BORGES DE MEDEIROS, 2105/804"
"-30.0313035";"-51.1542004";"premise";"Av. Ipê, 12 - Chácara das Pedras, Porto Alegre - RS, 91320-080, Brazil";371;"SUPRIMENTO P/ COMPUTADORES E MATERIAIS INFORMATICA";"AV IPE, 12"
NA;NA;NA;"LE PERCORRENDO BAIRROS - SMIC 1 - Porto Alegre %26&key=AIzaSyBA2Kt4jMYJe3up70J0Kl48Idrm69K6n0I";372;"REFRIGERANTES";"LE PERCORRENDO BAIRROS - SMIC, 1"
"-30.0735617";"-51.2031741";"street_address";"R. Prof. Oscar Pereira, 2631 - Glória, Porto Alegre - RS, 90660-080, Brazil";373;"PECAS E ACESSORIOS PARA VEICULOS";"AV PROF OSCAR PEREIRA, 2631"
"-30.0704455";"-51.2041447";"premise";"R. Prof. Oscar Pereira, 2270 - Glória, Porto Alegre - RS, 91710-000, Brazil";374;"PECAS E ACESSORIOS PARA VEICULOS";"AV PROF OSCAR PEREIRA, 2270"
"-30.0188944";"-51.1561074";"street_address";"Av. Dr. João Simplício Alves de Carvalho, 383 - Vila Ipiranga, Porto Alegre - RS, 91360-260, Brazil";375;"ALIMENTOS PARA ANIMAIS(CONGELADOS OU NAO)";"AV DR JOAO SIMPLICIO A DE CARVALHO, 383"
"-29.9989581";"-51.190179";"street_address";"Rua 18 de Novembro, 590 - São João, Porto Alegre - RS, Brazil";376;"APARELHOS ELETRONICOS";"R DEZOITO DE NOVEMBRO, 590/403"
"-30.0309747";"-51.2315346";"street_address";"R. dos Andradas, 1001 - Centro, Porto Alegre - RS, 90020-007, Brazil";377;"SUPRIMENTO P/ COMPUTADORES E MATERIAIS INFORMATICA";"R ANDRADAS, 1001/217"
"-30.0288694";"-51.2248999";"establishment";"Rua Doutor Flores, 383 - Centro Histórico, Porto Alegre - RS, 90020-123, Brazil";378;"MATERIAL ELETRICO";"R DR FLORES, 383/94"
"-30.0070255";"-51.1860815";"street_address";"R. Dona Sebastiana, 463 - São João, Porto Alegre - RS, Brazil";379;"MAQUINAS,APARELHOS,EQUIPAMENTOS DIVERSOS";"R DONA SEBASTIANA, 463/22"
"-30.084437";"-51.192058";"street_address";"R. Prof. Oscar Pereira, 4306 - Cascata, Porto Alegre - RS, 91710-000, Brazil";380;"MINI-MERCADO";"AV PROF OSCAR PEREIRA, 4306"
"-30.115645";"-51.247891";"street_address";"R. Dona Paulina, 453 - Tristeza, Porto Alegre - RS, 91920-030, Brazil";381;"ACOUGUE";"R DONA PAULINA, 453"
"-30.0365781";"-51.2282638";"street_address";"Av. Borges de Medeiros, 1115 - Centro Histórico, Porto Alegre - RS, 90020-021, Brazil";382;"PADARIA";"AV BORGES DE MEDEIROS, 1115"
NA;NA;NA;"LE PERCORRENDO BAIRROS - SMIC 1 - Porto Alegre %26&key=AIzaSyBA2Kt4jMYJe3up70J0Kl48Idrm69K6n0I";383;"BILHETES E OUTRAS LOTERIAS";"LE PERCORRENDO BAIRROS - SMIC, 1"
"-30.02674";"-51.2236556";"street_address";"R. Voluntários da Pátria, 294 - Centro Histórico, Porto Alegre - RS, 90030-001, Brazil";384;"ARTIGOS DO VESTUARIO";"R VOLUNTARIOS DA PATRIA, 294/123"
"-30.0106768";"-51.1480116";"street_address";"Av. Assis Brasil, 3865 - Passo d'Areia, Porto Alegre - RS, 91010-004, Brazil";385;"ARMARINHOS/BIJUTERIAS";"AV ASSIS BRASIL, 3865"
NA;NA;NA;"R G VILA ESMERALDA 10 AGRONOMIA Porto Alegre %26&key=AIzaSyBA2Kt4jMYJe3up70J0Kl48Idrm69K6n0I";386;"BAR/CAFE/LANCHERIA";"R G VILA ESMERALDA, 10"
"-30.0046954";"-51.1463173";"street_address";"Rua Bom Retiro do Sul, 47 - São Sebastião, Porto Alegre - RS, 91060-090, Brazil";387;"LOJA DE VARIEDADES (VESTUARIO, CALCADOS, BRINQUEDOARMARINHOS, BIJOUTERIAS EM PEQUENO ESTOQUE";"R BOM RETIRO DO SUL, 47/4"
"-30.026975";"-51.2248678";"street_address";"R. Voluntários da Pátria, 170 - Centro Histórico, Porto Alegre - RS, 90030-001, Brazil";388;"COMERCIO ATACADISTA DE JOIAS/RELOGIOS/BIJOUTERIAS";"R VOLUNTARIOS DA PATRIA, 170/42"
"-30.0303965";"-51.2226075";"street_address";"Rua Professor Annes Dias, 295 - Centro Histórico, Porto Alegre - RS, 90020-090, Brazil";389;"LANCHERIA";"R PROF ANNES DIAS, 295/3"
"-30.152383";"-51.219136";"street_address";"Av. da Serraria, 1024 - Espírito Santo, Porto Alegre - RS, 91770-010, Brazil";390;"BAZAR";"AV SERRARIA, 1024/5"
"-30.05224";"-51.1818855";"premise";"Rua Surupá, 214 - Jardim Botânico, Porto Alegre - RS, 90690-290, Brazil";391;"ARTIGOS DO VESTUARIO";"R SURUPA, 214"
"-30.0267567";"-51.2217982";"street_address";"R. Voluntários da Pátria, 479 - Centro, Porto Alegre - RS, 90030-003, Brazil";392;"APARELHOS ELETRONICOS";"R VOLUNTARIOS DA PATRIA, 479"
"-30.0200991";"-51.2066599";"street_address";"Av. Cristóvão Colombo, 1343 - Floresta, Porto Alegre - RS, 90560-004, Brazil";393;"LOJA DE BICICLETAS E/OU CICLOMOTORES";"AV CRISTOVAO COLOMBO, 1343/201"
NA;NA;NA;"R BALDOINO BOTTINI 191 ZONA INDEFIN. 1 Porto Alegre %26&key=AIzaSyBA2Kt4jMYJe3up70J0Kl48Idrm69K6n0I";394;"MINI-MERCADO";"R BALDOINO BOTTINI, 191"
"-30.0348132";"-51.2268771";"street_address";"R. Cel. Fernando Machado, 1164 - Centro Histórico, Porto Alegre - RS, 90010-320, Brazil";395;"CONFEITARIA";"R CEL FERNANDO MACHADO, 1164"
"-30.0781612";"-51.1621644";"establishment";"R. Santa Teresa, 415 - São José, Porto Alegre - RS, 91520-713, Brazil";396;"ARMAZEM";"R PRIMEIRO DE SETEMBRO, 793"
"-30.1564779";"-51.1693411";"street_address";"Av. Edgar Píres de Castro, 101 - Campo Novo, Porto Alegre - RS, Brazil";397;"LOJA DE MOVEIS";"AV EDGAR PIRES DE CASTRO, 1680/101"
"-30.0287106";"-51.1792707";"premise";"Alameda Sebastião de Brito, 147 - Boa Vista, Porto Alegre - RS, 91340-460, Brazil";398;"ARTIGOS DO VESTUARIO";"AL SEBASTIAO DE BRITO, 147"
NA;NA;NA;"AV JUSCELINO KUBITSCHEK DE OLIVEIRA 1155/14 ZONA INDEFIN. 4 Porto Alegre %26&key=AIzaSyBA2Kt4jMYJe3up70J0Kl48Idrm69K6n0I";399;"ARTIGOS DO VESTUARIO";"AV JUSCELINO KUBITSCHEK DE OLIVEIRA, 1155/14"
NA;NA;NA;"ESTR CAMPO NOVO 10 ZONA INDEFIN. 1 Porto Alegre %26&key=AIzaSyBA2Kt4jMYJe3up70J0Kl48Idrm69K6n0I";400;"PECAS E ACESSORIOS PARA VEICULOS";"ESTR CAMPO NOVO, 10"
"-30.0098";"-51.181941";"street_address";"R. Cel. Feijó, 127 - São João, Porto Alegre - RS, 90520-060, Brazil";401;"LOJA DE ACESSORIOS PARA ANIMAIS";"R CEL FEIJO, 127"
"-30.162198";"-51.149486";"street_address";"Estrada João Antônio da Silveira, 673 - Restinga, Porto Alegre - RS, 91790-329, Brazil";402;"MINI-MERCADO";"ESTR JOAO ANTONIO SILVEIRA, 673"
"-30.0644986";"-51.1629299";"establishment";"Rua 9 de Junho, 261 - São José, Porto Alegre - RS, 91520-610, Brazil";403;"LOJA DE CONFECCOES";"R NOVE DE JUNHO, 563"
"-30.0628017";"-51.1747606";"street_address";"R. Juarez Távora, 57 - Vila Joao Pessoa, Porto Alegre - RS, 91520-100, Brazil";404;"RESTAURANTE E PIZZARIA SEM FORNO A LENHA";"R JUAREZ TAVORA, 57"
"-30.046631";"-51.170975";"street_address";"R. São Mateus, 590 - Jardim do Salso, Porto Alegre - RS, 91410-030, Brazil";405;"PADARIA SEM UTILIZACAO DE FORNO A LENHA";"R SAO MATEUS, 590"
"-30.042249";"-51.1544809";"street_address";"R. Dr. Murtinho, 623 - Bom Jesus, Porto Alegre - RS, 91420-070, Brazil";406;"CONFEITARIA/BOMBONIERE";"R DR MURTINHO, 623"
"-30.042888";"-51.168141";"street_address";"R. São Marcos, 232 - Bom Jesus, Porto Alegre - RS, 91420-550, Brazil";407;"BAR/CAFE/LANCHERIA";"R SAO MARCOS, 232"
"-30.0633101";"-51.1864617";"street_address";"Av. Bento Gonçalves, 2905 - Partenon, Porto Alegre - RS, 90650-002, Brazil";408;"ACOUGUE";"AV BENTO GONCALVES, 2905"
"-30.0142875";"-51.1594888";"street_address";"Av. Francisco Trein, 370 - Cristo Redentor, Porto Alegre - RS, 91350-200, Brazil";409;"TABACARIA/REVISTAS";"AV FRANCISCO TREIN, 370"
"-30.0262208";"-51.212016";"street_address";"Av. Cristóvão Colombo, 545 - Floresta, Porto Alegre - RS, 90560-003, Brazil";410;"ARTIGOS DO VESTUARIO";"AV CRISTOVAO COLOMBO, 545/1087"
"-30.008935";"-51.197887";"street_address";"R. Ernesto Fontoura, 1044 - São Geraldo, Porto Alegre - RS, 90230-091, Brazil";411;"SUPRIMENTO P/ COMPUTADORES E MATERIAIS INFORMATICA";"R ERNESTO FONTOURA, 1044"
"-30.0531183";"-51.2041154";"street_address";"R. Dr. Júlio Bocaccio, 2 - Santo Antônio, Porto Alegre - RS, Brazil";412;"MERCADAO DO PRODUTOR RAMO 6";"R DR JULIO BOCACCIO, 2"
"-30.1114854";"-51.255425";"street_address";"Praça Comendador Souza Gomes, 106 - Tristeza, Porto Alegre - RS, 91900-250, Brazil";413;"ARTIGOS LOTERICOS";"PCA COMENDADOR SOUZA GOMES, 203/106"
"-30.0177126";"-51.198537";"street_address";"Av. Cristóvão Colombo, 2240 - Floresta, Porto Alegre - RS, 90560-002, Brazil";414;"ALIMENTOS PERECIVEIS (VEDADO COMERCIALIZAR PRODUTOHORTIFRUTIGRANJEIROS)";"AV CRISTOVAO COLOMBO, 2240/201"
"-30.0033969";"-51.1351318";"street_address";"Av. Assis Brasil, 5335 - Passo d'Areia, Porto Alegre - RS, 91010-004, Brazil";415;"PECAS E ACESSORIOS PARA VEICULOS";"AV ASSIS BRASIL, 5335"
"-30.0032625";"-51.1357311";"street_address";"Av. Assis Brasil, 5304 - Sarandi, Porto Alegre - RS, 91110-000, Brazil";416;"PECAS E ACESSORIOS PARA VEICULOS";"AV ASSIS BRASIL, 5304"
"-30.0147008";"-51.210962";"premise";"R. Alm. Barroso, 102 - Floresta, Porto Alegre - RS, 90220-020, Brazil";417;"AGUA MINERAL,SUPORTE PARA BOMBONAS E PURIFICADORESDE AGUA";"R ALMIRANTE BARROSO, 102"
"-30.0040865";"-51.1979853";"street_address";"Av. França, 876 - Navegantes, Porto Alegre - RS, 90230-220, Brazil";418;"PECAS E ACESSORIOS PARA VEICULOS";"AV FRANCA, 876"
"-30.021589";"-51.148629";"street_address";"Av. Brasília, 281 - Vl Ipiranga, Porto Alegre - RS, 91370-140, Brazil";419;"ARMAZEM";"AV BRASILIA, 281"
"-29.9719347";"-51.1771219";"street_address";"Av. dos Estados, 1 - São João, Porto Alegre - RS, Brazil";420;"FLORICULTURAS (CULTIVO  E COMERCIO DE ACESSORIOS  PARA JARDIM)";"AV ESTADOS, 1"
"-29.9934732";"-51.1753811";"airport";"Porto Alegre International Airport Salgado Filho (POA) - São João, Porto Alegre - RS, Brazil";421;"LOJA DE COLCHOES";"LE AEROPORTO INTERNACIONAL SALGADO FILHO, 1"
"-29.9719347";"-51.1771219";"street_address";"Av. dos Estados, 1 - São João, Porto Alegre - RS, Brazil";422;"LOJA DE BEBIDAS";"AV ESTADOS, 1"
"-30.0086107";"-51.1713919";"street_address";"R. Barão de Tramandaí, 158 - Passo d'Areia, Porto Alegre - RS, 91030-380, Brazil";423;"PRODUTOS DE HIGIENE PESSOAL";"R BARAO DE TRAMANDAI, 158"
"-30.0507257";"-51.1871175";"street_address";"R. Barão do Amazonas, 789 - Jardim Botânico, Porto Alegre - RS, 90670-001, Brazil";424;"LOJA DE MATERIAL DE LIMPEZA";"R BARAO DO AMAZONAS, 789"
"-30.00554";"-51.19291";"street_address";"Av. Ceará, 1096 - São João, Porto Alegre - RS, 90240-511, Brazil";425;"LOJA DE MATERIAL DE LIMPEZA";"AV CEARA, 1096"
"-30.0274071";"-51.190221";"street_address";"R. Silva Jardim, 581 - Auxiliadora, Porto Alegre - RS, 90450-070, Brazil";426;"BAZAR";"R SILVA JARDIM, 581"
"-30.0222462";"-51.1932857";"street_address";"R. 24 de Outubro, 1535 - Independência, Porto Alegre - RS, 90510-002, Brazil";427;"BAZAR";"R VINTE QUATRO DE OUTUBRO, 1535"
"-30.0402308";"-51.2193012";"street_address";"R. Gen. Lima e Silva, 877 - Cidade Baixa, Porto Alegre - RS, 90050-102, Brazil";428;"BAZAR";"R GEN LIMA E SILVA, 877"
"-30.0081546";"-51.1713248";"street_address";"R. Visc. de Pelotas, 99 - Passo d'Areia, Porto Alegre - RS, 91030-530, Brazil";429;"ARTIGOS DO VESTUARIO";"R VISCONDE DE PELOTAS, 99"
"-30.0171956";"-51.1813135";"street_address";"Av. Cristóvão Colombo, 3827 - Higienópolis, Porto Alegre - RS, 90560-002, Brazil";430;"LOJA DE MATERIAL DE LIMPEZA";"AV CRISTOVAO COLOMBO, 3827"
"-30.042797";"-51.224089";"street_address";"R. João Alfredo, 692 - Cidade Baixa, Porto Alegre - RS, 90050-230, Brazil";431;"LOJA DE CONFECCOES";"R JOAO ALFREDO, 692"
"-30.0226119";"-51.1904565";"street_address";"R. Silva Jardim, 48 - Auxiliadora, Porto Alegre - RS, 90450-070, Brazil";432;"LOJA DE MATERIAL DE LIMPEZA";"R SILVA JARDIM, 48/10"
"-30.038333";"-51.2217541";"street_address";"R. Gen. Lima e Silva, 579 - Cidade Baixa, Porto Alegre - RS, 90050-101, Brazil";433;"LOJA DE MATERIAL DE LIMPEZA";"R GEN LIMA E SILVA, 579"
"-30.0348237";"-51.2339361";"street_address";"R. Cel. Fernando Machado, 388 - Centro Histórico, Porto Alegre - RS, 90010-320, Brazil";434;"TABACARIA/REVISTAS";"R CEL FERNANDO MACHADO, 388"
"-30.040835";"-51.1823758";"street_address";"Rua João Abbott, 721 - Petrópolis, Porto Alegre - RS, 90460-150, Brazil";435;"CONFEITARIA/BOMBONIERE";"R JOAO ABBOTT, 721"
"-30.051038";"-51.187314";"street_address";"R. Barão do Amazonas, 827 - Jardom Botanico, Porto Alegre - RS, 90670-004, Brazil";436;"TABACARIA/REVISTAS";"R BARAO DO AMAZONAS, 827"
"-30.1207057";"-51.2251258";"street_address";"Av. da Cavalhada, 5055 - Cavalhada, Porto Alegre - RS, 91751-831, Brazil";437;"ARTIGOS FOTOGRAFICOS";"AV CAVALHADA, 5055/1"
"-30.0093005";"-51.1791133";"street_address";"R. Mal. José Inácio da Silva, 61 - Passo d'Areia, Porto Alegre - RS, 90520-280, Brazil";438;"BAZAR";"R MARECHAL JOSE INACIO DA SILVA, 61"
"-30.0395761";"-51.1838058";"street_address";"R. Carazinho, 431 - Petrópolis, Porto Alegre - RS, 90460-190, Brazil";439;"BAZAR";"R CARAZINHO, 431"
"-30.0405481";"-51.2156339";"street_address";"Av. Venâncio Aires, 480 - Santana, Porto Alegre - RS, 90040-192, Brazil";440;"BAZAR";"AV VENANCIO AIRES, 480"
"-30.0935498";"-51.2241571";"street_address";"Av. Nonoai, 1519 - Nonoai, Porto Alegre - RS, Brazil";441;"ARTIGOS DO VESTUARIO";"AV NONOAI, 1519"
"-30.0488436";"-51.2206596";"street_address";"Av. Ipiranga, 725 - Menino Deus, Porto Alegre - RS, 90160-090, Brazil";442;"DISTRIBUIDORA DE MEDICAMENTOS";"AV IPIRANGA, 725/402"
"-30.0267567";"-51.2217982";"street_address";"R. Voluntários da Pátria, 479 - Centro, Porto Alegre - RS, 90030-003, Brazil";443;"APARELHOS ELETRONICOS";"R VOLUNTARIOS DA PATRIA, 479"
"-30.0130024";"-51.1982336";"street_address";"R. Buarque de Macedo, 479 - São Geraldo, Porto Alegre - RS, 90230-250, Brazil";444;"MAQUINAS,APARELHOS,EQUIPAMENTOS DIVERSOS";"R BUARQUE DE MACEDO, 479"
"-29.9990077";"-51.1893864";"street_address";"Rua Edu Chaves, 247 - São João, Porto Alegre - RS, 90240-620, Brazil";445;"LOJA DE MAQUINAS E IMPLEMENTOS AGRICOLAS";"R EDU CHAVES, 247"
"-29.9852496";"-51.1293643";"premise";"Av. 21 de Abril, 885 - Sarandi, Porto Alegre - RS, 91120-630, Brazil";446;"EQUIPAMENTOS DE SEGURANCA";"AV VINTE UM DE ABRIL, 885"
"-30.1031596";"-51.2335907";"street_address";"Av. Otto Niemeyer, 2583 - Cavalhada, Porto Alegre - RS, 91910-000, Brazil";447;"FERRAGEM";"AV OTTO NIEMEYER, 2583"
"-30.0317272";"-51.2347274";"establishment";"R. dos Andradas, 685 - Centro, Porto Alegre - RS, 90020-003, Brazil";448;"SUPRIMENTO P/ COMPUTADORES E MATERIAIS INFORMATICA";"R ANDRADAS, 1001/100"
"-30.1117697";"-51.255675";"street_address";"Av. Wenceslau Escobar, 2667 - Tristeza, Porto Alegre - RS, 91900-000, Brazil";449;"MATERIAL DE CONSTRUCAO";"AV WENCESLAU ESCOBAR, 2667/302"
"-29.9954051";"-51.1991125";"street_address";"Rua Simão Kappel, 237 - Navegantes, Porto Alegre - RS, 90240-210, Brazil";450;"ACOUGUE";"R SIMAO KAPPEL, 237"
"-30.0179937";"-51.2037888";"street_address";"Av. Cristóvão Colombo, 1742 - Floresta, Porto Alegre - RS, 90560-002, Brazil";451;"COSMETICOS E OU PRODUTOS PARA SALAO DE BELEZA";"AV CRISTOVAO COLOMBO, 1742"
NA;NA;NA;"R GUADALAJARA 535 JAR ITU SABARA Porto Alegre %26&key=AIzaSyBA2Kt4jMYJe3up70J0Kl48Idrm69K6n0I";452;"COSMETICOS E OU PRODUTOS PARA SALAO DE BELEZA";"R GUADALAJARA, 535"
"-30.0092089";"-51.194275";"street_address";"Av. Ceará, 1492 - São Geraldo, Porto Alegre - RS, 90240-512, Brazil";453;"BAR/CAFE";"AV CEARA, 1492"
"-30.0223873";"-51.1866844";"street_address";"R. Comendador Rheingantz, 35 - Auxiliadora, Porto Alegre - RS, 90450-020, Brazil";454;"ARTIGOS FOTOGRAFICOS";"R COMENDADOR RHEINGANTZ, 35/602"
"-30.103545";"-51.24856";"street_address";"R. Dr. Castro de Menezes, 871 - Tristeza, Porto Alegre - RS, 91900-590, Brazil";455;"RESTAURANTE E PIZZARIA";"R DR CASTRO DE MENEZES, 871"
"-30.1134531";"-51.2545392";"street_address";"Av. Wenceslau Escobar, 2898 - Tristeza, Porto Alegre - RS, Brazil";456;"LANCHERIA";"AV WENCESLAU ESCOBAR, 2898"
"-29.9777338";"-51.1672949";"street_address";"Av. Fernando Ferrari, 1001 - Anchieta, Porto Alegre - RS, Brazil";457;"HORTOMERCADO";"AV FERNANDO FERRARI, 1001/11"
"-30.0128276";"-51.1875854";"premise";"R. Américo Vespúcio, 483 - Higienópolis, Porto Alegre - RS, 90550-031, Brazil";458;"BAR/CAFE/LANCHERIA";"R AMERICO VESPUCIO, 483"
"-30.0225744";"-51.2121631";"street_address";"R. Ramiro Barcelos, 319 - Floresta, Porto Alegre - RS, 90035-004, Brazil";459;"PECAS E ACESSORIOS PARA BICICLETAS,CICLOMOTORES E MOTOS";"R RAMIRO BARCELOS, 319"
"-30.0263548";"-51.1865434";"premise";"R. Anita Garibaldi, 926 - Mont'Serrat, Porto Alegre - RS, 90450-001, Brazil";460;"COSMETICOS E OU PRODUTOS PARA SALAO DE BELEZA";"R ANITA GARIBALDI, 926"
"-30.0536937";"-51.2001922";"premise";"Rua Luiz de Camões, 583 - Santo Antônio, Porto Alegre - RS, Brazil";461;"ARTIGOS SANITARIOS/MATERIAL DE CONSTRUCAO";"R LUIZ DE CAMOES, 583"
"-30.0585525";"-51.2157204";"establishment";"Av. da Azenha, 1678 - Azenha, Porto Alegre - RS, 90160-007, Brazil";462;"COSMETICOS E OU PRODUTOS PARA SALAO DE BELEZA";"AV AZENHA, 1678/204"
"-30.049779";"-51.2284706";"street_address";"Av. Praia de Belas, 1181 - Praia de Belas, Porto Alegre - RS, 90110-001, Brazil";463;"ARTIGOS DO VESTUARIO";"AV PRAIA DE BELAS, 1181/2056"
"-30.0250095";"-51.1622202";"street_address";"Av. João Wallig, 1800 - Passo d'Areia, Porto Alegre - RS, Brazil";464;"ARTIGOS DO VESTUARIO";"AV JOAO WALLIG, 1800/170"
NA;NA;NA;"AV INDUSTRIAS 70 ZONA INDEFINIDA Porto Alegre %26&key=AIzaSyBA2Kt4jMYJe3up70J0Kl48Idrm69K6n0I";465;"LOJA DE ARTIGOS DE DECORACAO";"AV INDUSTRIAS, 70"
"-30.0119314";"-51.1607565";"street_address";"Av. Assis Brasil, 2611 - Passo d'Areia, Porto Alegre - RS, 91010-004, Brazil";466;"ARTIGOS DO VESTUARIO";"AV ASSIS BRASIL, 2611/142"
"-30.0089859";"-51.1379992";"premise";"R. Dona Alzira, 139 - Sarandi, Porto Alegre - RS, 91110-010, Brazil";467;"SERVICO DE ALIMENTACAO DENTRO DE ESTABELECIMENTOS COM PUBLICO FIXO COM USO DE COZINHA INDUSTRIAL";"R DONA ALZIRA, 139"
"-30.1897426";"-51.190737";"street_address";"Estr. Ponta Grossa, 830 - Ponta Grossa, Porto Alegre - RS, 91780-580, Brazil";468;"DEPOSITO DE PRODUTOS QUIMICOS";"ESTR PONTA GROSSA, 830"
"-30.052385";"-51.212556";"street_address";"R. Prof. Oscar Pereira, 125 - Azenha, Porto Alegre - RS, 90160-006, Brazil";469;"MATERIAL DE CONSTRUCAO";"AV PROF OSCAR PEREIRA, 125"
"-30.0397781";"-51.153909";"street_address";"Av. Saturnino de Brito, 173 - Vila Jardim, Porto Alegre - RS, 91320-001, Brazil";470;"PECAS E ACESSORIOS PARA VEICULOS";"AV SATURNINO DE BRITO, 173"
"-30.1149416";"-51.2545302";"establishment";"Av. Wenceslau Escobar, 3033 - Cristal, Porto Alegre - RS, Brazil";471;"LOJA DE MOVEIS";"AV WENCESLAU ESCOBAR, 3033/101"
"-30.1578288";"-51.1616064";"street_address";"Av. Edgar Píres de Castro, 3020 - Restinga, Porto Alegre - RS, 91787-000, Brazil";472;"POSTO DE ABASTECIMENTO";"AV EDGAR PIRES DE CASTRO, 3020"
"-30.0351563";"-51.2282752";"street_address";"Av. Borges de Medeiros, 967 - Centro Histórico, Porto Alegre - RS, 90020-024, Brazil";473;"SUPRIMENTO P/ COMPUTADORES E MATERIAIS INFORMATICA";"AV BORGES DE MEDEIROS, 967/2"
"-30.0113131";"-51.1595564";"street_address";"R. Carlos Silveira Martins Pacheco, 10 - Cristo Redentor, Porto Alegre - RS, 91350-300, Brazil";474;"LOJA DE MATERIAL DE ESCRITORIO";"R CARLOS SILVEIRA MARTINS PACHECO, 10/405"
"-30.0523926";"-51.2157846";"street_address";"R. Barão do Triunfo, 576 - Menino Deus, Porto Alegre - RS, 90130-100, Brazil";475;"SUPRIMENTO P/ COMPUTADORES E MATERIAIS INFORMATICA";"R BARAO DO TRIUNFO, 576/405"
"-30.0104018";"-51.2072749";"street_address";"R. Moura Azevedo, 249 - São Geraldo, Porto Alegre - RS, 90230-150, Brazil";476;"COMERCIO DE EMBALAGENS DE PAPEL, PAPELAO OU PLASTICO";"R MOURA AZEVEDO, 249"
"-30.1632718";"-51.1460499";"street_address";"Estrada do Barro Vermelho, 347 - Restinga, Porto Alegre - RS, 91790-100, Brazil";477;"FERRAGEM";"ESTR BARRO VERMELHO, 347"
"-30.1040411";"-51.2297057";"street_address";"Av. da Cavalhada, 3164 - Cavalhada, Porto Alegre - RS, 91740-000, Brazil";478;"MATERIAL DE CONSTRUCAO";"AV CAVALHADA, 3164"
"-30.0596906";"-51.1927496";"street_address";"Av. Bento Gonçalves, 2197 - Partenon, Porto Alegre - RS, 90650-002, Brazil";479;"MAQUINAS,APARELHOS,EQUIPAMENTOS DIVERSOS";"AV BENTO GONCALVES, 2197"
"-30.0436098";"-51.1830765";"establishment";"Av. Protásio Alves, 2599 - Petrópolis, Porto Alegre - RS, 90410-003, Brazil";480;"INSTRUMENTOS MEDICO HOSPITALARES/MATERIAL ODONTO- LOGICO,APARELHOS ORTOPEDICOS,AUDITIVOS E EQUIPA-  MENTOS CIENTIFICOS E DE LABORATORIO";"AV PROTASIO ALVES, 2599/201"
"-30.018273";"-51.1974919";"street_address";"R. Cel. Bordini, 28 - Auxiliadora, Porto Alegre - RS, 90440-002, Brazil";481;"COSMETICOS E OU PRODUTOS PARA SALAO DE BELEZA";"R CEL BORDINI, 28"
"-30.0102252";"-51.1561605";"establishment";"Av. Assis Brasil, 3090 - Cristo Redentor, Porto Alegre - RS, Brazil";482;"ARMARINHOS/BIJUTERIAS";"AV ASSIS BRASIL, 3090/203"
"-30.0435905";"-51.1861738";"street_address";"Av. Protásio Alves, 2302 - Alto Petrópolis, Porto Alegre - RS, Brazil";483;"MAQUINAS,APARELHOS,EQUIPAMENTOS DIVERSOS";"AV PROTASIO ALVES, 2302/301"
"-30.0266605";"-51.197383";"street_address";"R. Quintino Bocaiúva, 978 - Floresta, Porto Alegre - RS, 90440-050, Brazil";484;"LOJA DE ARTIGOS DE DECORACAO";"R QUINTINO BOCAIUVA, 978"
"-30.0153569";"-51.1758417";"street_address";"R. Rio Pardo, 215 - Passo d'Areia, Porto Alegre - RS, 90520-430, Brazil";485;"ALIMENTOS NAO PERECIVEIS (VEDADO COMERCIALIZAR  PRDUTOS HORTIFRUTIGRANJEIROS)";"R RIO PARDO, 215"
"-30.0438922";"-51.2274575";"premise";"Av. Praia de Belas, 596 - Praia de Belas, Porto Alegre - RS, 90110-000, Brazil";486;"PERFUMARIA SEM MANIPULACAO";"AV PRAIA DE BELAS, 596"
"-29.9951428";"-51.1979853";"street_address";"R. Monsenhor Felipe Diehl, 70 - Humaitá, Porto Alegre - RS, 90240-150, Brazil";487;"FERRAGEM";"R MONSENHOR FELIPPE DIEHL, 70"
"-30.0281898";"-51.1993289";"street_address";"R. Mostardeiro, 780 - Independência, Porto Alegre - RS, 90430-001, Brazil";488;"JOALHERIA";"R MOSTARDEIRO, 780/501"
"-30.041111";"-51.2208068";"street_address";"R. Lopo Gonçalves, 327 - Cidade Baixa, Porto Alegre - RS, 90050-350, Brazil";489;"LOJA DE ROUPAS USADAS";"R LOPO GONCALVES, 327/2"
"-30.0852056";"-51.2456904";"street_address";"Av. Diário de Notícias, 300 - Cristal, Porto Alegre - RS, Brazil";490;"BAZAR";"AV DIARIO DE NOTICIAS, 300/2043"
"-30.0250323";"-51.1936845";"street_address";"Av. Mariland, 1151 - São João, Porto Alegre - RS, 90440-191, Brazil";491;"PADARIA SEM UTILIZACAO DE FORNO A LENHA";"AV MARILAND, 1151/2"
NA;NA;NA;"R DOM LUIZ GUANELLA 641 JAR ITU SABARA Porto Alegre %26&key=AIzaSyBA2Kt4jMYJe3up70J0Kl48Idrm69K6n0I";492;"COSMETICOS E OU PRODUTOS PARA SALAO DE BELEZA";"R DOM LUIZ GUANELLA, 641"
"-30.0329429";"-51.1795398";"street_address";"Av. Soledade, 498 - Petrópolis, Porto Alegre - RS, 90470-340, Brazil";493;"RESTAURANTE E PIZZARIA SEM FORNO A LENHA";"AV SOLEDADE, 498"
"-30.0402364";"-51.1948419";"street_address";"Av. Protásio Alves, 1326 - Alto Petrópolis, Porto Alegre - RS, Brazil";494;"CAFETERIA";"AV PROTASIO ALVES, 1326"
"-30.0282205";"-51.1874015";"premise";"Rua Tito Lívio Zambecari, 805 - Mont'Serrat, Porto Alegre - RS, 90450-230, Brazil";495;"BAR/CAFE/LANCHERIA";"R TITO LIVIO ZAMBECARI, 805"
"-30.0427746";"-51.1807185";"street_address";"Av. Protásio Alves, 2848 - Petrópolis, Porto Alegre - RS, Brazil";496;"BAR/CAFE";"AV PROTASIO ALVES, 2848"
"-30.0262208";"-51.212016";"street_address";"Av. Cristóvão Colombo, 545 - Floresta, Porto Alegre - RS, 90560-003, Brazil";497;"COSMETICOS E OU PRODUTOS PARA SALAO DE BELEZA";"AV CRISTOVAO COLOMBO, 545/1055"
"-30.0108968";"-51.2037683";"street_address";"Av. Pres. Franklin Roosevelt, 1264 - Navegantes, Porto Alegre - RS, 90230-002, Brazil";498;"OTICAS";"AV PRESIDENTE FRANKLIN ROOSEVELT, 1264/13"
"-30.0108968";"-51.2037683";"street_address";"Av. Pres. Franklin Roosevelt, 1264 - Navegantes, Porto Alegre - RS, 90230-002, Brazil";499;"OTICAS";"AV PRESIDENTE FRANKLIN ROOSEVELT, 1264/4"
"-29.9782699";"-51.1768486";"street_address";"Av. José Lutzenberger, 125 - Anchieta, Porto Alegre - RS, 90200-140, Brazil";500;"RESTAURANTE E PIZZARIA SEM FORNO A LENHA";"AV JOSE LUTZENBERGER, 125"
"-30.0224088";"-51.1865182";"street_address";"R. Comendador Rheingantz, 50 - Auxiliadora, Porto Alegre - RS, 90450-020, Brazil";501;"MAQUINAS,APARELHOS,EQUIPAMENTOS DIVERSOS";"R COMENDADOR RHEINGANTZ, 50/501"
"-30.0373667";"-51.221974";"street_address";"R. da República, 191 - Cidade Baixa, Porto Alegre - RS, 90050-321, Brazil";502;"BAR/CAFE/LANCHERIA";"R REPUBLICA, 191"
"-30.0261953";"-51.2013983";"street_address";"R. Comendador Caminha, 312 - Moinhos de Vento, Porto Alegre - RS, 90430-030, Brazil";503;"ARMARINHOS/BIJUTERIAS";"R COMENDADOR CAMINHA, 312/203"
"-30.0083604";"-51.1771459";"establishment";"Av. Assis Brasil, 864 - Santa Maria Goretti, Porto Alegre - RS, 91010-000, Brazil";504;"RESTAURANTE E PIZZARIA SEM FORNO A LENHA";"AV ASSIS BRASIL, 1190"
"-30.0280987";"-51.2243278";"street_address";"Rua Doutor Flores, 106 - Centro Histórico, Porto Alegre - RS, 90020-120, Brazil";505;"ARTIGOS DO VESTUARIO";"R DR FLORES, 106/808"
"-30.029678";"-51.2293383";"establishment";"R. dos Andradas, 1234 - Centro Histórico, Porto Alegre - RS, 90010-000, Brazil";506;"LOJA DE VARIEDADES (VESTUARIO, CALCADOS, BRINQUEDOARMARINHOS, BIJOUTERIAS EM PEQUENO ESTOQUE";"R ANDRADAS, 1425/32"
"-30.0083604";"-51.1771459";"establishment";"Av. Assis Brasil, 864 - Santa Maria Goretti, Porto Alegre - RS, 91010-000, Brazil";507;"PECAS E ACESSORIOS PARA VEICULOS";"AV ASSIS BRASIL, 800/2"
"-30.0393874";"-51.1838822";"street_address";"R. Carazinho, 451 - Petrópolis, Porto Alegre - RS, 90470-190, Brazil";508;"APARELHOS ELETRONICOS";"R CARAZINHO, 451"
"-30.0315325";"-51.2126038";"street_address";"R. Irmão José Otao, 588 - Independência, Porto Alegre - RS, 90035-060, Brazil";509;"PADARIA SEM UTILIZACAO DE FORNO A LENHA";"R IRMAO JOSE OTAO, 588"
"-30.021833";"-51.1625768";"street_address";"Av. Túlio de Rose, 80 - Passo d'Areia, Porto Alegre - RS, Brazil";510;"BOMBONIERE";"AV TULIO DE ROSE, 80/132"
"-30.1050554";"-51.2392235";"street_address";"Av. Otto Niemeyer, 2013 - Camaquã, Porto Alegre - RS, 91910-001, Brazil";511;"BAR/CAFE/LANCHERIA";"AV OTTO NIEMEYER, 2013"
"-30.104091";"-51.2360441";"street_address";"Av. Otto Niemeyer, 2325 - Tristeza, Porto Alegre - RS, 91910-001, Brazil";512;"APARELHOS ELETRONICOS";"AV OTTO NIEMEYER, 2325/3"
"-29.9960219";"-51.1260588";"street_address";"Avenida Alcídes São Severiano, 14 - Sarandi, Porto Alegre - RS, Brazil";513;"SUPRIMENTO P/ COMPUTADORES E MATERIAIS INFORMATICA";"AV ALCIDES S SEVERIANO, 14"
"-30.0597601";"-51.1571307";"premise";"R. Dr. Telmo Vergara, 220 - Intercap, Porto Alegre - RS, 91530-300, Brazil";514;"LOJA DE ACESSORIOS PARA ANIMAIS";"R DR TELMO VERGARA, 220"
NA;NA;NA;"LE PERCORRENDO BAIRROS - SMIC 1 - Porto Alegre %26&key=AIzaSyBA2Kt4jMYJe3up70J0Kl48Idrm69K6n0I";515;"DOCES E SALGADINHOS INDUSTRIALIZADOS";"LE PERCORRENDO BAIRROS - SMIC, 1"
"-30.0282176";"-51.2265508";"street_address";"Praça Quinze de Novembro, 66 - Centro Histórico, Porto Alegre - RS, 90020-061, Brazil";516;"ARMARINHOS/BIJUTERIAS";"PCA QUINZE DE NOVEMBRO, 66/506"
"-30.0081758";"-51.167056";"premise";"Av. Carneiro da Fontoura, 406 - Passo d'Areia, Porto Alegre - RS, 91040-170, Brazil";517;"AGUA MINERAL,SUPORTE PARA BOMBONAS E PURIFICADORESDE AGUA";"AV CARNEIRO DA FONTOURA, 406"
"-30.0147785";"-51.2040104";"premise";"Rua Visconde do Rio Branco, 232 - Floresta, Porto Alegre - RS, 90220-231, Brazil";518;"LOJA DE CONFECCOES";"R VISCONDE DO RIO BRANCO, 232"
"-30.0273156";"-51.2149677";"street_address";"Av. Cristóvão Colombo, 245 - Floresta, Porto Alegre - RS, 90560-003, Brazil";519;"TABACARIA/REVISTAS";"AV CRISTOVAO COLOMBO, 245"
"-30.0373784";"-51.2335355";"route";"Av. Loureiro da Silva, Porto Alegre - RS, Brazil";520;"MERCADAO DO PRODUTOR RAMO 4";"AV LOUREIRO DA SILVA, 1"
NA;NA;NA;"LE PERCORRENDO BAIRROS - SMIC 1 - Porto Alegre %26&key=AIzaSyBA2Kt4jMYJe3up70J0Kl48Idrm69K6n0I";521;"PERCORRENDO BAIRROS";"LE PERCORRENDO BAIRROS - SMIC, 1"
"-30.0223213";"-51.2070751";"premise";"R. Gen. Neto, 389 - Floresta, Porto Alegre - RS, 90560-020, Brazil";522;"BAR/CAFE/LANCHERIA";"R GEN NETO, 389"
"-30.0257783";"-51.2231995";"establishment";"Rua Chaves Barcellos, 161 - Centro, Porto Alegre - RS, 90030-120, Brazil";523;"SUPRIMENTO P/ COMPUTADORES E MATERIAIS INFORMATICA";"R CHAVES BARCELOS, 117/2"
"-30.0550755";"-51.1868768";"street_address";"Av. Ipiranga, 5200 - Jardim Botânico, Porto Alegre - RS, 90160-001, Brazil";524;"CALCADOS/ARTEFATOS DE COURO";"AV IPIRANGA, 5200/103"
NA;NA;NA;"R MAESTRO LEO W SCHNEIDER 96 RUBEM BERTA Porto Alegre %26&key=AIzaSyBA2Kt4jMYJe3up70J0Kl48Idrm69K6n0I";525;"DISCOS E FITAS";"R MAESTRO LEO W SCHNEIDER, 96"
"-30.026502";"-51.220022";"street_address";"R. Voluntários da Pátria, 650 - Centro Histórico, Porto Alegre - RS, 90030-001, Brazil";526;"APARELHOS ELETRONICOS";"R VOLUNTARIOS DA PATRIA, 650/3"
"-30.1036963";"-51.223084";"street_address";"Av. Vicente Monteggia, 1041 - Cavalhada, Porto Alegre - RS, 91740-290, Brazil";527;"MINI-MERCADO";"AV VICENTE MONTEGGIA, 1041/1"
"-30.0687797";"-51.1964315";"street_address";"R. Paulino Azurenha, 1038 - Partenon, Porto Alegre - RS, 90680-240, Brazil";528;"MINI-MERCADO";"R PAULINO AZURENHA, 1038"
"-30.0656436";"-51.2126495";"street_address";"Av. Dr. Carlos Barbosa, 1155 - Medianeira, Porto Alegre - RS, Brazil";529;"LOJA DE BEBIDAS";"AV DR CARLOS BARBOSA, 1155/1"
"-30.0289933";"-51.2031926";"street_address";"R. Dr. Florêncio Ygartua, 271 - Moinhos de Vento, Porto Alegre - RS, Brazil";530;"ALIMENTOS NAO PERECIVEIS (VEDADO COMERCIALIZAR  PRDUTOS HORTIFRUTIGRANJEIROS)";"R DR FLORENCIO YGARTUA, 271/707"
"-30.007037";"-51.138285";"street_address";"R. Dona Alzira, 340 - Sarandi, Porto Alegre - RS, 91110-010, Brazil";531;"PECAS E ACESSORIOS PARA VEICULOS";"R DONA ALZIRA, 340/1"
NA;NA;NA;"R LEDO GUIMARAES MARIANTE 110 ZONA INDEFIN. 4 Porto Alegre %26&key=AIzaSyBA2Kt4jMYJe3up70J0Kl48Idrm69K6n0I";532;"COSMETICOS E OU PRODUTOS PARA SALAO DE BELEZA";"R LEDO GUIMARAES MARIANTE, 110"
"-30.0412553";"-51.1699971";"street_address";"Av. Protásio Alves, 4187 - Três Figueiras, Porto Alegre - RS, 90310-000, Brazil";533;"RESTAURANTE E PIZZARIA SEM FORNO A LENHA";"AV PROTASIO ALVES, 4187"
"-30.0278939";"-51.2254654";"establishment";"R. Vig. José Inácio, 250 - Centro Histórico, Porto Alegre - RS, Brazil";534;"LOJA DE CONFECCOES";"R VIGARIO JOSE IGNACIO, 250/46"
"-30.049555";"-51.2245009";"street_address";"R. Marcílio Dias, 525 - Menino Deus, Porto Alegre - RS, 90130-001, Brazil";535;"LOJA DE CONVENIENCIA";"R MARCILIO DIAS, 525"
"-30.0316805";"-51.2096915";"street_address";"R. Felipe Camarão, 268 - Rio Branco, Porto Alegre - RS, 90035-140, Brazil";536;"LOJA DE MOLDURAS";"R FELIPE CAMARAO, 268"
"-30.061059";"-51.2228939";"street_address";"Praça Menino Deus, 56 - Menino Deus, Porto Alegre - RS, 90850-180, Brazil";537;"COSMETICOS E OU PRODUTOS PARA SALAO DE BELEZA";"PCA MENINO DEUS, 56"
"-30.0170991";"-51.2078699";"street_address";"Av. Farrapos, 1637 - Floresta, Porto Alegre - RS, 90220-004, Brazil";538;"MAQUINAS,VEICULOS E EQUIPAMENTOS";"AV FARRAPOS, 1637"
"-30.0575989";"-51.1962689";"premise";"Av. Bento Gonçalves, 1803 - Partenon, Porto Alegre - RS, 90650-002, Brazil";539;"ARTIGOS DO VESTUARIO";"AV BENTO GONCALVES, 1803"
"-30.046997";"-51.180006";"street_address";"R. Saicã, 341 - Petrópolis, Porto Alegre - RS, 90670-110, Brazil";540;"SUPRIMENTO P/ COMPUTADORES E MATERIAIS INFORMATICA";"R SAICA, 341"
"-29.9771162";"-51.185068";"street_address";"Av. Clóvis Paim Grivot, 225 - Humaitá, Porto Alegre - RS, 90250-020, Brazil";541;"CONFEITARIA/BOMBONIERE";"AV CLOVIS PAIM GRIVOT, 225"
"-30.030476";"-51.226284";"establishment";"Ed. Fleming - R. Gen. Vitorino, 53 - sala 31 - Centro Histórico, Porto Alegre - RS, 90020-170, Brazil";542;"LOJA DE GUARDA-CHUVA E AFINS";"R GEN VITORINO, 169"
"-30.0630681";"-51.2014866";"street_address";"Rua Delfino Riet, 479 - Santo Antônio, Porto Alegre - RS, Brazil";543;"PECAS E ACESSORIOS PARA VEICULOS";"R DELFINO RIET, 479"
"-30.0747202";"-51.2032903";"street_address";"R. Cel. Aparício Borges, 463 - Glória, Porto Alegre - RS, 90680-570, Brazil";544;"COSMETICOS E OU PRODUTOS PARA SALAO DE BELEZA";"AV CEL APARICIO BORGES, 463"
"-30.041415";"-51.2210285";"premise";"R. Lopo Gonçalves, 364 - Cidade Baixa, Porto Alegre - RS, Brazil";545;"RESTAURANTE E PIZZARIA SEM FORNO A LENHA";"R LOPO GONCALVES, 364"
"-30.054886";"-51.214692";"street_address";"Av. da Azenha, 1257 - Azenha, Porto Alegre - RS, 90160-003, Brazil";546;"FERRAGEM";"AV AZENHA, 1257"
"-30.0314713";"-51.2109962";"street_address";"Rua Fernandes Vieira, 235 - Bom Fim, Porto Alegre - RS, 90035-091, Brazil";547;"ALIMENTOS PARA ANIMAIS(CONGELADOS OU NAO)";"R FERNANDES VIEIRA, 235"
"-30.0122131";"-51.1674032";"premise";"Av. Assis Brasil, 2005 - Passo d'Areia, Porto Alegre - RS, Brazil";548;"ARTIGOS DO VESTUARIO";"AV ASSIS BRASIL, 2005"
"-30.065123";"-51.153296";"street_address";"Av. Bento Gonçalves, 6244 - Paternon, Porto Alegre - RS, 91540-000, Brazil";549;"MINI-MERCADO";"AV BENTO GONCALVES, 6244"
NA;NA;NA;"R TEN ARY TARRAGO 203 ZONA INDEFIN. 4 Porto Alegre %26&key=AIzaSyBA2Kt4jMYJe3up70J0Kl48Idrm69K6n0I";550;"PECAS E ACESSORIOS PARA VEICULOS";"R TEN ARY TARRAGO, 203"
"-30.0262208";"-51.212016";"street_address";"Av. Cristóvão Colombo, 545 - Floresta, Porto Alegre - RS, 90560-003, Brazil";551;"ARTIGOS DO VESTUARIO";"AV CRISTOVAO COLOMBO, 545/1091"
"-30.0620507";"-51.1623022";"street_address";"Av. Bento Gonçalves, 5300 - Partenon, Porto Alegre - RS, 90650-003, Brazil";552;"FARMACIA/DROGARIA SEM MANIPULACAO";"AV BENTO GONCALVES, 5300/1"
"-30.0652923";"-51.1876995";"street_address";"R. Manoel Vitórino, 93 - Partenon, Porto Alegre - RS, 90680-480, Brazil";553;"MINI-MERCADO";"R MANOEL VITORINO, 93"
"-30.0262208";"-51.212016";"street_address";"Av. Cristóvão Colombo, 545 - Floresta, Porto Alegre - RS, 90560-003, Brazil";554;"LANCHERIA";"AV CRISTOVAO COLOMBO, 545/2502"
NA;NA;NA;"R ANA AURORA DO AMARAL LISBOA 179 ZONA INDEFIN. 3 Porto Alegre %26&key=AIzaSyBA2Kt4jMYJe3up70J0Kl48Idrm69K6n0I";555;"ARMARINHOS/BIJUTERIAS";"R ANA AURORA DO AMARAL LISBOA, 179"
NA;NA;NA;"R BENTO MANOEL RIBEIRO 190 ZONA INDEFIN. 3 Porto Alegre %26&key=AIzaSyBA2Kt4jMYJe3up70J0Kl48Idrm69K6n0I";556;"LOJA DE VARIEDADES (VESTUARIO, CALCADOS, BRINQUEDOARMARINHOS, BIJOUTERIAS EM PEQUENO ESTOQUE";"R BENTO MANOEL RIBEIRO, 190"
"-30.008501";"-51.20433";"street_address";"Av. São Paulo, 636 - São Geraldo, Porto Alegre - RS, 90230-160, Brazil";557;"LOJA DE MICROCOMPUTADORES, COMPUTADORES PESSOAIS  OU EQUIPAMENTOS PARA INFORMATICA";"AV SAO PAULO, 636/402"
