"lat";"long";"accuracy";"formatted_address";"index";"tipo";"default"
"-30.0290139";"-51.2004117";"street_address";"Largo Caixeiros Viajantes, 24 - Rio Branco, Porto Alegre - RS, 90430-070, Brazil";1;"SERVICO DE MASSAGEM (MASSAGISTAS, MASSAGEM ESTETI-CA, TERAPEUTICA";"LG CAIXEIROS VIAJANTES, 24/9"
"-30.02181";"-51.200068";"establishment";"R. Dr. Timóteo, 739 - Moinhos de Vento, Porto Alegre - RS, 90570-041, Brazil";2;"TELE-ENTREGAS";"R DR TIMOTEO, 970"
"-30.0285737";"-51.2061951";"street_address";"R. Mostardeiro, 120 - Independência, Porto Alegre - RS, 90430-001, Brazil";3;"SALAO DE BELEZA";"R MOSTARDEIRO, 120/16"
"-30.0308141";"-51.2283512";"street_address";"R. Gen. Andrade Neves, 155 - Centro Histórico, Porto Alegre - RS, Brazil";4;"SERVICO DE ASSESSORIA, CONSULTORIA, PESQUISA, ANA-LISE E PROMOCOES";"R GEN ANDRADE NEVES, 155/81"
"-30.076284";"-51.173312";"bus_station";"Coronel Aparício Borges, Porto Alegre - RS, 91510-350, Brazil";5;"LOCACAO DE MAO-DE-OBRA";"R NUNES COSTA, 933"
"-30.0501403";"-51.2133533";"street_address";"Av. da Azenha, 709 - Azenha, Porto Alegre - RS, 90160-001, Brazil";6;"SALAO DE BELEZA";"AV AZENHA, 709/13"
"-30.0353521";"-51.2085189";"street_address";"R. Ramiro Barcelos, 1839 - Floresta, Porto Alegre - RS, Brazil";7;"SALAO DE BELEZA";"R RAMIRO BARCELOS, 1839"
"-30.0421948";"-51.146689";"route";"Av. Protásio Alves, Porto Alegre - RS, Brazil";8;"ACADEMIA DE ENSINO E/OU PRATICA DE GINASTICA";"AV PROTASIO ALVES, 7625"
"-30.0812334";"-51.2101274";"street_address";"Av. Engenheiro Ludolfo Boehl, 205 - Teresópolis, Porto Alegre - RS, 91720-150, Brazil";9;"ESCRITORIO DE ARQUITETURA";"AV ENG LUDOLFO BOEHL, 205/405"
"-30.0470334";"-51.2087647";"street_address";"R. Santana, 1013 - Farroupilha, Porto Alegre - RS, 90040-371, Brazil";10;"TINTURARIA E LAVANDERIA";"R SANTANA, 1013"
"-30.0281078";"-51.2186165";"street_address";"Av. Alberto Bins, 789 - Independência, Porto Alegre - RS, Brazil";11;"ESCRITORIO DE CONTABILIDADE";"AV ALBERTO BINS, 789/304"
"-30.0888197";"-51.240309";"street_address";"R. Curupaiti, 1097 - Cristal, Porto Alegre - RS, 90820-090, Brazil";12;"OFICINA DE REPARACAO DE ARTIGOS DE MADEIRA  E DO  MOBILIARIO (MOVE";"R CURUPAITI, 1097"
"-30.0217289";"-51.192818";"street_address";"R. 24 de Outubro, 1600 - Independência, Porto Alegre - RS, 90510-001, Brazil";13;"ESTUDIO DE PINTURA,DESENHO E ESCULTURA";"R VINTE QUATRO DE OUTUBRO, 1600/602"
"-30.0072548";"-51.1938795";"street_address";"Av. Ceará, 1309 - São João, Porto Alegre - RS, 90240-511, Brazil";14;"CENTRAL DE SERVICOS DE APOIO AS EMPRESAS";"AV CEARA, 1309/201"
"-30.040254";"-51.211304";"street_address";"R. Viêira de Castro, 285 - Santana, Porto Alegre - RS, 90040-320, Brazil";15;"ESCRITORIO DE SERVICOS JURIDICOS";"R VIEIRA DE CASTRO, 285/304"
"-30.0388941";"-51.1946884";"street_address";"Av. Cel. Lucas de Oliveira, 1841 - Petrópolis, Porto Alegre - RS, Brazil";16;"CONSULTORIO ODONTOLOGICO";"AV CEL LUCAS DE OLIVEIRA, 1841/501"
"-30.064747";"-51.16914";"establishment";"R. Martins de Lima, 350 - São José, Porto Alegre - RS, 91520-000, Brazil";17;"OFICINA DE REPARACAO DE MAQUINAS E APARELHOS ELE- TRICOS OU NAO";"R MARTINS DE LIMA, 467"
"-30.050954";"-51.1877896";"street_address";"R. Itaboraí, 570 - Jardim Botânico, Porto Alegre - RS, 90670-030, Brazil";18;"SALAO DE BELEZA";"R ITABORAI, 570"
"-30.1064008";"-51.2440207";"street_address";"Av. Otto Niemeyer, 1536 - Tristeza, Porto Alegre - RS, 91910-001, Brazil";19;"OFICINA-SERRALHERIA";"AV OTTO NIEMEYER, 1536"
"-30.0311917";"-51.2268783";"street_address";"R. Mal. Floriano Peixoto, 280 - Centro Histórico, Porto Alegre - RS, 90020-060, Brazil";20;"SALAO DE BELEZA";"R MARECHAL FLORIANO PEIXOTO, 280/12"
"-30.0681882";"-51.21361";"street_address";"Av. Cel. Gastão Haslocher Mazeron, 604, Porto Alegre - RS, Brazil";21;"PROFISSIONAL AUTONOMO";"AV CEL GASTAO HASLOCHER MAZERON, 604/202"
"-30.0000822";"-51.1334469";"street_address";"Av. Assis Brasil, 5740 - Passo d'Areia, Porto Alegre - RS, Brazil";22;"ESCRITORIO DE SERVICOS DE DESPACHANTE E PROCURADOR";"AV ASSIS BRASIL, 5740"
"-30.0158062";"-51.1501007";"street_address";"R. Alberto Silva, 580 - Cristo Redentor, Porto Alegre - RS, Brazil";23;"ESCRITORIO ADMINISTRATIVO (SEDE ADMINISTRATIVA DE EMPRESA)";"R ALBERTO SILVA, 580"
"-30.0527102";"-51.1832338";"premise";"R. Itaboraí, 1090 - Jardim Botânico, Porto Alegre - RS, 90670-030, Brazil";24;"MOTOFRETE";"R ITABORAI, 1090"
"-30.0593049";"-51.2290634";"street_address";"R. José de Alencar, 286 - Menino Deus, Porto Alegre - RS, 90880-481, Brazil";25;"ESCRITORIO ADMINISTRATIVO (SEDE ADMINISTRATIVA DE EMPRESA)";"R JOSE DE ALENCAR, 286"
"-30.0250095";"-51.1622202";"street_address";"Av. João Wallig, 1800 - Passo d'Areia, Porto Alegre - RS, Brazil";26;"SALAO DE BELEZA";"AV JOAO WALLIG, 1800/157"
"-30.0527102";"-51.1832338";"premise";"R. Itaboraí, 1090 - Jardim Botânico, Porto Alegre - RS, 90670-030, Brazil";27;"MOTOFRETE";"R ITABORAI, 1090"
"-30.0674419";"-51.1653835";"establishment";"R. Santo Alfredo - Partenon, Porto Alegre - RS, 91520-550, Brazil";28;"PROFISSIONAL AUTONOMO";"R SANTO ALFREDO, 822"
"-30.079293";"-51.226056";"street_address";"R. Cruzeiro do Sul, 2027 - Santa Tereza, Porto Alegre - RS, 90840-000, Brazil";29;"SALAO DE BELEZA";"R CRUZEIRO DO SUL, 2027"
"-30.1024155";"-51.2331";"street_address";"Av. Otto Niemeyer, 2658 - Tristeza, Porto Alegre - RS, 91910-001, Brazil";30;"OFICINA DE ASSISTENCIA TECNICA";"AV OTTO NIEMEYER, 2658/8"
"-30.070941";"-51.182256";"bus_station";"Coronel Aparício Borges, Porto Alegre - RS, 91510-000, Brazil";31;"PROFISSIONAL AUTONOMO";"R SAO JORGE-CEL APARICIO BORGES, 7"
"-30.1170068";"-51.160919";"street_address";"Estr. do Rincão, 580 - Belém Velho, Porto Alegre - RS, 91787-380, Brazil";32;"OFICINA-SERRALHERIA";"ESTR RINCAO, 580"
"-30.0280987";"-51.2243278";"street_address";"Rua Doutor Flores, 106 - Centro Histórico, Porto Alegre - RS, 90020-120, Brazil";33;"ESCRITORIO DE SERVICOS JURIDICOS";"R DR FLORES, 106/512"
"-30.0372045";"-51.2085582";"street_address";"Av. Osvaldo Aranha, 1439 - Bom Fim, Porto Alegre - RS, 90035-191, Brazil";34;"CONSULTORIO ODONTOLOGICO";"AV OSVALDO ARANHA, 1439/303"
"-30.05602";"-51.215442";"street_address";"R. Germano Hasslocher, 254 - Azenha, Porto Alegre - RS, 90160-050, Brazil";35;"OFICINA DE ASSISTENCIA TECNICA";"R GERMANO HASSLOCHER, 254"
"-30.0090405";"-51.1708243";"street_address";"R. Sorocaba, 178 - Passo d'Areia, Porto Alegre - RS, 90001-970, Brazil";36;"TELE-ENTREGAS";"R SOROCABA, 178/4"
"-29.9893344";"-51.143138";"route";"R. Sérgio Jungblut Dieterich, Porto Alegre - RS, Brazil";37;"TRANSPORTADORA DE CARGAS URBANAS OU METROPOLITANAS";"R SERGIO JUNGBLUT DIETERICH, 780"
"-30.042949";"-51.22664";"street_address";"R. Miguel Teixeira, 104 - Cidade Baixa, Porto Alegre - RS, 90050-250, Brazil";38;"SERVICO DE SOFTWARE E HARDWARE";"R MIGUEL TEIXEIRA, 104"
"-30.0386613";"-51.2242648";"street_address";"R. José do Patrocínio, 398 - Cidade Baixa, Porto Alegre - RS, 90050-002, Brazil";39;"CYBER CAFE";"R JOSE DO PATROCINIO, 398"
"-30.099785";"-51.232405";"street_address";"R. Dr. Barcelos, 2764 - Cavalhada, Porto Alegre - RS, 91910-251, Brazil";40;"OFICINA DE ASSISTENCIA TECNICA";"R DR BARCELOS, 2764/2"
"-30.0231753";"-51.1911419";"street_address";"R. Felipe Neri, 447 - Auxiliadora, Porto Alegre - RS, 90440-150, Brazil";41;"CONSULTORIO MEDICO";"R FELIPE NERI, 447/504"
"-30.0435905";"-51.1861738";"street_address";"Av. Protásio Alves, 2302 - Alto Petrópolis, Porto Alegre - RS, Brazil";42;"CONSULTORIO MEDICO";"AV PROTASIO ALVES, 2302/306"
"-30.0112646";"-51.1596425";"doctor";"Centro Comercial Francisco Trein - Rua Carlos Silveira Martins Pacheco, 10 sala 411 - Cristo Redentor, Porto Alegre - RS, 91350-300, Brazil";43;"CONSULTORIO MEDICO";"R CARLOS SILVEIRA MARTINS PACHECO, 10/708"
"-30.0732964";"-51.1922168";"route";"R. São Miguel - Cel. Aparicio Borges, Porto Alegre - RS, Brazil";44;"ESCRITORIO";"R SAO MIGUEL, 341"
"-30.0313357";"-51.2162034";"street_address";"Rua Tomaz Flores, 219 - Independência, Porto Alegre - RS, 90035-201, Brazil";45;"SERVICO DE MASSAGEM (MASSAGISTAS, MASSAGEM ESTETI-CA, TERAPEUTICA";"R TOMAZ FLORES, 219"
"-30.0277692";"-51.2199553";"street_address";"Av. Alberto Bins, 658 - Centro Histórico, Porto Alegre - RS, 90030-141, Brazil";46;"CENTRAL DE SERVICOS DE APOIO AS EMPRESAS";"AV ALBERTO BINS, 658/601"
"-30.0233207";"-51.1978084";"street_address";"R. 24 de Outubro, 1100 - Moinhos de Vento, Porto Alegre - RS, 90510-001, Brazil";47;"CONSULTORIO ODONTOLOGICO";"R VINTE QUATRO DE OUTUBRO, 1100/501"
"-30.0057866";"-51.1089725";"street_address";"Rua Aloísio Olimpio de Mello, 80 - Rubem Berta, Porto Alegre - RS, 91180-430, Brazil";48;"PROFISSIONAL AUTONOMO";"R ALOISIO OLYMPIO DE MELLO, 80/201"
"-30.0852056";"-51.2456904";"street_address";"Av. Diário de Notícias, 300 - Cristal, Porto Alegre - RS, Brazil";49;"SALAO DE BELEZA";"AV DIARIO DE NOTICIAS, 300/2108"
"-30.1089431";"-51.2275264";"street_address";"R. Liberal, 3435 - Cavalhada, Porto Alegre - RS, 91920-682, Brazil";50;"CHAVEIROS";"R LIBERAL, 3435"
"-30.0126947";"-51.2101062";"street_address";"R. do Parque, 95 - Floresta, Porto Alegre - RS, 90230-200, Brazil";51;"OFICINA DE REPARACAO E MANUTENCAO DE ELETRODOMES- TICOS";"R PARQUE, 95"
"-30.0097852";"-51.1519253";"street_address";"Av. Assis Brasil, 3532 - Jardim Lindoia, Porto Alegre - RS, Brazil";52;"CONSULTORIO MEDICO";"AV ASSIS BRASIL, 3532/801"
"-30.041073";"-51.213958";"street_address";"R. Olavo Bilac, 586 - Santana, Porto Alegre - RS, 90040-310, Brazil";53;"SALAO DE BELEZA";"R OLAVO BILAC, 586"
"-30.048814";"-51.208663";"street_address";"Av. Princesa Isabel, 395 - Santana, Porto Alegre - RS, 90620-001, Brazil";54;"CONSULTORIO MEDICO";"AV PRINCESA ISABEL, 395"
"-30.030476";"-51.226284";"establishment";"Ed. Fleming - R. Gen. Vitorino, 53 - sala 31 - Centro Histórico, Porto Alegre - RS, 90020-170, Brazil";55;"CONSULTORIO MEDICO";"R GEN VITORINO, 330/1101"
"-30.1477492";"-51.2072833";"street_address";"Av. Juca Batista, 2257 - Aberta dos Morros, Porto Alegre - RS, 91770-000, Brazil";56;"REPRESENTACAO COMERCIAL (INTERMEDIARIOS DE VENDAS DE MERCADORIAS A";"AV JUCA BATISTA, 2257/4"
"-30.029271";"-51.201509";"street_address";"Rua Dona Laura, 414 - Rio Branco, Porto Alegre - RS, 90430-090, Brazil";57;"CONSULTORIO DE PSICOLOGIA";"R DONA LAURA, 414/706"
"-30.0450675";"-51.1925396";"street_address";"Rua Eça de Queiroz, 377 - Petrópolis, Porto Alegre - RS, 90670-020, Brazil";58;"SALAO DE BELEZA";"R ECA DE QUEIROZ, 377"
"-30.0366238";"-51.2203028";"premise";"Av. João Pessoa, 511 - Farroupilha, Porto Alegre - RS, 90040-001, Brazil";59;"GARAGEM E ESTACIONAMENTO PARA VEICULOS, EXCETO OS DE CARGA OU COLE";"AV JOAO PESSOA, 511"
"-30.0302705";"-51.2280705";"street_address";"Tv. Eng. Acilino de Carvalho, 49 - Centro Histórico, Porto Alegre - RS, 90010-200, Brazil";60;"SALAO DE BELEZA";"TRAV ENG ACILINO CARVALHO, 49"
"-30.0126016";"-51.1495376";"establishment";"Tv. Prof. Emetério García Fernandes, 324 - Cristo Redentor, Porto Alegre - RS, 91370-380, Brazil";61;"PROFISSIONAL AUTONOMO";"TRAV PROF EMETERIO GARCIA FERNANDEZ, 50/204"
"-30.0101116";"-51.1539477";"street_address";"Av. Assis Brasil, 3316 - Jardim Lindoia, Porto Alegre - RS, 91010-004, Brazil";62;"CONSULTORIO DE TERAPIAS ALTERNATIVAS";"AV ASSIS BRASIL, 3316/411"
"-30.1024155";"-51.2331";"street_address";"Av. Otto Niemeyer, 2658 - Tristeza, Porto Alegre - RS, 91910-001, Brazil";63;"OFICINA DE ASSISTENCIA TECNICA";"AV OTTO NIEMEYER, 2658/8"
"-30.0281898";"-51.1993289";"street_address";"R. Mostardeiro, 780 - Independência, Porto Alegre - RS, 90430-001, Brazil";64;"CONSULTORIO MEDICO";"R MOSTARDEIRO, 780/203"
"-30.160753";"-51.218191";"street_address";"R. Osório Mendes Ouríques, 220 - Guarujá, Porto Alegre - RS, 91770-013, Brazil";65;"PROFISSIONAL AUTONOMO";"R OSORIO MENDES OURIQUES, 220"
"-30.0293447";"-51.2224893";"street_address";"Praça Dom Feliciano, 78 - Centro Histórico, Porto Alegre - RS, 90020-160, Brazil";66;"CONSULTORIO MEDICO";"PCA DOM FELICIANO, 78/503"
"-30.0601547";"-51.1536054";"street_address";"R. Cap. Pedro Werlang, 600 - Partenon, Porto Alegre - RS, 91530-110, Brazil";67;"PROFISSIONAL AUTONOMO";"R CAPITAO PEDRO WERLANG, 600/102"
"-29.9994977";"-51.1993704";"street_address";"Av. Sertório, 614 - Navegantes, Porto Alegre - RS, 91020-010, Brazil";68;"LOCACAO DE FITAS DE VIDEO";"AV SERTORIO, 614"
"-30.0092514";"-51.1820094";"street_address";"R. Cel. Feijó, 61 - São João, Porto Alegre - RS, 90520-060, Brazil";69;"GARAGEM E ESTACIONAMENTO PARA VEICULOS, EXCETO OS DE CARGA OU COLE";"R CEL FEIJO, 61"
"-30.093588";"-51.230186";"street_address";"R. Dr. Campos Velho, 1596 - Nonoai, Porto Alegre - RS, 90820-000, Brazil";70;"OFICINA MECANICA PARA AUTOMOVEIS";"R DR CAMPOS VELHO, 1596"
"-30.0237575";"-51.1828404";"street_address";"Av. Carlos Gomes, 222 - Boa Vista, Porto Alegre - RS, Brazil";71;"ESCRITORIO DE SERVICOS DE ASSESSORIA";"AV CARLOS GOMES, 222"
"-30.02181";"-51.200068";"establishment";"R. Dr. Timóteo, 739 - Moinhos de Vento, Porto Alegre - RS, 90570-041, Brazil";72;"CONSULTORIO DE FISIOTERAPIA";"R DR TIMOTEO, 727/602"
"-30.009098";"-51.102828";"street_address";"Rua Rudi Schaly, 310 - Rubem Berta, Porto Alegre - RS, 91180-380, Brazil";73;"OFICINA DE REPARACAO E MANUTENCAO DE VEICULOS AU- TOMOTORES,EXCLUS";"R RUDI SCHALY, 310"
"-30.0441566";"-51.2038238";"street_address";"R. Visc. do Rio Grande, 28 - Santana, Porto Alegre - RS, 90620-120, Brazil";74;"MINI-SNOOKER";"R VISCONDE DO RIO GRANDE, 28"
"-30.0441301";"-51.1592954";"premise";"R. Patagônia, 187 - Bom Jesus, Porto Alegre - RS, 91420-210, Brazil";75;"ESCRITORIO ADMINISTRATIVO (SEDE ADMINISTRATIVA DE EMPRESA)";"R PATAGONIA, 187"
"-30.0251439";"-51.2227353";"establishment";"Av. Júlio de Castilhos, 435 - Centro, Porto Alegre - RS, 90030-131, Brazil";76;"SERVICO DE MASSAGEM (MASSAGISTAS, MASSAGEM ESTETI-CA, TERAPEUTICA";"AV JULIO DE CASTILHOS, 440/72"
"-30.0127204";"-51.1700055";"street_address";"R. Jari, 89 - Passo d'Areia, Porto Alegre - RS, 91350-170, Brazil";77;"ESCRITORIO DE ENGENHARIA";"R JARY, 89/410"
"-30.0302647";"-51.2231911";"street_address";"Rua Professor Annes Dias, 154 - Centro Histórico, Porto Alegre - RS, 90020-090, Brazil";78;"CONSULTORIO MEDICO";"R PROF ANNES DIAS, 154/1105"
"-30.0258776";"-51.2028324";"premise";"R. 24 de Outubro, 524 - Moinhos de Vento, Porto Alegre - RS, 90510-002, Brazil";79;"SALAO DE BELEZA";"R VINTE QUATRO DE OUTUBRO, 524"
"-30.0390398";"-51.2208752";"street_address";"R. Gen. Lima e Silva, 683 - Centro Histórico, Porto Alegre - RS, Brazil";80;"ESCRITORIO DE SERVICOS JURIDICOS";"R GEN LIMA E SILVA, 683"
"-30.0400549";"-51.1653009";"street_address";"Av. Protásio Alves, 4638 - Petrópolis, Porto Alegre - RS, 90410-004, Brazil";81;"REPRESENTACAO COMERCIAL (INTERMEDIARIOS DE VENDAS DE MERCADORIAS A";"AV PROTASIO ALVES, 4638/206"
"-30.0039953";"-51.1679483";"street_address";"Rua Marquês de Souza, 12 - Jardim Sao Pedro, Porto Alegre - RS, 91040-230, Brazil";82;"PROFISSIONAL AUTONOMO";"AV MARQUES DE SOUZA, 12/302"
"-30.027061";"-51.195043";"street_address";"Av. Cel. Lucas de Oliveira, 505 - Petrópolis, Porto Alegre - RS, Brazil";83;"CONSULTORIO ODONTOLOGICO";"AV CEL LUCAS DE OLIVEIRA, 505/1207"
"-30.0649873";"-51.154974";"street_address";"Av. Bento Gonçalves, 6070 - Partenon, Porto Alegre - RS, Brazil";84;"SALAO DE BELEZA";"AV BENTO GONCALVES, 6070"
"-30.121979";"-51.2122715";"establishment";"Vila Nova, Porto Alegre - RS, 91750-200, Brazil";85;"OFICINA MECANICA PARA AUTOMOVEIS";"R ATILIO SUPERTTI, 841"
"-30.0080738";"-51.2007115";"street_address";"R. Ernesto Fontoura, 762 - São Geraldo, Porto Alegre - RS, 90230-090, Brazil";86;"TELE-ENTREGAS";"R ERNESTO FONTOURA, 762"
"-30.063057";"-51.2156";"street_address";"R. de Souza Júnior, 74 - Medianeira, Porto Alegre - RS, 90880-180, Brazil";87;"ESCRITORIO DE ARQUITETURA";"R DE SOUZA JUNIOR, 74"
"-30.0304902";"-51.2290621";"street_address";"R. Gen. Andrade Neves, 90 - Centro Histórico, Porto Alegre - RS, Brazil";88;"ESCOLA ESPECIAL";"R GEN ANDRADE NEVES, 90/13"
"-30.007398";"-51.1884429";"street_address";"Av. Benjamin Constant, 268 - São João, Porto Alegre - RS, 90550-003, Brazil";89;"ESCRITORIO DE CORRETAGEM DE SEGUROS";"AV BENJAMIN CONSTANT, 268/302"
"-30.0635732";"-51.1920087";"premise";"R. Paulino Azurenha, 314 - Partenon, Porto Alegre - RS, 90680-240, Brazil";90;"OFICINA DE ASSISTENCIA TECNICA";"R PAULINO AZURENHA, 314"
"-30.0406228";"-51.1654924";"street_address";"Av. Protásio Alves, 4629 - Petrópolis, Porto Alegre - RS, Brazil";91;"CONSULTORIO MEDICO";"AV PROTASIO ALVES, 4629"
"-30.0301253";"-51.2244729";"premise";"Rua Doutor Flores, 330 - Centro Histórico, Porto Alegre - RS, 90020-122, Brazil";92;"EMPRESA DE LIMPEZA E VIGILANCIA S/ARMAZENAMENDO DEPRODUTOS QUIMICO";"R DR FLORES, 330"
"-30.0174531";"-51.2069473";"street_address";"R. Alm. Barroso, 587 - Floresta, Porto Alegre - RS, 90220-021, Brazil";93;"ESCRITORIO DE CORRETAGEM DE SEGUROS";"R ALMIRANTE BARROSO, 587/301"
"-30.029533";"-51.203437";"street_address";"Rua Dona Laura, 226 - Rio Branco, Porto Alegre - RS, 90430-090, Brazil";94;"CONSULTORIO MEDICO";"R DONA LAURA, 226/401"
"-30.0290492";"-51.2182083";"street_address";"Av. Independência, 330 - Independência, Porto Alegre - RS, 90035-072, Brazil";95;"CONSULTORIO MEDICO";"AV INDEPENDENCIA, 330/405"
"-30.0588797";"-51.1924555";"street_address";"R. Portuguesa, 63 - Partenon, Porto Alegre - RS, 90650-120, Brazil";96;"PROFISSIONAL AUTONOMO";"R PORTUGUESA, 63"
"-29.981437";"-51.1309463";"premise";"Av. Souza Melo, 435 - Sarandi, Porto Alegre - RS, 91120-600, Brazil";97;"PROFISSIONAL AUTONOMO";"AV SOUZA MELO, 435"
"-30.0296363";"-51.2176048";"street_address";"Av. Independência, 383 - Independência, Porto Alegre - RS, Brazil";98;"CONSULTORIO MEDICO";"AV INDEPENDENCIA, 383/209"
"-30.0212107";"-51.1864346";"premise";"R. Dom Pedro II, 1595 - São João, Porto Alegre - RS, 90550-142, Brazil";99;"CONSULTORIO MEDICO";"R DOM PEDRO II, 1595"
"-30.0301113";"-51.2157038";"street_address";"Rua Tomaz Flores, 84 - Bom Fim, Porto Alegre - RS, 90035-200, Brazil";100;"CONSULTORIO DE FISIOTERAPIA";"R TOMAZ FLORES, 84"
"-29.989902";"-51.131469";"street_address";"R. Rezende Costa, 75 - Sarandi, Porto Alegre - RS, 91120-280, Brazil";101;"REPRESENTACAO COMERCIAL (INTERMEDIARIOS DE VENDAS DE MERCADORIAS A";"R REZENDE COSTA, 75"
"-30.0359705";"-51.2331409";"street_address";"R. Demétrio Ribeiro, 621 - Centro Histórico, Porto Alegre - RS, 90010-310, Brazil";102;"HOTEIS";"R DEMETRIO RIBEIRO, 621"
"-30.0225507";"-51.1742048";"premise";"R. Anita Garibaldi, 2177 - Boa Vista, Porto Alegre - RS, 90484-200, Brazil";103;"SALAO DE BELEZA";"R ANITA GARIBALDI, 2177"
"-30.0335719";"-51.2272952";"street_address";"R. Duque de Caxias, 1392 - Centro Histórico, Porto Alegre - RS, Brazil";104;"SALAO DE BELEZA";"R DUQUE DE CAXIAS, 1392"
"-30.031245";"-51.225813";"street_address";"R. Vig. José Inácio, 626 - Centro, Porto Alegre - RS, 90020-110, Brazil";105;"FOTOCOPIAS, COPIAS HELIOGRAFICAS E PLASTIFICACAO";"R VIGARIO JOSE IGNACIO, 626"
"-30.029678";"-51.2293383";"establishment";"R. dos Andradas, 1234 - Centro Histórico, Porto Alegre - RS, 90010-000, Brazil";106;"SALAO DE BELEZA";"R ANDRADAS, 1560/101"
"-30.0584387";"-51.2130083";"street_address";"Av. Dr. Carlos Barbosa, 314 - Medianeira, Porto Alegre - RS, 90880-000, Brazil";107;"AGENCIA DOS CORREIOS E TELEGRAFOS";"AV DR CARLOS BARBOSA, 314"
"-30.0203367";"-51.2068565";"street_address";"Av. Cristóvão Colombo, 1311 - Floresta, Porto Alegre - RS, 90560-004, Brazil";108;"ESCRITORIO DE IMPORTACAO E EXPORTACAO";"AV CRISTOVAO COLOMBO, 1311"
"-30.020365";"-51.147337";"street_address";"Av. Benno Mentz, 1048 - Vl Ipiranga, Porto Alegre - RS, 91370-020, Brazil";109;"REPRESENTACAO COMERCIAL (INTERMEDIARIOS DE VENDAS DE MERCADORIAS A";"AV BENNO MENTZ, 1048"
"-30.0301062";"-51.2244968";"street_address";"Rua Doutor Flores, 330 - Centro Histórico, Porto Alegre - RS, 90020-122, Brazil";110;"EDITORACAO GRAFICA, EDICAO E IMPRESSAO DE OUTROS  PRODUTOS GRAFICO";"R DR FLORES, 330/53"
"-30.0397562";"-51.2119022";"street_address";"R. Olavo Bilac, 836 - Azenha, Porto Alegre - RS, 90040-310, Brazil";111;"SERVICO DE SOFTWARE E HARDWARE";"R OLAVO BILAC, 836/102"
"-30.0300264";"-51.2231452";"street_address";"Praça Dom Feliciano, 36 - Centro Histórico, Porto Alegre - RS, Brazil";112;"SALAO DE BELEZA";"PCA DOM FELICIANO, 36"
"-30.0101116";"-51.1539477";"street_address";"Av. Assis Brasil, 3316 - Jardim Lindoia, Porto Alegre - RS, 91010-004, Brazil";113;"PROCESSAMENTO DE DADOS";"AV ASSIS BRASIL, 3316/802"
"-30.0095946";"-51.1922025";"street_address";"R. Felicissimo de Azevedo, 53 - São João, Porto Alegre - RS, 90540-110, Brazil";114;"ESCRITORIO DE AVALIACAO DE BENS-PERICIAIS/LAUDOS/ EXAMES/ANALISES";"R FELICISSIMO DE AZEVEDO, 53/504"
"-30.0311882";"-51.2300076";"establishment";"R. Gen. Câmara, 432 - 202 - Centro Histórico, Porto Alegre - RS, 90010-230, Brazil";115;"ESCRITORIO DE SERVICOS JURIDICOS";"R GEN CAMARA, 373/402"
"-30.0403349";"-51.2180246";"street_address";"R. Lopo Gonçalves, 60 - Cidade Baixa, Porto Alegre - RS, 90050-350, Brazil";116;"REPRESENTACAO COMERCIAL (INTERMEDIARIOS DE VENDAS DE MERCADORIAS A";"R LOPO GONCALVES, 60/401"
"-30.0290781";"-51.2266595";"street_address";"R. Mal. Floriano Peixoto, 38 - Centro Histórico, Porto Alegre - RS, 90020-060, Brazil";117;"LABORATORIO DE PROTESE";"R MARECHAL FLORIANO PEIXOTO, 38/2103"
"-30.0341534";"-51.2125749";"street_address";"Rua General João Telles, 524 - Bom Fim, Porto Alegre - RS, 90035-120, Brazil";118;"CONSULTORIO MEDICO";"R GEN JOAO TELLES, 524/409"
"-30.0619001";"-51.1716983";"street_address";"Av. Bento Gonçalves, 4423 - Partenon, Porto Alegre - RS, 90650-002, Brazil";119;"OFICINA DE CONFECCAO E CONSERTO DE FECHADURAS  E  CHAVES";"AV BENTO GONCALVES, 4423/2"
"-30.0307383";"-51.2326958";"street_address";"R. dos Andradas, 906 - Centro Histórico, Porto Alegre - RS, 90020-005, Brazil";120;"SALAO DE BELEZA";"R ANDRADAS, 906/3"
"-30.0443327";"-51.1896827";"street_address";"R. Prof. Langendonck, 143 - Petrópolis, Porto Alegre - RS, 90630-000, Brazil";121;"SALAO DE BELEZA";"R PROF LANGENDONCK, 143"
"-30.0115952";"-51.1559277";"accounting";"R. Adão Baino, 146 - Cristo Redentor, Porto Alegre - RS, 91250-220, Brazil";122;"OFICINA DE ASSISTENCIA TECNICA";"R ADAO BAINO, 89/401"
"-30.0217316";"-51.2085901";"street_address";"Av. Cristóvão Colombo, 1098 - Floresta, Porto Alegre - RS, 90560-002, Brazil";123;"ESCOLA PROFISSIONALIZANTE";"AV CRISTOVAO COLOMBO, 1098"
"-30.0290564";"-51.2182179";"premise";"Av. Independência, 330 - Independência, Porto Alegre - RS, 90035-072, Brazil";124;"REPRESENTACAO COMERCIAL (INTERMEDIARIOS DE VENDAS DE MERCADORIAS A";"AV INDEPENDENCIA, 330"
"-30.0519519";"-51.2217846";"street_address";"R. Barão do Triunfo, 12 - Menino Deus, Porto Alegre - RS, 90130-100, Brazil";125;"SALAO DE BELEZA";"R BARAO DO TRIUNFO, 12"
"-30.0411881";"-51.1543372";"street_address";"Av. Protásio Alves, 5710 - Alto Petrópolis, Porto Alegre - RS, Brazil";126;"SALAO DE BELEZA";"AV PROTASIO ALVES, 5710"
"-30.0831598";"-51.1925426";"street_address";"R. Arambare, 185 - Cascata, Porto Alegre - RS, 91710-490, Brazil";127;"PROFISSIONAL AUTONOMO";"R ARAMBARE, 185"
"-30.0196516";"-51.1969101";"street_address";"R. Marquês do Pombal, 732 - Moinhos de Vento, Porto Alegre - RS, 90540-000, Brazil";128;"CONFECCAO SOB MEDIDA DE ARTIGOS DO VESTUARIO";"R MARQUES DO POMBAL, 732/101"
"-30.0062468";"-51.1842183";"street_address";"Av. Assis Brasil, 164 - São João, Porto Alegre - RS, 91010-001, Brazil";129;"SALAO DE BELEZA";"AV ASSIS BRASIL, 164/76"
"-30.1145768";"-51.2538887";"street_address";"R. Dr. Mário Totta, 645 - Tristeza, Porto Alegre - RS, 91920-130, Brazil";130;"SALAO DE BELEZA";"R DR MARIO TOTTA, 645/3"
"-30.064093";"-51.1488042";"street_address";"R. Laudelino dos Santos, 28 - Jardim Carvalho, Porto Alegre - RS, 91440-080, Brazil";131;"CONSULTORIO DE TERAPIAS ALTERNATIVAS";"R LAUDELINO DOS SANTOS, 28"
"-30.0301144";"-51.1333589";"establishment";"Rua Tenente Ary Tarragô, 1402 - Jardim Itu-Sabará, Porto Alegre - RS, 91225-001, Brazil";132;"PROFISSIONAL AUTONOMO";"R TEN ARY TARRAGO, 2010/206"
"-30.0028171";"-51.1340593";"premise";"R. Zeferino Dias, 23 - Sarandi, Porto Alegre - RS, 91130-480, Brazil";133;"OFICINA DE REPARACAO DE ARTIGOS DIVERSOS NAO ESPE-CIFICADOS";"R ZEFERINO DIAS, 23"
"-30.0325362";"-51.2288521";"street_address";"R. Jerônimo Coelho, 63 - Centro Histórico, Porto Alegre - RS, 90010-240, Brazil";134;"PROFISSIONAL AUTONOMO";"R JERONIMO COELHO, 63"
"-30.031743";"-51.196697";"street_address";"R. Quintino Bocaiúva, 1530 - Rio Branco, Porto Alegre - RS, 90440-050, Brazil";135;"SALAO DE BELEZA";"R QUINTINO BOCAIUVA, 1530"
"-30.031384";"-51.2017452";"street_address";"R. Schiller, 139 - Rio Branco, Porto Alegre - RS, 90430-150, Brazil";136;"SALAO DE BELEZA";"R SCHILLER, 139"
"-30.0317718";"-51.2276095";"street_address";"Av. Borges de Medeiros, 596 - Centro Histórico, Porto Alegre - RS, 90020-024, Brazil";137;"ESCRITORIO DE SERVICOS JURIDICOS";"AV BORGES DE MEDEIROS, 596/72"
"-30.0292664";"-51.2247614";"street_address";"Rua Doutor Flores, 231 - Centro Histórico, Porto Alegre - RS, 90020-122, Brazil";138;"OFICINA DE REPARACAO DE MAQUINAS E APARELHOS ELE- TRICOS OU NAO";"R DR FLORES, 231/2"
"-30.0183657";"-51.2003687";"street_address";"R. Dr. Timóteo, 371 - Floresta, Porto Alegre - RS, 90570-041, Brazil";139;"AGENCIA DE LOCACAO DE VEICULOS";"R DR TIMOTEO, 371/703"
"-30.0844223";"-51.1354051";"establishment";"Beco do David, 269 - Lomba do Pinheiro, Porto Alegre - RS, 91550-160, Brazil";140;"PROFISSIONAL AUTONOMO";"BC DAVID, 268"
"-30.0369552";"-51.156042";"street_address";"Rua Conde da Figueira, 471 - Vila Jardim, Porto Alegre - RS, Brazil";141;"ESCRITORIO DE CONTABILIDADE";"R CONDE DA FIGUEIRA, 471"
"-30.0112045";"-51.1681664";"street_address";"R. Açores, 57 - Passo d'Areia, Porto Alegre - RS, 91030-530, Brazil";142;"CONSULTORIO MEDICO";"R ACORES, 57/306"
"-30.0526149";"-51.2137927";"premise";"Av. da Azenha, 991 - Azenha, Porto Alegre - RS, 90160-006, Brazil";143;"SALAO DE BELEZA";"AV AZENHA, 991"
"-30.0210679";"-51.2081978";"street_address";"Rua Hoffmann, 625 - Floresta, Porto Alegre - RS, 90220-170, Brazil";144;"SALAO DE BELEZA";"R HOFFMANN, 625/1"
"-30.0229554";"-51.1164802";"route";"R. Osvaldo Petersen Paiva - Rubem Berta, Porto Alegre - RS, 91240-280, Brazil";145;"REPRESENTACAO COMERCIAL (INTERMEDIARIOS DE VENDAS DE MERCADORIAS A";"R OSWALDO PETERSEN PAIVA, 10/33"
"-30.149042";"-51.220441";"street_address";"R. dos Carijós, 129 - Espírito Santo, Porto Alegre - RS, 91770-020, Brazil";146;"SALAO DE BELEZA";"R CARIJOS, 129"
"-30.0041415";"-51.0905921";"street_address";"Av. Francisco Talaia de Moura, 195 - Rubem Berta, Porto Alegre - RS, Brazil";147;"SALAO DE BELEZA";"AV FRANCISCO TALAIA DE MOURA, 195/101"
"-30.0841514";"-51.1162316";"route";"Estr. Antônio José Santana - Agronomia, Porto Alegre - RS, Brazil";148;"SALAO DE BELEZA";"R ANTONIO JOSE DE SANTANA, 611/1"
"-30.041162";"-51.170116";"street_address";"Av. Protásio Alves, 4177 - Alto Petrópolis, Porto Alegre - RS, Brazil";149;"OFICINA DE REPARACAO DE ARTIGOS DIVERSOS NAO ESPE-CIFICADOS";"AV PROTASIO ALVES, 4177"
"-30.1159974";"-51.2124279";"street_address";"Av. Rodrigues da Fonseca, 1459 - Vila Nova, Porto Alegre - RS, 91740-800, Brazil";150;"LOCACAO DE FITAS DE VIDEO";"AV RODRIGUES DA FONSECA, 1459/2"
"-30.0598261";"-51.1917533";"street_address";"R. Barão do Amazonas, 1866 - Partenon, Porto Alegre - RS, 90670-002, Brazil";151;"SALAO DE BELEZA";"R BARAO DO AMAZONAS, 1866/301"
"-30.098041";"-51.234993";"street_address";"R. Cel. Massot, 1381 - Cavalhada, Porto Alegre - RS, 91910-530, Brazil";152;"TINTURARIA E LAVANDERIA SEM CALDEIRA";"R CEL MASSOT, 1381"
"-30.0289553";"-51.2268245";"street_address";"R. Mal. Floriano Peixoto, 13 - Centro Histórico, Porto Alegre - RS, 90020-061, Brazil";153;"SALAO DE BELEZA";"R MARECHAL FLORIANO PEIXOTO, 13/22"
"-30.0596853";"-51.1920084";"street_address";"R. Barão do Amazonas, 1853 - Partenon, Porto Alegre - RS, 90670-000, Brazil";154;"SALAO DE BELEZA";"R BARAO DO AMAZONAS, 1853/4"
"-30.1006601";"-51.2272989";"street_address";"Av. Otto Niemeyer, 3504 - Tristeza, Porto Alegre - RS, 91910-001, Brazil";155;"SALAO DE BELEZA";"AV OTTO NIEMEYER, 3504"
"-30.085817";"-51.2460326";"subpremise";"Av. Diário de Notícias, 300 - 1058 - Cristal, Porto Alegre - RS, 90810-080, Brazil";156;"SALAO DE BELEZA";"AV DIARIO DE NOTICIAS, 300/1058"
"-30.0546263";"-51.2219436";"street_address";"R. Botafogo, 837 - Menino Deus, Porto Alegre - RS, 90150-051, Brazil";157;"SALAO DE BELEZA";"R BOTAFOGO, 837"
"-30.0303841";"-51.1399386";"establishment";"Av. Alberto Pasqualini, 709 - Jardim Itu-Sabará, Porto Alegre - RS, 91215-001, Brazil";158;"SALAO DE BELEZA";"AV ALBERTO PASQUALINI, 709"
"-30.0323346";"-51.2241466";"street_address";"R. Duque de Caxias, 1743 - Centro Histórico, Porto Alegre - RS, 90010-490, Brazil";159;"SALAO DE BELEZA";"R DUQUE DE CAXIAS, 1743/5"
"-30.067571";"-51.163716";"street_address";"R. Primeiro de Setembro, 545 - São José, Porto Alegre - RS, 91520-540, Brazil";160;"PROFISSIONAL AUTONOMO";"R PRIMEIRO DE SETEMBRO, 545/4"
"-30.029043";"-51.2266487";"street_address";"R. Mal. Floriano Peixoto, 44 - Centro Histórico, Porto Alegre - RS, 90020-060, Brazil";161;"SALAO DE BELEZA";"R MARECHAL FLORIANO PEIXOTO, 44/6"
"-30.0092681";"-51.1787093";"street_address";"Praça Cônego Cleto Bevegnu, 89 - Passo d'Areia, Porto Alegre - RS, Brazil";162;"OFICINA DE ASSISTENCIA TECNICA";"PCA CONEGO CLETO BEVEGNU, 89"
"-30.0282914";"-51.2234508";"street_address";"Av. Alberto Bins, 325 - Centro Histórico, Porto Alegre - RS, 90030-142, Brazil";163;"SERVICO DE MASSAGEM (MASSAGISTAS, MASSAGEM ESTETI-CA, TERAPEUTICA";"AV ALBERTO BINS, 325/22"
"-30.041457";"-51.1826848";"street_address";"Av. Taquara, 586 - Petrópolis, Porto Alegre - RS, 90460-210, Brazil";164;"REPRESENTACAO COMERCIAL (INTERMEDIARIOS DE VENDAS DE MERCADORIAS A";"AV TAQUARA, 586/301"
"-30.0147568";"-51.1200908";"route";"Av. Baltazar de Oliveira Garcia, Porto Alegre - RS, Brazil";165;"SERVICO DE MASSAGEM (MASSAGISTAS, MASSAGEM ESTETI-CA, TERAPEUTICA";"AV BALTAZAR DE OLIVEIRA GARCIA, 3577"
"-30.0349458";"-51.2260592";"street_address";"R. Gen. Lima e Silva, 25 - Centro Histórico, Porto Alegre - RS, 90050-102, Brazil";166;"SALAO DE BELEZA";"R GEN LIMA E SILVA, 25"
"-30.0238622";"-51.199531";"street_address";"R. 24 de Outubro, 905 - Independência, Porto Alegre - RS, 90510-002, Brazil";167;"SALAO DE BELEZA";"R VINTE QUATRO DE OUTUBRO, 905/5"
"-30.0388388";"-51.2069231";"street_address";"R. Ramiro Barcelos, 2350 - Santa Cecilia, Porto Alegre - RS, 90035-007, Brazil";168;"SALAO DE BELEZA";"R RAMIRO BARCELOS, 2350/2"
"-30.0552796";"-51.1733766";"street_address";"Av. Ipiranga, 6690 - Jardim Botânico, Porto Alegre - RS, Brazil";169;"CONSULTORIO MEDICO";"AV IPIRANGA, 6690/615"
"-30.0264238";"-51.222395";"establishment";"Praça Osvaldo Cruz, 15 - Centro Histórico, Porto Alegre - RS, 90010-130, Brazil";170;"ESCRITORIO DE SERVICOS JURIDICOS";"PCA OSVALDO CRUZ, 15/2007"
"-30.0304629";"-51.2279618";"street_address";"Av. Borges de Medeiros, 453 - Centro Histórico, Porto Alegre - RS, 90020-021, Brazil";171;"SERVICO DE ASSESSORIA, CONSULTORIA, PESQUISA, ANA-LISE E PROMOCOES";"AV BORGES DE MEDEIROS, 453/76"
"-30.1225328";"-51.2542654";"street_address";"Av. Cel. Marcos, 230 - Pedra Redonda, Porto Alegre - RS, Brazil";172;"ESCRITORIO DE SERVICOS DE CONSULTORIA";"AV CEL MARCOS, 230"
"-30.1149416";"-51.2545302";"establishment";"Av. Wenceslau Escobar, 3033 - Cristal, Porto Alegre - RS, Brazil";173;"ESCOLA PREPARATORIA";"AV WENCESLAU ESCOBAR, 3033/301"
"-30.0070796";"-51.1871563";"street_address";"Av. Benjamin Constant, 179 - São João, Porto Alegre - RS, 90550-002, Brazil";174;"SALAO DE BELEZA";"AV BENJAMIN CONSTANT, 179"
"-30.0591788";"-51.1937046";"premise";"Av. Bento Gonçalves, 2103 - Partenon, Porto Alegre - RS, 90650-002, Brazil";175;"CONFECCAO SOB MEDIDA DE ARTIGOS DO VESTUARIO";"AV BENTO GONCALVES, 2103"
"-30.0210256";"-51.1523636";"street_address";"Travessa Olintho Sanmartin, 65 - Vila Ipiranga, Porto Alegre - RS, 91360-140, Brazil";176;"ESCRITORIO DE SERVICOS DE ASSESSORIA";"TRAV OLINTHO SANMARTIN, 65"
"-30.0402099";"-51.2212173";"street_address";"R. Alberto Tôrres, 147 - Cidade Baixa, Porto Alegre - RS, Brazil";177;"SALAO DE BELEZA";"R ALBERTO TORRES, 147"
"-30.009357";"-51.18037";"street_address";"R. Gen. João de Deus Martins, 51 - Passo d'Areia, Porto Alegre - RS, 90520-110, Brazil";178;"REPRESENTACAO COMERCIAL (INTERMEDIARIOS DE VENDAS DE MERCADORIAS A";"R GEN JOAO DE DEUS MARTINS, 51"
"-30.0406566";"-51.1658714";"street_address";"Av. Protásio Alves, 4577 - Alto Petrópolis, Porto Alegre - RS, Brazil";179;"OFICINA DE CONFECCAO E CONSERTO DE FECHADURAS  E  CHAVES";"AV PROTASIO ALVES, 4577"
"-30.0296479";"-51.2250384";"beauty_salon";"R. dos Andradas, 1656 - 501 - Centro Histórico, Porto Alegre - RS, 90020-006, Brazil";180;"SEDE DE ENTIDADE DE CLASSE";"R ANDRADAS, 1091/83"
"-29.9846823";"-51.1263339";"street_address";"Av. Alcídes Maia, 649 - Sarandi, Porto Alegre - RS, 91120-440, Brazil";181;"SALAO DE BELEZA";"AV ALCIDES MAIA, 649"
"-30.0567851";"-51.2017516";"street_address";"Rua Luiz de Camões, 182 - Santo Antônio, Porto Alegre - RS, 90620-150, Brazil";182;"SALAO DE BELEZA";"R LUIZ DE CAMOES, 182"
"-30.0669166";"-51.1700816";"bakery";"R. Dona Firmina, 570 - São José, Porto Alegre - RS, 91520-210, Brazil";183;"SALAO DE BELEZA";"R DONA FIRMINA, 1494"
"-30.0302341";"-51.2231462";"street_address";"Rua Professor Annes Dias, 166 - Centro Histórico, Porto Alegre - RS, 90010-490, Brazil";184;"CONSULTORIO DE TERAPIAS ALTERNATIVAS";"R PROF ANNES DIAS, 166/206"
"-30.0587736";"-51.2226067";"street_address";"Av. Getúlio Vargas, 1570 - Menino Deus, Porto Alegre - RS, 90150-004, Brazil";185;"CONSULTORIO MEDICO";"AV GETULIO VARGAS, 1570/306"
"-30.0298722";"-51.2256283";"establishment";"R. dos Andradas, 1593 - Centro Histórico, Porto Alegre - RS, 90010-140, Brazil";186;"CONSULTORIO MEDICO";"R ANDRADAS, 1711/904"
"-30.0297995";"-51.2263778";"dentist";"R. dos Andradas, 1248 - Centro Histórico, Porto Alegre - RS, 90020-008, Brazil";187;"SERVICO DE TREINAMENTO E ADMINISTRACAO DE PESSOAL";"R ANDRADAS, 1248"
"-30.0082627";"-51.1845463";"street_address";"Av. Assis Brasil, 115 - São João, Porto Alegre - RS, 90520-100, Brazil";188;"CONSULTORIO ODONTOLOGICO";"AV ASSIS BRASIL, 115/303"
"-30.0063464";"-51.2024389";"establishment";"Av. Pres. Franklin Roosevelt, 751 - Navegantes, Porto Alegre - RS, 90230-001, Brazil";189;"ESCRITORIO ADMINISTRATIVO (SEDE ADMINISTRATIVA DE EMPRESA)";"AV PRESIDENTE FRANKLIN ROOSEVELT, 751/201"
"-30.0228841";"-51.1918887";"street_address";"R. Felipe Neri, 382 - Auxiliadora, Porto Alegre - RS, 90440-150, Brazil";190;"CONSULTORIO DE ASSISTENTE SOCIAL";"R FELIPE NERI, 382/501"
"-30.0053184";"-51.0983514";"street_address";"Av. Bernardino Silveira Amorim, 3315 - Rubem Berta, Porto Alegre - RS, 91160-624, Brazil";191;"SALAO DE BELEZA";"AV BERNARDINO SILVEIRA DE AMORIM, 3315"
"-30.0497629";"-51.1654313";"street_address";"R. São Benedito, 1130 - Bom Jesus, Porto Alegre - RS, 91410-410, Brazil";192;"SALAO DE BELEZA";"R SAO BENEDITO, 1130"
"-30.0281341";"-51.2301164";"street_address";"R. Siqueira Campos, 1170 - Centro Histórico, Porto Alegre - RS, Brazil";193;"ESCRITORIO DE SERVICOS JURIDICOS";"R SIQUEIRA CAMPOS, 1170/5"
"-30.0543672";"-51.192178";"street_address";"Av. Ipiranga, 4629 - Praia de Belas, Porto Alegre - RS, 90160-092, Brazil";194;"SALAO DE BELEZA";"AV IPIRANGA, 4629"
"-30.0427112";"-51.2188263";"street_address";"Av. Venâncio Aires, 103 - Cidade Baixa, Porto Alegre - RS, 90040-191, Brazil";195;"SALAO DE BELEZA";"AV VENANCIO AIRES, 103"
"-30.0293852";"-51.2247682";"street_address";"Rua Doutor Flores, 245 - Centro Histórico, Porto Alegre - RS, 90020-122, Brazil";196;"ESCRITORIO DE SERVICOS JURIDICOS";"R DR FLORES, 245/801"
"-30.029678";"-51.2293383";"establishment";"R. dos Andradas, 1234 - Centro Histórico, Porto Alegre - RS, 90010-000, Brazil";197;"CONSULTORIO MEDICO";"R ANDRADAS, 1781/701"
"-30.0941552";"-51.2294665";"street_address";"R. Dr. Campos Velho, 1697 - Cristal, Porto Alegre - RS, 90820-001, Brazil";198;"CONFECCAO SOB MEDIDA DE ARTIGOS DO VESTUARIO";"R DR CAMPOS VELHO, 1697/6"
"-30.104542";"-51.2391898";"street_address";"R. Camaquã, 555 - Camaquã, Porto Alegre - RS, 91910-630, Brazil";199;"SALAO DE BELEZA";"R CAMAQUA, 555/1"
"-30.0524905";"-51.214331";"street_address";"R. Barão do Triunfo, 720 - Menino Deus, Porto Alegre - RS, 90130-100, Brazil";200;"ESCRITORIO DE SERVICOS JURIDICOS";"R BARAO DO TRIUNFO, 720/507"
"-30.0250095";"-51.1622202";"street_address";"Av. João Wallig, 1800 - Passo d'Areia, Porto Alegre - RS, Brazil";201;"SALAO DE BELEZA";"AV JOAO WALLIG, 1800/1263"
"-30.0552796";"-51.1733766";"street_address";"Av. Ipiranga, 6690 - Jardim Botânico, Porto Alegre - RS, Brazil";202;"CONSULTORIO MEDICO";"AV IPIRANGA, 6690/314"
"-30.029055";"-51.2055621";"street_address";"R. Mostardeiro, 157 - Independência, Porto Alegre - RS, Brazil";203;"CONSULTORIO MEDICO";"R MOSTARDEIRO, 157/308"
"-30.0306761";"-51.2257031";"street_address";"R. Vig. José Inácio, 566 - Centro Histórico, Porto Alegre - RS, 90020-100, Brazil";204;"CONSULTORIO ODONTOLOGICO";"R VIGARIO JOSE IGNACIO, 566/908"
"-30.0605204";"-51.224064";"street_address";"R. José de Alencar, 757 - Menino Deus, Porto Alegre - RS, 90880-480, Brazil";205;"SALAO DE BELEZA";"R JOSE DE ALENCAR, 757"
"-30.017435";"-51.164476";"street_address";"Av. João Wallig, 633 - Passo d'Areia, Porto Alegre - RS, 91340-000, Brazil";206;"SALAO DE BELEZA";"AV JOAO WALLIG, 633"
"-30.0226221";"-51.188183";"street_address";"Av. Plínio Brasil Milano, 295 - Higienópolis, Porto Alegre - RS, 90520-002, Brazil";207;"CONSULTORIO DE PSICOLOGIA";"AV PLINIO BRASIL MILANO, 295/402"
"-30.0291938";"-51.2011878";"street_address";"Av. Goethe, 21 - PARCÃO, Porto Alegre - RS, 90430-100, Brazil";208;"CONSULTORIO MEDICO";"AV GOETHE, 21/305"
"-30.01343";"-51.194713";"street_address";"Av. Benjamin Constant, 1330 - São João, Porto Alegre - RS, 90550-002, Brazil";209;"DECORACAO DE FESTAS";"AV BENJAMIN CONSTANT, 1330/209"
"-30.0103601";"-51.1762252";"street_address";"Av. Brasiliano Índio de Moraes, 286 - Passo d'Areia, Porto Alegre - RS, 91030-001, Brazil";210;"SALAO DE BELEZA";"AV BRASILIANO INDIO DE MORAES, 286"
"-30.073638";"-51.188232";"bus_station";"Coronel Aparício Borges, Porto Alegre - RS, 91510-000, Brazil";211;"SALAO DE BELEZA";"R INTENDENTE ALFREDO AZEVEDO, 1138"
"-30.0179328";"-51.1971804";"street_address";"Av. Cristóvão Colombo, 2313 - Floresta, Porto Alegre - RS, Brazil";212;"CONSULTORIO DE PSICOLOGIA";"AV CRISTOVAO COLOMBO, 2313"
"-30.0273615";"-51.2294131";"establishment";"R. Uruguai, 45 - Centro Histórico, Porto Alegre - RS, 90010-000, Brazil";213;"SERVICO DE MASSAGEM (MASSAGISTAS, MASSAGEM ESTETI-CA, TERAPEUTICA";"R URUGUAI, 335/75"
"-30.0273615";"-51.2294131";"establishment";"R. Uruguai, 45 - Centro Histórico, Porto Alegre - RS, 90010-000, Brazil";214;"SERVICO DE MASSAGEM (MASSAGISTAS, MASSAGEM ESTETI-CA, TERAPEUTICA";"R URUGUAI, 335/72"
"-30.029678";"-51.2293383";"establishment";"R. dos Andradas, 1234 - Centro Histórico, Porto Alegre - RS, 90010-000, Brazil";215;"CONSULTORIO MEDICO";"R ANDRADAS, 1781/1606"
"-30.029678";"-51.2293383";"establishment";"R. dos Andradas, 1234 - Centro Histórico, Porto Alegre - RS, 90010-000, Brazil";216;"ESCRITORIO DE SERVICOS JURIDICOS";"R ANDRADAS, 1646/12"
"-30.0458439";"-51.213433";"street_address";"Av. João Pessoa, 1831 - Azenha, Porto Alegre - RS, Brazil";217;"SERVICO DE PODOLOGIA";"AV JOAO PESSOA, 1831/300"
"-30.0308395";"-51.1816423";"street_address";"R. Carvalho Monteiro, 234 - Petrópolis, Porto Alegre - RS, 90470-100, Brazil";218;"CONSULTORIO MEDICO";"R CARVALHO MONTEIRO, 234/806"
"-30.0290781";"-51.2266595";"street_address";"R. Mal. Floriano Peixoto, 38 - Centro Histórico, Porto Alegre - RS, 90020-060, Brazil";219;"SALAO DE BELEZA";"R MARECHAL FLORIANO PEIXOTO, 38/509"
"-30.0721662";"-51.1923706";"street_address";"R. Cel. Aparício Borges, 1583 - Glória, Porto Alegre - RS, 90680-570, Brazil";220;"SERVICO DE MASSAGEM (MASSAGISTAS, MASSAGEM ESTETI-CA, TERAPEUTICA";"AV CEL APARICIO BORGES, 1583"
"-30.0101321";"-51.1665764";"street_address";"Av. Carneiro da Fontoura, 206 - Jardim Sao Pedro, Porto Alegre - RS, 91040-170, Brazil";221;"SERVICO DE PODOLOGIA";"AV CARNEIRO DA FONTOURA, 206"
"-30.0178458";"-51.1991227";"street_address";"Av. Cristóvão Colombo, 2176 - Floresta, Porto Alegre - RS, 90560-002, Brazil";222;"CONSULTORIO DE PSICOLOGIA";"AV CRISTOVAO COLOMBO, 2176/406"
"-30.0427947";"-51.1964196";"establishment";"R. Vicente da Fontoura, 2199 - Santa Cecilia, Porto Alegre - RS, 90640-003, Brazil";223;"CONSULTORIO DE PSICOLOGIA";"R VICENTE DA FONTOURA, 2199/204"
"-30.0117499";"-51.1655676";"establishment";"Av. Assis Brasil, 2185 - Passo d'Areia, Porto Alegre - RS, Brazil";224;"SERVICO DE TATUAGEM";"AV ASSIS BRASIL, 2185/307"
"-30.0223194";"-51.2007992";"establishment";"R. Tobias da Silva, 120 - Conjunto 603 - Moinhos de Vento, Porto Alegre - RS, 90570-020, Brazil";225;"CONSULTORIO DE PSICOLOGIA";"R TOBIAS DA SILVA, 253/405"
"-30.055925";"-51.22498";"street_address";"Rua Mucio Teixeira, 1384 - Menino Deus, Porto Alegre - RS, 90150-090, Brazil";226;"SALAO DE BELEZA";"R MUCIO TEIXEIRA, 1384"
"-30.0277852";"-51.2300915";"street_address";"R. Siqueira Campos, 1184 - Centro, Porto Alegre - RS, 90010-001, Brazil";227;"ESCRITORIO ADMINISTRATIVO (SEDE ADMINISTRATIVA DE EMPRESA)";"R SIQUEIRA CAMPOS, 1184/902"
"-30.029678";"-51.2293383";"establishment";"R. dos Andradas, 1234 - Centro Histórico, Porto Alegre - RS, 90010-000, Brazil";228;"ESCRITORIO ADMINISTRATIVO (SEDE ADMINISTRATIVA DE EMPRESA)";"R ANDRADAS, 943/1011"
"-30.0270911";"-51.2295283";"street_address";"R. Uruguai, 35 - Centro Histórico, Porto Alegre - RS, 90010-140, Brazil";229;"ESCRITORIO DE CONTABILIDADE";"R URUGUAI, 35/129"
"-30.0351861";"-51.2056345";"street_address";"R. Miguel Tostes, 796 - Rio Branco, Porto Alegre - RS, 90930-060, Brazil";230;"GARAGEM E ESTACIONAMENTO PARA VEICULOS, EXCETO OS DE CARGA OU COLE";"R MIGUEL TOSTES, 796"
"-30.0361622";"-51.231774";"street_address";"R. Gen. Auto, 316 - Centro Histórico, Porto Alegre - RS, 90010-380, Brazil";231;"SALAO DE BELEZA";"R GEN AUTO, 316"
"-30.0825531";"-51.2401208";"street_address";"Av. Capivari, 800 - Cristal, Porto Alegre - RS, 90810-070, Brazil";232;"OFICINA DE REPARACAO E MANUTENCAO DE ELETRODOMES- TICOS";"AV CAPIVARI, 800"
"-30.0552796";"-51.1733766";"street_address";"Av. Ipiranga, 6690 - Jardim Botânico, Porto Alegre - RS, Brazil";233;"CONSULTORIO MEDICO";"AV IPIRANGA, 6690/814"
"-30.0552796";"-51.1733766";"street_address";"Av. Ipiranga, 6690 - Jardim Botânico, Porto Alegre - RS, Brazil";234;"CONSULTORIO MEDICO";"AV IPIRANGA, 6690/302"
"-30.029678";"-51.2293383";"establishment";"R. dos Andradas, 1234 - Centro Histórico, Porto Alegre - RS, 90010-000, Brazil";235;"CONSULTORIO MEDICO";"R ANDRADAS, 1727/64"
"-30.0328584";"-51.1779499";"street_address";"Av. Soledade, 569 - Petrópolis, Porto Alegre - RS, Brazil";236;"CONSULTORIO MEDICO";"AV SOLEDADE, 569/912"
"-30.0477333";"-51.2121215";"street_address";"Av. Ipiranga, 1801 - Azenha, Porto Alegre - RS, Brazil";237;"CONSULTORIO MEDICO";"AV IPIRANGA, 1801/31"
"-30.047403";"-51.223643";"street_address";"R. Dezessete de Junho, 579 - Menino Deus, Porto Alegre - RS, 90110-170, Brazil";238;"ESCRITORIO DE SERVICOS JURIDICOS";"R DEZESSETE DE JUNHO, 579"
"-30.0353607";"-51.2219994";"street_address";"Av. Loureiro da Silva, 2001 - Cidade Baixa, Porto Alegre - RS, 90050-240, Brazil";239;"ESCRITORIO ADMINISTRATIVO (SEDE ADMINISTRATIVA DE EMPRESA)";"AV LOUREIRO DA SILVA, 2001/615"
"-30.0353607";"-51.2219994";"street_address";"Av. Loureiro da Silva, 2001 - Cidade Baixa, Porto Alegre - RS, 90050-240, Brazil";240;"ESCRITORIO ADMINISTRATIVO (SEDE ADMINISTRATIVA DE EMPRESA)";"AV LOUREIRO DA SILVA, 2001/615"
"-30.0035881";"-51.138482";"street_address";"R. Dona Alzira, 725 - Sarandi, Porto Alegre - RS, Brazil";241;"ESCRITORIO ADMINISTRATIVO (SEDE ADMINISTRATIVA DE EMPRESA)";"R DONA ALZIRA, 725"
"-30.0583111";"-51.1953801";"premise";"R. Humberto de Campos, 19 - Partenon, Porto Alegre - RS, 90660-280, Brazil";242;"ESTUDIO FOTOGRAFICO";"R HUMBERTO DE CAMPOS, 19"
"-30.0847404";"-51.2149169";"premise";"Av. Nonoai, 31 - Nonoai, Porto Alegre - RS, 91720-000, Brazil";243;"CONSULTORIO MEDICO";"AV NONOAI, 31"
"-30.012251";"-51.203043";"street_address";"Av. Berlim, 19 - São Geraldo, Porto Alegre - RS, 90240-581, Brazil";244;"CHAVEIROS";"AV BERLIM, 19"
"-30.012237";"-51.203092";"street_address";"Av. Berlim, 5 - São Geraldo, Porto Alegre - RS, 90240-581, Brazil";245;"OFICINA DE CONFECCAO E CONSERTO DE FECHADURAS  E  CHAVES";"AV BERLIM, 5"
"-30.008475";"-51.203435";"street_address";"Av. Polônia, 530 - São Geraldo, Porto Alegre - RS, 90230-110, Brazil";246;"REPRESENTACAO COMERCIAL (INTERMEDIARIOS DE VENDAS DE MERCADORIAS A";"AV POLONIA, 530/504"
"-30.023543";"-51.2010282";"establishment";"Rua Olavo Barreto Viana, 36 - Moinhos de Vento, Porto Alegre - RS, 90690-300, Brazil";247;"SERVICO DE MASSAGEM (MASSAGISTAS, MASSAGEM ESTETI-CA, TERAPEUTICA";"R OLAVO BARRETO VIANA, 36/124"
"-30.038224";"-51.179667";"street_address";"Av. Palmeira, 330 - Petrópolis, Porto Alegre - RS, 90470-300, Brazil";248;"INSTALACOES ELETRICAS";"AV PALMEIRA, 330/802"
"-30.155708";"-51.142438";"street_address";"Estrada João Antônio da Silveira, 1837 - Restinga, Porto Alegre - RS, 91790-400, Brazil";249;"ESCRITORIO DE PROMOCOES";"ESTR JOAO ANTONIO SILVEIRA, 1837/204"
"-30.030476";"-51.226284";"establishment";"Ed. Fleming - R. Gen. Vitorino, 53 - sala 31 - Centro Histórico, Porto Alegre - RS, 90020-170, Brazil";250;"ESCRITORIO ADMINISTRATIVO (SEDE ADMINISTRATIVA DE EMPRESA)";"R GEN VITORINO, 239"
"-30.0338326";"-51.1777811";"street_address";"Av. Carlos Gomes, 1492 - Auxiliadora, Porto Alegre - RS, 90480-001, Brazil";251;"ESCRITORIO DE PARTICIPACAO EM OUTRAS EMPRESAS     MEDIANTE COMPRA/";"AV CARLOS GOMES, 1492/1002"
"-29.97104";"-51.1710489";"street_address";"Av. Jaime Vignoli, 1063 - Anchieta, Porto Alegre - RS, 90200-110, Brazil";252;"REPRESENTACAO COMERCIAL (INTERMEDIARIOS DE VENDAS DE MERCADORIAS A";"AV JAIME VIGNOLI, 1063"
"-30.1134016";"-51.2553682";"street_address";"Av. Wenceslau Escobar, 2857 - Tristeza, Porto Alegre - RS, Brazil";253;"GARAGEM E ESTACIONAMENTO PARA VEICULOS, EXCETO OS DE CARGA OU COLE";"AV WENCESLAU ESCOBAR, 2857"
"-30.0298307";"-51.2010709";"premise";"Av. Goethe, 20 - Rio Branco, Porto Alegre - RS, 90430-100, Brazil";254;"GARAGEM E ESTACIONAMENTO PARA VEICULOS, EXCETO OS DE CARGA OU COLE";"AV GOETHE, 20"
"-30.0214112";"-51.1854606";"street_address";"Av. Augusto Meyer, 163 - Auxiliadora, Porto Alegre - RS, 90550-110, Brazil";255;"ESCRITORIO DE FINANCAS";"AV AUGUSTO MEYER, 163/901"
"-29.9872662";"-51.1993325";"street_address";"R. Frederico Mentz, 555 - Navegantes, Porto Alegre - RS, 90240-111, Brazil";256;"BORRACHARIA/VULCANIZADORA";"R FREDERICO MENTZ, 555/2"
"-30.010478";"-51.183252";"street_address";"R. Portugal, 218 - São João, Porto Alegre - RS, 90520-310, Brazil";257;"OFICINA DE ASSISTENCIA TECNICA";"R PORTUGAL, 218"
"-30.0490928";"-51.2150089";"street_address";"Rua Walter Spalding, 110 - Azenha, Porto Alegre - RS, 90040-410, Brazil";258;"REPRESENTACAO COMERCIAL (INTERMEDIARIOS DE VENDAS DE MERCADORIAS A";"R WALTER SPALDING, 110/19"
"-29.9996561";"-51.2050762";"premise";"R. Comendador Taváres, 94 - Navegantes, Porto Alegre - RS, 90230-020, Brazil";259;"ESCRITORIO DE INCORPORACOES E LOTEAMENTOS";"R COMENDADOR TAVARES, 94"
"-30.0532598";"-51.2142749";"street_address";"Av. da Azenha, 1067 - Azenha, Porto Alegre - RS, 90160-006, Brazil";260;"CYBER CAFE";"AV AZENHA, 1067/50"
"-30.0254236";"-51.1831659";"street_address";"Av. Carlos Gomes, 403 - Auxiliadora, Porto Alegre - RS, Brazil";261;"ESCRITORIO ADMINISTRATIVO (SEDE ADMINISTRATIVA DE EMPRESA)";"AV CARLOS GOMES, 403/907"
"-30.0341534";"-51.2125749";"street_address";"Rua General João Telles, 524 - Bom Fim, Porto Alegre - RS, 90035-120, Brazil";262;"REPRESENTACAO COMERCIAL (INTERMEDIARIOS DE VENDAS DE MERCADORIAS A";"R GEN JOAO TELLES, 524/601"
"-30.0596675";"-51.22763";"street_address";"R. José de Alencar, 402 - Menino Deus, Porto Alegre - RS, 90880-481, Brazil";263;"ESCRITORIO ADMINISTRATIVO (SEDE ADMINISTRATIVA DE EMPRESA)";"R JOSE DE ALENCAR, 402"
"-30.0224716";"-51.1960695";"street_address";"R. Xavier Ferreira, 21 - Auxiliadora, Porto Alegre - RS, 90540-160, Brazil";264;"ESCRITORIO DE ARQUITETURA";"R XAVIER FERREIRA, 21/401"
"-30.0370272";"-51.208665";"establishment";"Av. Osvaldo Aranha, 1423 - Bom Fim, Porto Alegre - RS, Brazil";265;"EMPREITEIRA DA CONSTRUCAO CIVIL";"AV OSVALDO ARANHA, 1423/205"
"-30.1591569";"-51.1813693";"route";"Rua Baldoíno Bottini - Campo Novo, Porto Alegre - RS, Brazil";266;"IMOBILIARIA";"R BALDOINO BOTTINI, 50"
"-30.0784072";"-51.2098335";"street_address";"Av. Teresópolis, 2893 - Teresópolis, Porto Alegre - RS, 90870-001, Brazil";267;"SALAO DE BELEZA";"AV TERESOPOLIS, 2893/13"
"-30.029678";"-51.2293383";"establishment";"R. dos Andradas, 1234 - Centro Histórico, Porto Alegre - RS, 90010-000, Brazil";268;"CLINICA DE FISIOTERAPIA SEM CALDEIRA";"R ANDRADAS, 1727/72"
"-30.0514216";"-51.2099103";"street_address";"Tv. Pedro Modesto Rampi, 18 - Azenha, Porto Alegre - RS, 90650-060, Brazil";269;"ESCRITORIO ADMINISTRATIVO (SEDE ADMINISTRATIVA DE EMPRESA)";"R PEDRO MODESTO RAMPI, 18/602"
"-30.1140262";"-51.2551327";"street_address";"Av. Wenceslau Escobar, 2923 - Tristeza, Porto Alegre - RS, Brazil";270;"ESCRITORIO ADMINISTRATIVO (SEDE ADMINISTRATIVA DE EMPRESA)";"AV WENCESLAU ESCOBAR, 2923/311"
"-30.090776";"-51.228687";"street_address";"R. João Maia, 315 - Nonoai, Porto Alegre - RS, 90830-310, Brazil";271;"ESCRITORIO DE INCORPORACOES E LOTEAMENTOS";"R JOAO MAIA, 315"
"-30.0274557";"-51.2226183";"street_address";"R. Pinto Bandeira, 357 - Centro Histórico, Porto Alegre - RS, 90030-150, Brazil";272;"CLINICA DE FONOAUDIOLOGIA";"R PINTO BANDEIRA, 357/63"
"-30.0071268";"-51.1863596";"street_address";"Av. Benjamin Constant, 19 - São João, Porto Alegre - RS, Brazil";273;"FOTOCOPIAS, COPIAS HELIOGRAFICAS E PLASTIFICACAO";"AV BENJAMIN CONSTANT, 19/16"
"-30.020353";"-51.198534";"establishment";"R. Quintino Bocaiúva, 267 - Moinhos de Vento, Porto Alegre - RS, 90440-050, Brazil";274;"ESCRITORIO DE ARQUITETURA";"R QUINTINO BOCAIUVA, 996"
"-30.020674";"-51.1208335";"route";"R. Leonardo Pellegrini - Passo das Pedras, Porto Alegre - RS, Brazil";275;"SERVIO DE GUINCHO COM DEPOSITO";"R LEONARDO PELLEGRINI, 192"
"-30.0024054";"-51.1987005";"premise";"R. Dr. João Inácio, 769 - Navegantes, Porto Alegre - RS, 90230-181, Brazil";276;"GARAGEM E ESTACIONAMENTO PARA VEICULOS, EXCETO OS DE CARGA OU COLE";"R DR JOAO INACIO, 769"
"-30.0294491";"-51.1816327";"street_address";"Av. Dr. Nilo Peçanha, 724 - Petrópolis, Porto Alegre - RS, 91330-002, Brazil";277;"ESCRITORIO ADMINISTRATIVO (SEDE ADMINISTRATIVA DE EMPRESA)";"AV DR NILO PECANHA, 724/502"
"-30.0289097";"-51.1817309";"street_address";"Av. Carlos Gomes, 777 - Bela Vista, Porto Alegre - RS, 91430-350, Brazil";278;"ESCRITORIO DE INCORPORACOES E LOTEAMENTOS";"AV CARLOS GOMES, 777/305"
"-30.0062751";"-51.1802521";"establishment";"Av. Brino, 241 - Santa Maria Goretti, Porto Alegre - RS, 91030-280, Brazil";279;"OFICINA DE TROCA E COLOCACAO DE SURDINAS, MOLAS,  AMORTECEDORES E";"AV BRINO, 235"
"-30.0123618";"-51.1983953";"street_address";"Av. Amazonas, 1095 - São Geraldo, Porto Alegre - RS, 90240-542, Brazil";280;"ESCRITORIO DE IMPORTACAO E EXPORTACAO";"AV AMAZONAS, 1095"
"-30.0449285";"-51.2234013";"street_address";"Rua Mucio Teixeira, 50 - Menino Deus, Porto Alegre - RS, 90050-360, Brazil";281;"REPRESENTACAO COMERCIAL (INTERMEDIARIOS DE VENDAS DE MERCADORIAS A";"R MUCIO TEIXEIRA, 50"
"-30.0251439";"-51.2227353";"establishment";"Av. Júlio de Castilhos, 435 - Centro, Porto Alegre - RS, 90030-131, Brazil";282;"SERVICO DE SOFTWARE E HARDWARE";"AV JULIO DE CASTILHOS, 19/6"
"-30.087113";"-51.216386";"street_address";"Av. Nonoai, 315 - Nonoai, Porto Alegre - RS, 91720-000, Brazil";283;"ESCRITORIO DE IMPORTACAO E EXPORTACAO";"AV NONOAI, 315/2"
"-30.0234498";"-51.2147549";"premise";"R. Comendador Coruja, 131 - Floresta, Porto Alegre - RS, 90220-180, Brazil";284;"GARAGEM E ESTACIONAMENTO PARA VEICULOS, EXCETO OS DE CARGA OU COLE";"R COMENDADOR CORUJA, 131"
"-30.0479548";"-51.1875649";"street_address";"R. Riveira, 542 - Petrópolis, Porto Alegre - RS, 90670-160, Brazil";285;"SALAO DE BELEZA";"R RIVEIRA, 542"
"-30.0108373";"-51.1537648";"street_address";"Av. Assis Brasil, 3301 - Jardim Lindoia, Porto Alegre - RS, 91010-007, Brazil";286;"OFICINA DE LAVAGEM E LUBRIFICACAO";"AV ASSIS BRASIL, 3301"
"-30.0298722";"-51.2256283";"establishment";"R. dos Andradas, 1593 - Centro Histórico, Porto Alegre - RS, 90010-140, Brazil";287;"GARAGEM E ESTACIONAMENTO PARA VEICULOS, EXCETO OS DE CARGA OU COLE";"R ANDRADAS, 659"
"-30.0238924";"-51.1911085";"premise";"Rua Eudoro Berlink, 646 - Auxiliadora, Porto Alegre - RS, 90450-030, Brazil";288;"GARAGEM E ESTACIONAMENTO PARA VEICULOS, EXCETO OS DE CARGA OU COLE";"R EUDORO BERLINK, 646"
"-30.0233604";"-51.1927545";"premise";"R. Felipe Neri, 287 - Auxiliadora, Porto Alegre - RS, 90440-150, Brazil";289;"GARAGEM E ESTACIONAMENTO PARA VEICULOS, EXCETO OS DE CARGA OU COLE";"R FELIPE NERI, 287"
"-30.0648577";"-51.1810517";"street_address";"Av. Bento Gonçalves, 3461 - Partenon, Porto Alegre - RS, 90650-002, Brazil";290;"OFICINA DE TROCA E COLOCACAO DE SURDINAS, MOLAS,  AMORTECEDORES E";"AV BENTO GONCALVES, 3461"
"-30.0190542";"-51.2037014";"premise";"Rua Visconde do Rio Branco, 721 - Moinhos de Vento, Porto Alegre - RS, 90220-231, Brazil";291;"DECORACAO DE FESTAS";"R VISCONDE DO RIO BRANCO, 721"
"-30.0643389";"-51.187091";"route";"R. Eleutério Araújo - Partenon, Porto Alegre - RS, 90680-410, Brazil";292;"REPRESENTACAO COMERCIAL (INTERMEDIARIOS DE VENDAS DE MERCADORIAS A";"R ELEUTHERIO ARAUJO, 14/104"
"-30.0170876";"-51.1522002";"street_address";"Av. do Forte, 732 - Vila Ipiranga, Porto Alegre - RS, 91360-001, Brazil";293;"FOTOCOPIAS, COPIAS HELIOGRAFICAS E PLASTIFICACAO";"AV FORTE, 732"
"-30.0551418";"-51.1637686";"street_address";"Av. Ipiranga, 7464 - Jardim do Salso, Porto Alegre - RS, Brazil";294;"ESCRITORIO DE ARQUITETURA";"AV IPIRANGA, 7464/415"
"-30.0101116";"-51.1539477";"street_address";"Av. Assis Brasil, 3316 - Jardim Lindoia, Porto Alegre - RS, 91010-004, Brazil";295;"EDITORACAO GRAFICA, EDICAO E IMPRESSAO DE OUTROS  PRODUTOS GRAFICO";"AV ASSIS BRASIL, 3316/601"
"-30.1054011";"-51.2401334";"street_address";"Av. Otto Niemeyer, 1911 - Tristeza, Porto Alegre - RS, 91910-001, Brazil";296;"OFICINA DE LAVAGEM E LUBRIFICACAO";"AV OTTO NIEMEYER, 1911"
"-30.0133703";"-51.1678229";"street_address";"Av. Andaraí, 157 - Passo d'Areia, Porto Alegre - RS, 91350-110, Brazil";297;"CLINICA MEDICA S/CIRURGIA S/CALDEIRA";"R ANDARAI, 157/203"
"-30.0346471";"-51.2176584";"locality";"Porto Alegre, RS, Brazil";298;"INSTITUICAO DE EDUCACAO INFANTIL (CRECHE)";"AC TRES QB QUARTA UV VL N RESTINGA, 4256"
"-30.0302561";"-51.2038247";"street_address";"R. Mariante, 288 - Rio Branco, Porto Alegre - RS, 90430-180, Brazil";299;"ESCRITORIO DE SERVICOS DE CONSULTORIA";"R MARIANTE, 288/902"
"-30.015772";"-51.209735";"street_address";"R. Alm. Barroso, 251 - Floresta, Porto Alegre - RS, 90220-021, Brazil";300;"INSTALACOES ELETRICAS";"R ALMIRANTE BARROSO, 251"
"-30.0033531";"-51.1988443";"street_address";"Av. Pernambuco, 1197 - Navegantes, Porto Alegre - RS, 90240-001, Brazil";301;"OFICINA DE ASSISTENCIA TECNICA";"AV PERNAMBUCO, 1197/301"
"-30.010333";"-51.205241";"street_address";"Av. São Paulo, 859 - São Geraldo, Porto Alegre - RS, 90230-160, Brazil";302;"ESCRITORIO DE PROMOCOES";"AV SAO PAULO, 859/301"
"-30.0299874";"-51.2040364";"street_address";"R. Mariante, 284 - Rio Branco, Porto Alegre - RS, 90430-180, Brazil";303;"SALAO DE BELEZA";"R MARIANTE, 284/1"
"-30.0426332";"-51.1867929";"street_address";"Av. Taquara, 154 - Petrópolis, Porto Alegre - RS, 90460-210, Brazil";304;"CONSULTORIO DE FISIOTERAPIA";"AV TAQUARA, 154/404"
"-30.042931";"-51.187243";"street_address";"Av. Taquara, 98 - Petrópolis, Porto Alegre - RS, 90460-210, Brazil";305;"CONSULTORIO DE FISIOTERAPIA";"AV TAQUARA, 98/403"
"-30.0304216";"-51.2288667";"street_address";"R. Gen. Andrade Neves, 100 - Centro Histórico, Porto Alegre - RS, Brazil";306;"ESCRITORIO DE PUBLICIDADE E PROPAGANDA";"R GEN ANDRADE NEVES, 100/403"
"-30.030913";"-51.1809697";"street_address";"Av. Carlos Gomes, 1001 - Petrópolis, Porto Alegre - RS, 90470-100, Brazil";307;"ESCRITORIO ADMINISTRATIVO (SEDE ADMINISTRATIVA DE EMPRESA)";"AV CARLOS GOMES, 1001/704"
"-30.0477627";"-51.1719877";"street_address";"R. Aneron Corrêa de Oliveira, 45 - Jardim do Salso, Porto Alegre - RS, 91410-070, Brazil";308;"CONSULTORIO DE FISIOTERAPIA";"R ANERON CORREA DE OLIVEIRA, 45"
"-30.0232957";"-51.1610041";"street_address";"R. Antônio Carlos Berta, 475 - Passo d'Areia, Porto Alegre - RS, 91340-020, Brazil";309;"SERVICO DE ASSESSORIA, CONSULTORIA, PESQUISA, ANA-LISE E PROMOCOES";"R ANTONIO CARLOS BERTA, 475/410"
"-30.0218011";"-51.1905274";"street_address";"Av. Plínio Brasil Milano, 52 - Auxiliadora, Porto Alegre - RS, 90520-000, Brazil";310;"ESCRITORIO DE CORRETAGEM DE IMOVEIS";"AV PLINIO BRASIL MILANO, 52"
"-30.024132";"-51.222011";"establishment";"Av. Júlio de Castilhos, 516 - Centro Histórico, Porto Alegre - RS, 90030-130, Brazil";311;"REPRESENTACAO COMERCIAL (INTERMEDIARIOS DE VENDAS DE MERCADORIAS A";"AV JULIO DE CASTILHOS, 380"
"-30.0172907";"-51.1893105";"street_address";"Av. Cristóvão Colombo, 3084 - Higienópolis, Porto Alegre - RS, Brazil";312;"ESCRITORIO ADMINISTRATIVO (SEDE ADMINISTRATIVA DE EMPRESA)";"AV CRISTOVAO COLOMBO, 3084/904"
"-30.0586169";"-51.2297356";"street_address";"Av. Praia de Belas, 2266 - Menino Deus, Porto Alegre - RS, 90110-000, Brazil";313;"CLINICA MEDICA S/PROCEDIMENTO INVASIVO S/CALDEIRA";"AV PRAIA DE BELAS, 2266/801"
"-30.0651151";"-51.229857";"street_address";"R. Silveiro, 597 - Menino Deus, Porto Alegre - RS, Brazil";314;"ESCRITORIO DE SERVICOS JURIDICOS";"R SILVEIRO, 597"
"-30.023646";"-51.1841286";"street_address";"Av. Carlos Gomes, 141 - Auxiliadora, Porto Alegre - RS, 90480-003, Brazil";315;"ESCRITORIO DE SERVICOS JURIDICOS";"AV CARLOS GOMES, 141/708"
"-30.0270224";"-51.1814974";"street_address";"Rua Furriel Luíz Antônio de Vargas, 374 - Bela Vista, Porto Alegre - RS, 90470-130, Brazil";316;"REPRESENTACAO COMERCIAL (INTERMEDIARIOS DE VENDAS DE MERCADORIAS A";"R FURRIEL LUIZ ANTONIO DE VARGAS, 374/7"
"-30.0013444";"-51.1450281";"street_address";"R. Dr. Alberto Albertini, 287 - São Sebastião, Porto Alegre - RS, 91060-280, Brazil";317;"REPRESENTACAO COMERCIAL (INTERMEDIARIOS DE VENDAS DE MERCADORIAS A";"R DR ALBERTO ALBERTINI, 287"
"-30.074664";"-51.193857";"bus_station";"Coronel Aparício Borges, Porto Alegre - RS, 91710-010, Brazil";318;"ESTUDIO DE EDICAO E GRAVACAO DE FITAS DE VIDEO CASSETE E CD DE FES";"R INTENDENTE ALFREDO AZEVEDO, 750"
"-30.030476";"-51.226284";"establishment";"Ed. Fleming - R. Gen. Vitorino, 53 - sala 31 - Centro Histórico, Porto Alegre - RS, 90020-170, Brazil";319;"ESCRITORIO DE CORRETAGEM DE SEGUROS";"R GEN VITORINO, 180/1"
"-30.03071";"-51.2318383";"street_address";"R. dos Andradas, 1273 - Centro Histórico, Porto Alegre - RS, Brazil";320;"AGENCIA DE VIAGENS E TURISMO";"R ANDRADAS, 1273/1001"
"-30.006625";"-51.1916929";"street_address";"Rua Pereira Franco, 62 - São João, Porto Alegre - RS, Brazil";321;"ESCRITORIO DE CORRETAGEM DE VEICULOS";"R PEREIRA FRANCO, 62"
"-30.0328584";"-51.1779499";"street_address";"Av. Soledade, 569 - Petrópolis, Porto Alegre - RS, Brazil";322;"CLINICA MEDICA SEM CALDEIRA";"AV SOLEDADE, 569/1101"
"-30.0414594";"-51.1776507";"street_address";"Av. Protásio Alves, 3161 - Petrópolis, Porto Alegre - RS, Brazil";323;"CONSULTORIO MEDICO";"AV PROTASIO ALVES, 3161/506"
"-30.0328584";"-51.1779499";"street_address";"Av. Soledade, 569 - Petrópolis, Porto Alegre - RS, Brazil";324;"CONSULTORIO MEDICO";"AV SOLEDADE, 569/1006"
"-30.0072392";"-51.129279";"street_address";"Av. Eng. Francisco Rodolfo Simch, 653 - Sarandi, Porto Alegre - RS, Brazil";325;"OFICINA DE REPARACAO DE APARELHOS ELETRONICOS";"AV ENG FRANCISCO RODOLFO SIMCH, 653"
"-30.0443841";"-51.225161";"street_address";"R. Barão do Gravataí, 396 - Menino Deus, Porto Alegre - RS, 90050-330, Brazil";326;"REPRESENTACAO COMERCIAL (INTERMEDIARIOS DE VENDAS DE MERCADORIAS A";"R BARAO DO GRAVATAI, 396"
"-30.006109";"-51.157472";"street_address";"Rua Fernando Abbott, 39 - Cristo Redentor, Porto Alegre - RS, 91040-360, Brazil";327;"OFICINA DE REPARACAO DE INSTALACOES ELETRICAS,HI- DRAULICAS E DE G";"R FERNANDO ABBOTT, 39"
"-30.0268488";"-51.2247461";"street_address";"R. Voluntários da Pátria, 188 - Centro Histórico, Porto Alegre - RS, Brazil";328;"OFICINA DE REPARACAO DE JOIAS E RELOGIOS";"R VOLUNTARIOS DA PATRIA, 188/312"
"-29.9963677";"-51.1304355";"street_address";"Av. Assis Brasil, 6203 - Sarandi, Porto Alegre - RS, 91010-004, Brazil";329;"PROCESSAMENTO DE DADOS";"AV ASSIS BRASIL, 6203/508"
"-30.0090476";"-51.2014375";"street_address";"Av. Polônia, 730 - São Geraldo, Porto Alegre - RS, 90230-110, Brazil";330;"ESCRITORIO DE CORRETAGEM DE SEGUROS";"AV POLONIA, 730/303"
"-30.0135023";"-51.1937582";"street_address";"Av. São Pedro, 1580 - São Geraldo, Porto Alegre - RS, 90230-124, Brazil";331;"REPRESENTACAO COMERCIAL (INTERMEDIARIOS DE VENDAS DE MERCADORIAS A";"AV SAO PEDRO, 1580"
"-30.058258";"-51.2292359";"doctor";"R. Costa, 30 - Menino Deus, Porto Alegre - RS, 90110-270, Brazil";332;"CLINICA MEDICA SEM CALDEIRA";"R COSTA, 30/604"
"-30.0258969";"-51.2135066";"premise";"Av. Cristóvão Colombo, 446 - Floresta, Porto Alegre - RS, 90560-000, Brazil";333;"ESCRITORIO DE SERVICOS DE ASSESSORIA";"AV CRISTOVAO COLOMBO, 446"
"-30.0223929";"-51.2080526";"street_address";"Rua Dr. Vale, 60 - Floresta, Porto Alegre - RS, 90560-010, Brazil";334;"ESCRITORIO DE SERVICOS JURIDICOS";"R DR VALE, 60/403"
"-30.0161813";"-51.1501332";"street_address";"R. Alberto Silva, 610 - Vila Ipiranga, Porto Alegre - RS, 91370-001, Brazil";335;"LOCACAO DE MAO-DE-OBRA";"R ALBERTO SILVA, 610"
"-30.0025804";"-51.1541792";"street_address";"R. Paulo Bento Lobato, 368 - Jardim Lindoia, Porto Alegre - RS, 91050-060, Brazil";336;"ESCRITORIO ADMINISTRATIVO (SEDE ADMINISTRATIVA DE EMPRESA)";"R PAULO BENTO LOBATO, 368"
"-29.9955711";"-51.1307326";"street_address";"Av. Assis Brasil, 6302 - Sarandi, Porto Alegre - RS, Brazil";337;"ESCRITORIO DE VENDAS (PRODUTOS PROPRIOS SEM INTERMDIACAO DE TERCEI";"AV ASSIS BRASIL, 6302/301"
"-30.0222838";"-51.111113";"route";"R. Lêdo Guimarães Mariante - Rubem Berta, Porto Alegre - RS, 91250-190, Brazil";338;"ATELIER DE COSTURA,BORDADO E TRICOT";"R LEDO GUIMARAES MARIANTE, 200"
"-30.0281551";"-51.1811297";"street_address";"Alameda Coelho Neto, 20 - Boa Vista, Porto Alegre - RS, 91340-340, Brazil";339;"REPRESENTACAO COMERCIAL (INTERMEDIARIOS DE VENDAS DE MERCADORIAS A";"AL COELHO NETO, 20/210"
"-30.050954";"-51.1877896";"street_address";"R. Itaboraí, 570 - Jardim Botânico, Porto Alegre - RS, 90670-030, Brazil";340;"SALAO DE BELEZA";"R ITABORAI, 570"
"-30.0130369";"-51.2084449";"street_address";"R. do Parque, 243 - São Geraldo, Porto Alegre - RS, 90230-200, Brazil";341;"ESCRITORIO ADMINISTRATIVO (SEDE ADMINISTRATIVA DE EMPRESA)";"R PARQUE, 243"
"-30.1077306";"-51.2535685";"street_address";"Av. Wenceslau Escobar, 2200 - Vila Conceição, Porto Alegre - RS, 91900-001, Brazil";342;"SALAO DE BELEZA";"AV WENCESLAU ESCOBAR, 2200"
"-30.0341534";"-51.2125749";"street_address";"Rua General João Telles, 524 - Bom Fim, Porto Alegre - RS, 90035-120, Brazil";343;"OFICINA DE ASSISTENCIA TECNICA";"R GEN JOAO TELLES, 524/803"
"-30.0343654";"-51.1768842";"establishment";"Av. Luiz Manoel Gonzaga, 351 - Petrópolis, Porto Alegre - RS, 90470-280, Brazil";344;"REPRESENTACAO COMERCIAL (INTERMEDIARIOS DE VENDAS DE MERCADORIAS A";"AV LUIZ MANOEL GONZAGA, 351/201"
"-30.0252401";"-51.2018191";"street_address";"R. 24 de Outubro, 642 - Moinhos de Vento, Porto Alegre - RS, 90510-002, Brazil";345;"SALAO DE BELEZA";"R VINTE QUATRO DE OUTUBRO, 642/2"
"-30.0302135";"-51.2256997";"street_address";"R. Vig. José Inácio, 508 - Centro Histórico, Porto Alegre - RS, 90020-100, Brazil";346;"ESCRITORIO DE COBRANCA E AJUSTE DE CONTAS";"R VIGARIO JOSE IGNACIO, 508/227"
"-30.0458042";"-51.2059574";"street_address";"R. São Luís, 279 - Santana, Porto Alegre - RS, 90620-170, Brazil";347;"SALAO DE BELEZA";"R SAO LUIZ, 279"
"-30.0285247";"-51.2277714";"street_address";"Praça Quinze de Novembro, 21 - Centro Histórico, Porto Alegre - RS, 90020-080, Brazil";348;"ESCRITORIO ADMINISTRATIVO (SEDE ADMINISTRATIVA DE EMPRESA)";"PCA QUINZE DE NOVEMBRO, 21/1201"
"-30.072768";"-51.199814";"street_address";"R. Pedro Boticário, 462 - Glória, Porto Alegre - RS, 90660-070, Brazil";349;"REPRESENTACAO COMERCIAL (INTERMEDIARIOS DE VENDAS DE MERCADORIAS A";"R PEDRO BOTICARIO, 462"
"-30.0291938";"-51.2011878";"street_address";"Av. Goethe, 21 - PARCÃO, Porto Alegre - RS, 90430-100, Brazil";350;"AGENCIA DE VIAGENS E TURISMO";"AV GOETHE, 21/903"
"-30.0232086";"-51.1516207";"street_address";"Av. do Forte, 1407 - Vila Ipiranga, Porto Alegre - RS, Brazil";351;"SALAO DE BELEZA PARA ANIMAIS";"AV FORTE, 1407"
"-30.0463212";"-51.1702831";"premise";"R. Palestina, 161 - Bom Jesus, Porto Alegre - RS, 91420-520, Brazil";352;"OFICINA DE ASSISTENCIA TECNICA";"R PALESTINA, 161"
"-30.007358";"-51.14804";"street_address";"Av. João XXIII, 76 - São Sebastião, Porto Alegre - RS, 91060-100, Brazil";353;"REPRESENTACAO COMERCIAL (INTERMEDIARIOS DE VENDAS DE MERCADORIAS A";"AV JOAO XXIII, 76"
"-30.0428272";"-51.1890768";"street_address";"Av. Protásio Alves, 1970 - Alto Petrópolis, Porto Alegre - RS, Brazil";354;"INSTALACAO DE PORTAS, JANELAS, TETOS, DIVISORIAS EARMARIOS EMBUTID";"AV PROTASIO ALVES, 1970"
"-30.012653";"-51.184303";"street_address";"R. Luzitana, 483 - Higienópolis, Porto Alegre - RS, 90520-080, Brazil";355;"INSTITUICAO DE EDUCACAO INFANTIL (CRECHE)";"R LUZITANA, 483"
"-30.0326852";"-51.2286432";"street_address";"R. Jerônimo Coelho, 85 - Centro Histórico, Porto Alegre - RS, 90010-240, Brazil";356;"ESCRITORIO DE PARTICIPACAO EM OUTRAS EMPRESAS     MEDIANTE COMPRA/";"R JERONIMO COELHO, 85/108"
"-30.0116452";"-51.1986038";"street_address";"Av. São Pedro, 1082 - São Geraldo, Porto Alegre - RS, 90230-122, Brazil";357;"ESCRITORIO ADMINISTRATIVO (SEDE ADMINISTRATIVA DE EMPRESA)";"AV SAO PEDRO, 1082/301"
"-30.039517";"-51.162032";"street_address";"Av. Protásio Alves, 4936 - Centro, Porto Alegre - RS, 91310-002, Brazil";358;"ESCRITORIO ADMINISTRATIVO (SEDE ADMINISTRATIVA DE EMPRESA)";"AV PROTASIO ALVES, 4936"
"-30.0390393";"-51.1955027";"street_address";"R. Vicente da Fontoura, 2621 - Rio Branco, Porto Alegre - RS, 90640-002, Brazil";359;"ESCRITORIO DE CORRETAGEM DE VEICULOS";"R VICENTE DA FONTOURA, 2621"
"-30.0267409";"-51.2190961";"street_address";"Av. Farrapos, 31 - Floresta, Porto Alegre - RS, 90220-004, Brazil";360;"HOTEIS";"AV FARRAPOS, 31"
"-30.0401645";"-51.2119226";"premise";"R. Olavo Bilac, 805 - Azenha, Porto Alegre - RS, 90040-310, Brazil";361;"ESCRITORIO DE INCORPORACOES E LOTEAMENTOS";"R OLAVO BILAC, 805"
"-30.0223194";"-51.2007992";"establishment";"R. Tobias da Silva, 120 - Conjunto 603 - Moinhos de Vento, Porto Alegre - RS, 90570-020, Brazil";362;"ESCRITORIO DE PUBLICIDADE E PROPAGANDA";"R TOBIAS DA SILVA, 22/702"
"-30.0863415";"-51.2390031";"street_address";"R. Butuí, 144/302 - Cristal, Porto Alegre - RS, 90820-150, Brazil";363;"REPRESENTACAO COMERCIAL (INTERMEDIARIOS DE VENDAS DE MERCADORIAS A";"R BUTUI, 144/302"
"-30.0382876";"-51.1761657";"premise";"Iguaçu 525/Centro Profissional Carlos Canozzi - Av. Iguaçu, 525 - Petrópolis, Porto Alegre - RS, 90470-430, Brazil";364;"SERVICO DE ENGENHARIA, ARQUITETURA, URBANISMO, PAISAGISMO, AGRONOM";"AV IGUASSU, 525/303"
"-29.9807704";"-51.1780755";"street_address";"Av. dos Estados, 1909 - São João, Porto Alegre - RS, 90200-001, Brazil";365;"LOCACAO DE BENS MOVEIS (FITAS,DISCOS/EQUIP. DE SOM";"AV ESTADOS, 1909"
"-30.0183657";"-51.2003687";"street_address";"R. Dr. Timóteo, 371 - Floresta, Porto Alegre - RS, 90570-041, Brazil";366;"CONSULTORIO DE PSICOLOGIA";"R DR TIMOTEO, 371/307"
"-30.0279797";"-51.2244282";"street_address";"Rua Doutor Flores, 98 - Centro, Porto Alegre - RS, 90020-120, Brazil";367;"ESCRITORIO DE SERVICOS JURIDICOS";"R DR FLORES, 98/22"
"-30.0291962";"-51.208667";"establishment";"Av. Independência, 1211 - Moinho de Vento, Porto Alegre - RS, 90035-077, Brazil";368;"CONSULTORIO MEDICO";"AV INDEPENDENCIA, 1211/201"
"-30.0264238";"-51.222395";"establishment";"Praça Osvaldo Cruz, 15 - Centro Histórico, Porto Alegre - RS, 90010-130, Brazil";369;"CONSULTORIO DE TERAPIAS ALTERNATIVAS";"PCA OSVALDO CRUZ, 15/1909"
"-30.0434695";"-51.1895277";"street_address";"R. Prof. Langendonck, 57 - Petrópolis, Porto Alegre - RS, 90630-060, Brazil";370;"CONSULTORIO DE PSICOLOGIA";"R PROF LANGENDONCK, 57/501"
"-30.0449758";"-51.1622525";"street_address";"R. Cel. Antenor Amorim, 21 - Bom Jesus, Porto Alegre - RS, 91420-390, Brazil";371;"SALAO DE BELEZA";"R CEL ANTENOR AMORIM, 21"
"-30.017982";"-51.1911853";"street_address";"Av. Cristóvão Colombo, 2937 - Floresta, Porto Alegre - RS, Brazil";372;"CONSULTORIO DE PSICOLOGIA";"AV CRISTOVAO COLOMBO, 2937/203"
"-30.0113429";"-51.1677792";"street_address";"R. Cristóvão Pereira, 50 - Passo d'Areia, Porto Alegre - RS, 91030-400, Brazil";373;"CLINICA DE FONOAUDIOLOGIA";"R CRISTOVAO PEREIRA, 50/304"
"-30.020924";"-51.1832951";"street_address";"Praça Alberto Ramos, 806 - Higienópolis, Porto Alegre - RS, 90520-050, Brazil";374;"SALAO DE BELEZA";"PCA ALBERTO RAMOS, 806"
"-30.1011618";"-51.2313807";"street_address";"Av. da Cavalhada, 2827 - Cavalhada, Porto Alegre - RS, 91740-001, Brazil";375;"CONSULTORIO MEDICO";"AV CAVALHADA, 2827"
"-29.993288";"-51.094962";"street_address";"R. dos Maias, 890 - Rubem Berta, Porto Alegre - RS, 91170-200, Brazil";376;"SALAO DE BELEZA";"R MAIAS, 890"
"-30.072491";"-51.2029305";"premise";"R. Prof. Oscar Pereira, 2502 - Glória, Porto Alegre - RS, 90660-080, Brazil";377;"SALAO DE BELEZA PARA ANIMAIS";"AV PROF OSCAR PEREIRA, 2502"
"-30.028389";"-51.2062381";"street_address";"R. 24 de Outubro, 111 - Independência, Porto Alegre - RS, 90510-002, Brazil";378;"CONSULTORIO MEDICO";"R VINTE QUATRO DE OUTUBRO, 111/806"
"-30.0188137";"-51.2025218";"street_address";"R. Félix da Cunha, 665 - Floresta, Porto Alegre - RS, 90570-001, Brazil";379;"SERVICO DE PODOLOGIA";"R FELIX DA CUNHA, 665"
"-30.0233155";"-51.2012992";"clothing_store";"Rua Olavo Barreto Viana, 36 - 3º andar - Moinhos de Vento, Porto Alegre - RS, 90570-070, Brazil";380;"SALAO DE BELEZA";"R OLAVO BARRETO VIANA, 36"
"-30.0233207";"-51.1978084";"street_address";"R. 24 de Outubro, 1100 - Moinhos de Vento, Porto Alegre - RS, 90510-001, Brazil";381;"CONSULTORIO ODONTOLOGICO";"R VINTE QUATRO DE OUTUBRO, 1100/702"
"-30.0346623";"-51.2119403";"street_address";"Av. Osvaldo Aranha, 1022 - Bom Fim, Porto Alegre - RS, Brazil";382;"CONSULTORIO DE FISIOTERAPIA";"AV OSVALDO ARANHA, 1022/1309"
"-30.0287733";"-51.1671785";"premise";"Rua Desembargador Espiridião de Lima Medeiros, 105 - Três Figueiras, Porto Alegre - RS, 91330-020, Brazil";383;"CONSULTORIO VETERINARIO SEM ALOJAMENTO";"R DESEMBARGADOR ESPIRIDIAO L MEDEIROS, 105"
"-30.0550755";"-51.1868768";"street_address";"Av. Ipiranga, 5200 - Jardim Botânico, Porto Alegre - RS, 90160-001, Brazil";384;"SALAO DE BELEZA";"AV IPIRANGA, 5200/206"
"-30.0250036";"-51.2034815";"cafe";"R. Padre Chagas, 220 - Moinhos de Vento, Porto Alegre - RS, 90570-080, Brazil";385;"CONSULTORIO MEDICO";"R PADRE CHAGAS, 140/2"
"-30.0430195";"-51.1908002";"street_address";"R. Faria Santos, 47 - Petrópolis, Porto Alegre - RS, 90670-150, Brazil";386;"CONSULTORIO ODONTOLOGICO";"R FARIA SANTOS, 47/406"
"-30.1331113";"-51.2315053";"street_address";"Av. Tramandaí, 198 - Ipanema, Porto Alegre - RS, Brazil";387;"SALAO DE BELEZA PARA ANIMAIS";"AV TRAMANDAI, 198"
"-30.0216287";"-51.1859312";"street_address";"R. Dom Pedro II, 1610 - São João, Porto Alegre - RS, 90550-142, Brazil";388;"CONSULTORIO DE FISIOTERAPIA";"R DOM PEDRO II, 1610/202"
"-30.034416";"-51.238083";"street_address";"R. Gen. Vasco Alves, 340 - Centro, Porto Alegre - RS, 90010-410, Brazil";389;"TINTURARIA E LAVANDERIA SEM CALDEIRA";"R GEN VASCO ALVES, 340"
"-30.0310993";"-51.2267768";"street_address";"R. Mal. Floriano Peixoto, 266 - Centro Histórico, Porto Alegre - RS, 90020-060, Brazil";390;"SALAO DE BELEZA";"R MARECHAL FLORIANO PEIXOTO, 266"
"-30.0317718";"-51.2276095";"street_address";"Av. Borges de Medeiros, 596 - Centro Histórico, Porto Alegre - RS, 90020-024, Brazil";391;"SALAO DE BELEZA";"AV BORGES DE MEDEIROS, 596/11"
"-30.0201969";"-51.1621953";"street_address";"R. Cipó, 164 - Passo d'Areia, Porto Alegre - RS, 91360-370, Brazil";392;"CONSULTORIO MEDICO";"R CIPO, 164"
"-30.009024";"-51.1541493";"premise";"R. Aliança, 147 - Jardim Lindoia, Porto Alegre - RS, 91040-010, Brazil";393;"EDITORACAO GRAFICA, EDICAO E IMPRESSAO DE OUTROS  PRODUTOS GRAFICO";"R ALIANCA, 147"
"-30.0726213";"-51.2196364";"street_address";"R. Cruzeiro do Sul, 458 - Santa Tereza, Porto Alegre - RS, Brazil";394;"SALAO DE BELEZA";"R CRUZEIRO DO SUL, 458"
"-30.0215128";"-51.2070816";"street_address";"Rua Hoffmann, 728 - Floresta, Porto Alegre - RS, 90220-170, Brazil";395;"ESCOLA ESPECIAL";"R HOFFMANN, 728/2"
"-30.0602834";"-51.2228144";"establishment";"R. José de Alencar, 868 - Menino Deus, Porto Alegre - RS, 90880-480, Brazil";396;"CONSULTORIO ODONTOLOGICO";"R JOSE DE ALENCAR, 868/605"
"-30.0138252";"-51.1906609";"street_address";"R. Américo Vespúcio, 161 - Higienópolis, Porto Alegre - RS, 90550-030, Brazil";397;"CONSULTORIO ODONTOLOGICO";"R AMERICO VESPUCIO, 161"
"-30.0550755";"-51.1868768";"street_address";"Av. Ipiranga, 5200 - Jardim Botânico, Porto Alegre - RS, 90160-001, Brazil";398;"SALAO DE BELEZA";"AV IPIRANGA, 5200/103"
"-30.1330252";"-51.2315871";"street_address";"Av. Tramandaí, 194 - Ipanema, Porto Alegre - RS, Brazil";399;"CONSULTORIO ODONTOLOGICO";"AV TRAMANDAI, 194"
"-30.0369741";"-51.1805022";"street_address";"Av. Lajeado, 991 - Petrópolis, Porto Alegre - RS, 90460-110, Brazil";400;"SALAO DE BELEZA";"AV LAGEADO, 991"
"-30.0407839";"-51.1955286";"street_address";"Av. Protásio Alves, 1281 - Petrópolis, Porto Alegre - RS, 90410-000, Brazil";401;"CONSULTORIO ODONTOLOGICO";"AV PROTASIO ALVES, 1281/407"
"-30.0278902";"-51.2239908";"establishment";"R. Sr. dos Passos, 87 - Centro Histórico, Porto Alegre - RS, Brazil";402;"SERVICO DE MASSAGEM (MASSAGISTAS, MASSAGEM ESTETI-CA, TERAPEUTICA";"R SENHOR DOS PASSOS, 87/22"
"-30.0589077";"-51.2199188";"street_address";"Rua Barão de Teffé, 157 - Menino Deus, Porto Alegre - RS, 90160-150, Brazil";403;"ACADEMIA DE ENSINO E/OU PRATICA DE GINASTICA";"R BARAO DE TEFFE, 157"
"-30.029678";"-51.2293383";"establishment";"R. dos Andradas, 1234 - Centro Histórico, Porto Alegre - RS, 90010-000, Brazil";404;"CONSULTORIO DE PSICOLOGIA";"R ANDRADAS, 943/1409"
"-30.0167498";"-51.2021008";"street_address";"Av. Pernambuco, 2715 - Navegantes, Porto Alegre - RS, 90240-001, Brazil";405;"CONSULTORIO DE FISIOTERAPIA";"AV PERNAMBUCO, 2715"
"-30.0237062";"-51.2060195";"establishment";"R. Santo Inácio, 200 - Moinhos de Vento, Porto Alegre - RS, 90570-150, Brazil";406;"ESCOLA DE LINGUAS";"R SANTO INACIO, 200"
"-30.029678";"-51.2293383";"establishment";"R. dos Andradas, 1234 - Centro Histórico, Porto Alegre - RS, 90010-000, Brazil";407;"SALAO DE BELEZA";"R ANDRADAS, 1560/219"
"-30.0275508";"-51.2293029";"street_address";"R. Uruguai, 91 - Centro Histórico, Porto Alegre - RS, 90010-140, Brazil";408;"ESCRITORIO DE COBRANCA E AJUSTE DE CONTAS";"R URUGUAI, 91/214"
"-30.057838";"-51.2294066";"street_address";"Av. Praia de Belas, 2174 - Praia de Belas, Porto Alegre - RS, Brazil";409;"CONSULTORIO ODONTOLOGICO";"AV PRAIA DE BELAS, 2174/505"
"-30.0695406";"-51.2154585";"premise";"R. Prof. Manoel Lobato, 42 - Santa Tereza, Porto Alegre - RS, 90850-530, Brazil";410;"SALAO DE BELEZA";"R PROF MANOEL LOBATO, 42"
"-30.0295194";"-51.1853176";"premise";"R. Pedro Ivo, 891 - Mont'Serrat, Porto Alegre - RS, 90450-210, Brazil";411;"CONSULTORIO MEDICO";"R PEDRO IVO, 891"
"-30.0276893";"-51.1811527";"street_address";"Av. Carlos Gomes, 700 - Auxiliadora, Porto Alegre - RS, 90480-001, Brazil";412;"CONSULTORIO MEDICO";"AV CARLOS GOMES, 700/712"
"-30.0227483";"-51.1914629";"street_address";"R. Felipe Neri, 414 - Auxiliadora, Porto Alegre - RS, 90440-150, Brazil";413;"ESCRITORIO DE ARQUITETURA";"R FELIPE NERI, 414/503"
"-30.0602364";"-51.1742839";"premise";"Faculdade de Engenharia da Pontifícia Universidade Católica do Rio Grande do Sul - Prédio 30, Av. Ipiranga, 6681 - Partenon, Porto Alegre - RS, Brazil";414;"SALAO DE BELEZA";"AV IPIRANGA, 6681/41"
"-30.098393";"-51.134347";"street_address";"R. Ezequiel Antônio de Oliveira, 208 - Lomba do Pinheiro, Porto Alegre - RS, 91550-180, Brazil";415;"SALAO DE BELEZA";"R EZEQUIEL ANTONIO DE OLIVEIRA, 208"
"-30.0590016";"-51.2229142";"establishment";"Av. Getúlio Vargas, 1594 - M Deus, Porto Alegre - RS, 90150-005, Brazil";416;"CONSULTORIO ODONTOLOGICO";"AV GETULIO VARGAS, 1594/306"
"-30.0306761";"-51.2257031";"street_address";"R. Vig. José Inácio, 566 - Centro Histórico, Porto Alegre - RS, 90020-100, Brazil";417;"SALAO DE BELEZA";"R VIGARIO JOSE IGNACIO, 566"
"-30.0439516";"-51.2304831";"street_address";"R. Dr. Vicente de Paula Dutra, 250 - Praia de Belas, Porto Alegre - RS, 90110-200, Brazil";418;"SERVICO DE MASSAGEM (MASSAGISTAS, MASSAGEM ESTETI-CA, TERAPEUTICA";"R DR VICENTE DE PAULA DUTRA, 250/3"
"-30.0524905";"-51.214331";"street_address";"R. Barão do Triunfo, 720 - Menino Deus, Porto Alegre - RS, 90130-100, Brazil";419;"CONSULTORIO DE PSICOLOGIA";"R BARAO DO TRIUNFO, 720/403"
"-29.9962059";"-51.0947037";"premise";"R. dos Maias, 923 - Rubem Berta, Porto Alegre - RS, 91170-200, Brazil";420;"SALAO DE BELEZA";"R MAIAS, 923"
"-30.0260994";"-51.1970951";"beauty_salon";"52 R. Ten. Cel. Fabrício Pilar - Moinhos de Vento, Porto Alegre - RS, 90450-040, Brazil";421;"SALAO DE BELEZA";"R TEN CEL FABRICIO PILAR, 52"
"-30.049779";"-51.2284706";"street_address";"Av. Praia de Belas, 1181 - Praia de Belas, Porto Alegre - RS, 90110-001, Brazil";422;"SALAO DE BELEZA";"AV PRAIA DE BELAS, 1181/1041"
"-30.0284088";"-51.1628733";"street_address";"Av. Dr. Nilo Peçanha, 2825 - Chácara das Pedras, Porto Alegre - RS, 91330-001, Brazil";423;"CONSULTORIO MEDICO";"AV DR NILO PECANHA, 2825/806"
"-30.0864648";"-51.2153972";"street_address";"Av. Nonoai, 216 - Nonoai, Porto Alegre - RS, 91720-000, Brazil";424;"CONSULTORIO ODONTOLOGICO";"AV NONOAI, 216/6"
"-30.0338326";"-51.1777811";"street_address";"Av. Carlos Gomes, 1492 - Auxiliadora, Porto Alegre - RS, 90480-001, Brazil";425;"CONSULTORIO DE PSIQUIATRIA";"AV CARLOS GOMES, 1492/1212"
"-30.0250036";"-51.2034815";"cafe";"R. Padre Chagas, 220 - Moinhos de Vento, Porto Alegre - RS, 90570-080, Brazil";426;"CONSULTORIO DE PSICOLOGIA";"R PADRE CHAGAS, 147/1203"
"-30.0343654";"-51.1768842";"establishment";"Av. Luiz Manoel Gonzaga, 351 - Petrópolis, Porto Alegre - RS, 90470-280, Brazil";427;"CONSULTORIO MEDICO";"AV LUIZ MANOEL GONZAGA, 351/901"
"-30.0317272";"-51.2347274";"establishment";"R. dos Andradas, 685 - Centro, Porto Alegre - RS, 90020-003, Brazil";428;"ESCRITORIO DE VENDAS (PRODUTOS PROPRIOS SEM INTERMDIACAO DE TERCEI";"R ANDRADAS, 1137/711"
"-30.0312965";"-51.2125767";"dentist";"Condom Edifício Bahamas - Rua General João Telles, 53 - Bom Fim, Porto Alegre - RS, 90035-120, Brazil";429;"CONSULTORIO ODONTOLOGICO";"R GEN JOAO TELLES, 53/503"
"-30.030476";"-51.226284";"establishment";"Ed. Fleming - R. Gen. Vitorino, 53 - sala 31 - Centro Histórico, Porto Alegre - RS, 90020-170, Brazil";430;"CONSULTORIO ODONTOLOGICO";"R GEN VITORINO, 305/702"
"-30.0291938";"-51.2011878";"street_address";"Av. Goethe, 21 - PARCÃO, Porto Alegre - RS, 90430-100, Brazil";431;"CONSULTORIO ODONTOLOGICO";"AV GOETHE, 21/705"
"-30.029678";"-51.2293383";"establishment";"R. dos Andradas, 1234 - Centro Histórico, Porto Alegre - RS, 90010-000, Brazil";432;"CONSULTORIO MEDICO";"R ANDRADAS, 1711/701"
"-30.028389";"-51.2062381";"street_address";"R. 24 de Outubro, 111 - Independência, Porto Alegre - RS, 90510-002, Brazil";433;"OFICINA DE ASSISTENCIA TECNICA";"R VINTE QUATRO DE OUTUBRO, 111/606"
"-30.0262208";"-51.212016";"street_address";"Av. Cristóvão Colombo, 545 - Floresta, Porto Alegre - RS, 90560-003, Brazil";434;"SALAO DE BELEZA";"AV CRISTOVAO COLOMBO, 545/1053"
"-30.025024";"-51.2019617";"street_address";"R. 24 de Outubro, 650 - Independência, Porto Alegre - RS, 90510-001, Brazil";435;"CONSULTORIO MEDICO";"R VINTE QUATRO DE OUTUBRO, 650/206"
"-30.0092405";"-51.180641";"street_address";"R. Dr. Eduardo Chartier, 52 - Passo d'Areia, Porto Alegre - RS, 90520-100, Brazil";436;"PROFISSIONAL AUTONOMO";"R DR EDUARDO CHARTIER, 52"
"-30.0199137";"-51.1963664";"street_address";"R. Marquês do Pombal, 783 - Moinhos de Vento, Porto Alegre - RS, Brazil";437;"PROFISSIONAL AUTONOMO";"R MARQUES DO POMBAL, 783/601"
"-30.0925508";"-51.2387567";"street_address";"R. Dr. Campos Velho, 734 - Cristal, Porto Alegre - RS, 90820-000, Brazil";438;"ESCOLA DE DANCA";"R DR CAMPOS VELHO, 734/201"
"-30.0256608";"-51.1520806";"street_address";"Av. Engenheiro Ary de Abreu Lima, 85 - Vila Ipiranga, Porto Alegre - RS, 91360-110, Brazil";439;"PROFISSIONAL AUTONOMO";"AV ENG ARY DE ABREU LIMA, 85"
"-30.0188137";"-51.2025218";"street_address";"R. Félix da Cunha, 665 - Floresta, Porto Alegre - RS, 90570-001, Brazil";440;"SERVICO DE MASSAGEM (MASSAGISTAS, MASSAGEM ESTETI-CA, TERAPEUTICA";"R FELIX DA CUNHA, 665"
"-30.0150152";"-51.1523773";"establishment";"Av. do Forte, 500 - Cristo Redentor, Porto Alegre - RS, 91360-000, Brazil";441;"SALAO DE BELEZA";"AV FORTE, 536"
"-30.039119";"-51.221035";"street_address";"Rua Luiz Afonso, 210 - Cidade Baixa, Porto Alegre - RS, 90050-310, Brazil";442;"CONSULTORIO ODONTOLOGICO";"R LUIZ AFONSO, 210"
"-30.0358272";"-51.2363815";"premise";"R. Gen. Portinho, 567 - Centro Histórico, Porto Alegre - RS, 90010-360, Brazil";443;"SERVICO DE MASSAGEM (MASSAGISTAS, MASSAGEM ESTETI-CA, TERAPEUTICA";"R GEN PORTINHO, 567"
"-30.032067";"-51.1768705";"premise";"R. Primeiro de Janeiro, 150 - Três Figueiras, Porto Alegre - RS, 90001-970, Brazil";444;"SALAO DE BELEZA";"R PRIMEIRO DE JANEIRO, 150"
"-30.0612109";"-51.2307852";"establishment";"R. Barão do Cerro Largo, 11 - Menino Deus, Porto Alegre - RS, Brazil";445;"CONSULTORIO DE PSICOLOGIA";"R BARAO DO CERRO LARGO, 11/502"
"-30.0644113";"-51.1561464";"street_address";"R. Dr. Pereira da Cunha, 27 - Partenon, Porto Alegre - RS, 91530-290, Brazil";446;"SALAO DE BELEZA";"R DR PEREIRA DA CUNHA, 27"
"-30.0292784";"-51.2266842";"street_address";"R. Mal. Floriano Peixoto, 72 - Centro Histórico, Porto Alegre - RS, 90020-061, Brazil";447;"CONSULTORIO ODONTOLOGICO";"R MARECHAL FLORIANO PEIXOTO, 72/23"
"-30.0537164";"-51.2246563";"street_address";"Rua Mucio Teixeira, 1060 - Menino Deus, Porto Alegre - RS, 90150-090, Brazil";448;"SALAO DE BELEZA";"R MUCIO TEIXEIRA, 1060"
"-30.0317272";"-51.2347274";"establishment";"R. dos Andradas, 685 - Centro, Porto Alegre - RS, 90020-003, Brazil";449;"SALAO DE BELEZA";"R ANDRADAS, 1454"
"-30.0218318";"-51.1885511";"street_address";"R. Felicissimo de Azevedo, 1455 - São João, Porto Alegre - RS, 90540-110, Brazil";450;"CONSULTORIO DE NUTRICIONISTA";"R FELICISSIMO DE AZEVEDO, 1455/401"
"-30.0282914";"-51.2234508";"street_address";"Av. Alberto Bins, 325 - Centro Histórico, Porto Alegre - RS, 90030-142, Brazil";451;"SALAO DE BELEZA";"AV ALBERTO BINS, 325/81"
"-30.1141659";"-51.2550918";"street_address";"Av. Wenceslau Escobar, 2933 - Tristeza, Porto Alegre - RS, Brazil";452;"SALAO DE BELEZA";"AV WENCESLAU ESCOBAR, 2933/205"
"-30.0410752";"-51.2155197";"street_address";"Av. Venâncio Aires, 449 - Santana, Porto Alegre - RS, 90040-192, Brazil";453;"SALAO DE BELEZA";"AV VENANCIO AIRES, 449/1"
"-30.02594";"-51.162916";"establishment";"Av. João Wallig, 1800 - Iguatemi Porto Alegre - Passo d'Areia, Porto Alegre - RS, 91340-001, Brazil";454;"SALAO DE BELEZA";"AV JOAO WALLIG, 1800/1269"
"-30.0934993";"-51.2315255";"street_address";"R. Dr. Campos Velho, 1461 - Cristal, Porto Alegre - RS, 90820-001, Brazil";455;"SALAO DE BELEZA";"R DR CAMPOS VELHO, 1461"
"-30.0526213";"-51.2156552";"street_address";"R. Barão do Triunfo, 588 - Azenha, Porto Alegre - RS, 90130-101, Brazil";456;"SALAO DE BELEZA";"R BARAO DO TRIUNFO, 588"
"-30.0255639";"-51.2083465";"street_address";"R. Ramiro Barcelos, 910 - Floresta, Porto Alegre - RS, Brazil";457;"CONSULTORIO MEDICO";"R RAMIRO BARCELOS, 910/803"
"-30.0512006";"-51.2177596";"street_address";"Rua General Caldwell, 976 - Menino Deus, Porto Alegre - RS, Brazil";458;"OFICINA DE ASSISTENCIA TECNICA";"R GEN CALDWELL, 976"
"-30.0369741";"-51.1805022";"street_address";"Av. Lajeado, 991 - Petrópolis, Porto Alegre - RS, 90460-110, Brazil";459;"SALAO DE BELEZA";"AV LAGEADO, 991"
"-30.030476";"-51.226284";"establishment";"Ed. Fleming - R. Gen. Vitorino, 53 - sala 31 - Centro Histórico, Porto Alegre - RS, 90020-170, Brazil";460;"SALAO DE BELEZA";"R GEN VITORINO, 77/6"
"-30.0262208";"-51.212016";"street_address";"Av. Cristóvão Colombo, 545 - Floresta, Porto Alegre - RS, 90560-003, Brazil";461;"SALAO DE BELEZA";"AV CRISTOVAO COLOMBO, 545/2022"
"-30.0269095";"-51.2033956";"street_address";"R. 24 de Outubro, 435 - Independência, Porto Alegre - RS, 90510-002, Brazil";462;"CONFECCAO SOB MEDIDA DE ARTIGOS DO VESTUARIO";"R VINTE QUATRO DE OUTUBRO, 435/16"
"-30.0758091";"-51.2009303";"street_address";"R. Intendente Alfredo Azevedo, 6 - Glória, Porto Alegre - RS, 91710-010, Brazil";463;"CONSULTORIO ODONTOLOGICO";"R INTENDENTE ALFREDO AZEVEDO, 6/203"
"-30.0416119";"-51.184952";"street_address";"Rua João Abbott, 473 - Petrópolis, Porto Alegre - RS, Brazil";464;"CONSULTORIO ODONTOLOGICO";"R JOAO ABBOTT, 473/301"
"-30.0574986";"-51.2292701";"street_address";"Av. Praia de Belas, 2124 - Praia de Belas, Porto Alegre - RS, Brazil";465;"CONSULTORIO MEDICO";"AV PRAIA DE BELAS, 2124/503"
"-30.0202321";"-51.1695111";"street_address";"R. Carlos Legori, 32 - Passo d'Areia, Porto Alegre - RS, 91340-150, Brazil";466;"ESCOLA DE MUSICA";"R CARLOS LEGORI, 32"
"-30.0395088";"-51.2220301";"premise";"Rua Luiz Afonso, 323 - Cidade Baixa, Porto Alegre - RS, 90050-310, Brazil";467;"INSTITUICAO DE EDUCACAO INFANTIL (CRECHE)";"R LUIZ AFONSO, 323"
"-30.0399881";"-51.2084405";"street_address";"Av. Jerônimo de Ornelas, 689 - Santa Cecilia, Porto Alegre - RS, 90040-340, Brazil";468;"SALAO DE BELEZA";"AV JERONIMO DE ORNELAS, 689"
"-30.0357532";"-51.2085213";"street_address";"R. Ramiro Barcelos, 1893 - Rio Branco, Porto Alegre - RS, 90035-191, Brazil";469;"SALAO DE BELEZA";"R RAMIRO BARCELOS, 1893"
"-30.041709";"-51.190972";"street_address";"R. Amélia Téles, 90 - Petrópolis, Porto Alegre - RS, 90460-070, Brazil";470;"CONSULTORIO DE TERAPIAS ALTERNATIVAS";"R AMELIA TELES, 90/502"
"-30.1208372";"-51.215479";"premise";"Av. Monte Cristo, 550 - Vila Nova, Porto Alegre - RS, 91750-000, Brazil";471;"ACADEMIA DE ENSINO E/OU PRATICA DE GINASTICA";"AV MONTE CRISTO, 550"
"-30.0328584";"-51.1779499";"street_address";"Av. Soledade, 569 - Petrópolis, Porto Alegre - RS, Brazil";472;"CONSULTORIO MEDICO";"AV SOLEDADE, 569/1010"
"-30.029484";"-51.2228867";"street_address";"Praça Dom Feliciano, 26 - Centro Histórico, Porto Alegre - RS, 90020-160, Brazil";473;"PROFISSIONAL LIBERAL,TECNICO E UNIVERSITARIO";"PCA DOM FELICIANO, 26/301"
"-30.0434121";"-51.1820029";"street_address";"Av. Protásio Alves, 2711 - Petrópolis, Porto Alegre - RS, 90410-001, Brazil";474;"SALAO DE BELEZA";"AV PROTASIO ALVES, 2711"
"-30.0353999";"-51.2283161";"street_address";"Av. Borges de Medeiros, 993 - Centro Histórico, Porto Alegre - RS, 90020-025, Brazil";475;"SALAO DE BELEZA";"AV BORGES DE MEDEIROS, 993"
"-30.0599281";"-51.2180704";"street_address";"R. José de Alencar, 1352 - Menino Deus, Porto Alegre - RS, 90880-480, Brazil";476;"SALAO DE BELEZA";"R JOSE DE ALENCAR, 1352/1"
"-30.0552796";"-51.1733766";"street_address";"Av. Ipiranga, 6690 - Jardim Botânico, Porto Alegre - RS, Brazil";477;"CONSULTORIO MEDICO";"AV IPIRANGA, 6690/513"
"-30.0399967";"-51.1905878";"street_address";"R. Perpétua Téles, 156 - Petrópolis, Porto Alegre - RS, 90460-120, Brazil";478;"CONSULTORIO MEDICO";"R PERPETUA TELES, 156"
"-30.0387638";"-51.1774086";"street_address";"Av. Iguaçu, 418 - Petrópolis, Porto Alegre - RS, 90470-430, Brazil";479;"CONSULTORIO DE PSICOLOGIA";"AV IGUASSU, 418/1001"
"-30.0503591";"-51.2217179";"street_address";"Av. Getúlio Vargas, 654 - Menino Deus, Porto Alegre - RS, 90150-002, Brazil";480;"CONSULTORIO VETERINARIO SEM ALOJAMENTO";"AV GETULIO VARGAS, 654"
"-30.0503591";"-51.2217179";"street_address";"Av. Getúlio Vargas, 654 - Menino Deus, Porto Alegre - RS, 90150-002, Brazil";481;"CLINICA VETERINARIA COM ALOJAMENTO DE PEQUENO POR-TE";"AV GETULIO VARGAS, 654"
"-30.0281004";"-51.2084676";"street_address";"R. Ramiro Barcelos, 1056 - Independência, Porto Alegre - RS, 90035-006, Brazil";482;"CONSULTORIO ODONTOLOGICO";"R RAMIRO BARCELOS, 1056/501"
"-30.0545247";"-51.220671";"street_address";"R. Botafogo, 940 - Menino Deus, Porto Alegre - RS, Brazil";483;"SALAO DE BELEZA";"R BOTAFOGO, 940"
"-30.0384537";"-51.1767542";"establishment";"Av. Iguaçu, 507 - Petrópolis, Porto Alegre - RS, 90470-430, Brazil";484;"CONSULTORIO ODONTOLOGICO";"AV IGUASSU, 507/201"
"-30.0338072";"-51.1695102";"street_address";"R. Carlos Huber, 590 - Três Figueiras, Porto Alegre - RS, 91330-150, Brazil";485;"CONSULTORIO ODONTOLOGICO";"R CARLOS HUBER, 590"
"-29.986676";"-51.12653";"street_address";"Av. Alcídes Maia, 468 - Sarandi, Porto Alegre - RS, 91120-440, Brazil";486;"CONFECCAO SOB MEDIDA DE ARTIGOS DO VESTUARIO";"AV ALCIDES MAIA, 468/1"
"-30.0447298";"-51.2233588";"street_address";"R. Barão do Gravataí, 577 - Menino Deus, Porto Alegre - RS, 90050-330, Brazil";487;"CHAVEIROS";"R BARAO DO GRAVATAI, 577"
"-30.029678";"-51.2293383";"establishment";"R. dos Andradas, 1234 - Centro Histórico, Porto Alegre - RS, 90010-000, Brazil";488;"CLINICA ESTETICA";"R ANDRADAS, 1248/501"
"-30.0396769";"-51.2133353";"street_address";"Av. Venâncio Aires, 711 - Farroupilha, Porto Alegre - RS, 90040-191, Brazil";489;"CRIACAO DE ANIMAIS (CAES E GATOS) COM FINS DE     COMERCIO E/OU SE";"AV VENANCIO AIRES, 711/101"
"-30.1582592";"-51.1946";"route";"Av. Juca Batista, Porto Alegre - RS, Brazil";490;"SALAO DE BELEZA";"AV JUCA BATISTA, 925/108"
"-30.1123691";"-51.2550957";"street_address";"Av. Wenceslau Escobar, 2770 - Vila Conceição, Porto Alegre - RS, Brazil";491;"SALAO DE BELEZA";"AV WENCESLAU ESCOBAR, 2770/18"
"-30.0299736";"-51.2291843";"beauty_salon";"R. dos Andradas, 1237 - Centro, Porto Alegre - RS, 90020-009, Brazil";492;"SERVICO DE MASSAGEM (MASSAGISTAS, MASSAGEM ESTETI-CA, TERAPEUTICA";"R ANDRADAS, 1237/41"
"-30.0540945";"-51.2037926";"street_address";"R. Dr. Voltaire Pires, 77 - Santo Antônio, Porto Alegre - RS, 90640-160, Brazil";493;"SALAO DE BELEZA";"R DR VOLTAIRE PIRES, 77"
"-30.043514";"-51.1893699";"street_address";"R. Prof. Langendonck, 37 - Petrópolis, Porto Alegre - RS, 90630-060, Brazil";494;"CONSULTORIO DE PSICOLOGIA";"R PROF LANGENDONCK, 37/310"
"-30.0248231";"-51.1909031";"street_address";"R. Silva Jardim, 311 - Mont'Serrat, Porto Alegre - RS, 90450-070, Brazil";495;"SALAO DE BELEZA";"R SILVA JARDIM, 311/8"
"-30.030605";"-51.2249156";"street_address";"Rua Doutor Flores, 381 - Centro Histórico, Porto Alegre - RS, 90020-121, Brazil";496;"SALAO DE BELEZA";"R DR FLORES, 381"
"-30.018273";"-51.1974919";"street_address";"R. Cel. Bordini, 28 - Auxiliadora, Porto Alegre - RS, 90440-002, Brazil";497;"SALAO DE BELEZA";"R CEL BORDINI, 28"
"-30.155708";"-51.142438";"street_address";"Estrada João Antônio da Silveira, 1837 - Restinga, Porto Alegre - RS, 91790-400, Brazil";498;"SERVICO DE TATUAGEM";"ESTR JOAO ANTONIO SILVEIRA, 1837/203"
"-30.0315531";"-51.2204692";"establishment";"R. Sarmento Leite, 245 - Centro Histórico, Porto Alegre - RS, 90050-170, Brazil";499;"CONSULTORIO MEDICO";"R SARMENTO LEITE, 187"
"-30.0521636";"-51.2247591";"street_address";"Rua Mucio Teixeira, 895 - Menino Deus, Porto Alegre - RS, 90150-090, Brazil";500;"SALAO DE BELEZA";"R MUCIO TEIXEIRA, 895"
"-30.0396531";"-51.1946965";"street_address";"Av. Cel. Lucas de Oliveira, 1937 - Petrópolis, Porto Alegre - RS, 90460-001, Brazil";501;"CONSULTORIO ODONTOLOGICO";"AV CEL LUCAS DE OLIVEIRA, 1937/205"
"-30.0486946";"-51.2126603";"street_address";"Rua Dr. Ramiro D'Ávila, 20 - Azenha, Porto Alegre - RS, Brazil";502;"CONSULTORIO MEDICO";"R DR RAMIRO D'AVILA, 20/404"
"-30.036356";"-51.2075843";"street_address";"Rua Francisco Ferrer, 453 - Rio Branco, Porto Alegre - RS, Brazil";503;"CONSULTORIO ODONTOLOGICO";"R FRANCISCO FERRER, 453/605"
"-30.0581522";"-51.2050207";"street_address";"R. Dr. Voltaire Pires, 573 - Santo Antônio, Porto Alegre - RS, 90640-160, Brazil";504;"SALAO DE BELEZA";"R DR VOLTAIRE PIRES, 573"
"-30.02621";"-51.1969851";"establishment";"Rua Ten. Cel. Fabrício Pilar, 55/505 - Moinhos de Vento, Porto Alegre - RS, 90450-040, Brazil";505;"CONSULTORIO ODONTOLOGICO";"R TEN CEL FABRICIO PILAR, 40"
"-30.0552796";"-51.1733766";"street_address";"Av. Ipiranga, 6690 - Jardim Botânico, Porto Alegre - RS, Brazil";506;"CONSULTORIO ODONTOLOGICO";"AV IPIRANGA, 6690/510"
"-30.0182326";"-51.1988231";"street_address";"Av. Cristóvão Colombo, 2149 - Floresta, Porto Alegre - RS, 90560-002, Brazil";507;"CONSULTORIO DE FONOAUDIOLOGIA";"AV CRISTOVAO COLOMBO, 2149/402"
"-30.0149639";"-51.1873127";"street_address";"R. Dom Pedro II, 891 - São João, Porto Alegre - RS, 90550-141, Brazil";508;"CLINICA DE FONOAUDIOLOGIA";"R DOM PEDRO II, 891/302"
"-30.0125035";"-51.1935239";"street_address";"Rua 16 de Julho, 42 - São João, Porto Alegre - RS, 90550-020, Brazil";509;"CONSULTORIO DE FONOAUDIOLOGIA";"R DEZESSEIS DE JULHO, 42/406"
"-30.011003";"-51.1682303";"street_address";"R. Açores, 79 - Passo d'Areia, Porto Alegre - RS, 91030-340, Brazil";510;"CLINICA DE PSICOLOGIA";"R ACORES, 79/605"
"-30.085464";"-51.189365";"street_address";"R. da Gruta, 43 - Cascata, Porto Alegre - RS, 91712-160, Brazil";511;"ESCRITORIO ADMINISTRATIVO (SEDE ADMINISTRATIVA DE EMPRESA)";"R GRUTA, 43/1"
"-30.072842";"-51.195661";"street_address";"R. Cel. Aparício Borges, 1253 - Glória, Porto Alegre - RS, 90680-570, Brazil";512;"ESCRITORIO DE CORRETAGEM DE VEICULOS";"AV CEL APARICIO BORGES, 1253"
"-30.01643";"-51.198364";"street_address";"Av. Paraná, 2548 - Floresta, Porto Alegre - RS, 90240-602, Brazil";513;"OFICINA MECANICA PARA AUTOMOVEIS";"AV PARANA, 2548"
"-30.057838";"-51.2294066";"street_address";"Av. Praia de Belas, 2174 - Praia de Belas, Porto Alegre - RS, Brazil";514;"CONSULTORIO DE PSICOLOGIA";"AV PRAIA DE BELAS, 2174/604"
"-30.0264238";"-51.222395";"establishment";"Praça Osvaldo Cruz, 15 - Centro Histórico, Porto Alegre - RS, 90010-130, Brazil";515;"SERVICO DE TREINAMENTO E ADMINISTRACAO DE PESSOAL";"PCA OSVALDO CRUZ, 15/202"
"-30.02736";"-51.203174";"establishment";"R. Dr. Florêncio Ygartua, 65 - Loja 22 - Moinhos de Vento, Porto Alegre - RS, 90430-010, Brazil";516;"SALAO DE BELEZA";"R DR FLORENCIO YGARTUA, 65/3"
"-30.1283643";"-51.2191104";"route";"Av. Eduardo Prado, Porto Alegre - RS, Brazil";517;"ACADEMIA DE ENSINO E/OU PRATICA DE GINASTICA";"AV EDUARDO PRADO, 2110/2"
"-30.0241729";"-51.1795158";"street_address";"R. Anita Garibaldi, 1650 - Mont'Serrat, Porto Alegre - RS, 90480-200, Brazil";518;"SALAO DE BELEZA";"R ANITA GARIBALDI, 1650"
"-30.0598261";"-51.1917533";"street_address";"R. Barão do Amazonas, 1866 - Partenon, Porto Alegre - RS, 90670-002, Brazil";519;"CONSULTORIO ODONTOLOGICO";"R BARAO DO AMAZONAS, 1866/201"
"-30.0276222";"-51.2145664";"street_address";"R. Santo Antonio, 277 - Floresta, Porto Alegre - RS, 90220-010, Brazil";520;"CONSULTORIO ODONTOLOGICO";"R SANTO ANTONIO, 277/401"
"-30.018037";"-51.153337";"street_address";"Rua Gaston Englert, 87 - Vl Ipiranga, Porto Alegre - RS, 91360-210, Brazil";521;"SALAO DE BELEZA PARA ANIMAIS";"R GASTON ENGLERT, 87"
"-30.1117697";"-51.255675";"street_address";"Av. Wenceslau Escobar, 2667 - Tristeza, Porto Alegre - RS, 91900-000, Brazil";522;"CONSULTORIO DE PSICOLOGIA";"AV WENCESLAU ESCOBAR, 2667/301"
"-30.0255716";"-51.202528";"establishment";"R. Luciana de Abreu, 471 - Moinhos de Vento, Porto Alegre - RS, 90570-060, Brazil";523;"CONSULTORIO DE PSICOLOGIA";"R LUCIANA DE ABREU, 323/406"
"-30.020353";"-51.198534";"establishment";"R. Quintino Bocaiúva, 267 - Moinhos de Vento, Porto Alegre - RS, 90440-050, Brazil";524;"DECORACAO DE INTERIORES";"R QUINTINO BOCAIUVA, 226"
"-30.029678";"-51.2293383";"establishment";"R. dos Andradas, 1234 - Centro Histórico, Porto Alegre - RS, 90010-000, Brazil";525;"SERVICO DE PODOLOGIA";"R ANDRADAS, 1354/402"
"-30.0343944";"-51.2129775";"street_address";"Rua General João Telles, 545 - Bom Fim, Porto Alegre - RS, 90035-120, Brazil";526;"SALAO DE BELEZA";"R GEN JOAO TELLES, 545"
"-30.0327739";"-51.2177984";"establishment";"Av. Osvaldo Aranha, 440 - Bom Fim, Porto Alegre - RS, Brazil";527;"CONSULTORIO MEDICO";"AV OSVALDO ARANHA, 440/804"
"-30.0293446";"-51.2073656";"street_address";"R. Mostardeiro, 5 - Independência, Porto Alegre - RS, Brazil";528;"CONSULTORIO MEDICO";"R MOSTARDEIRO, 5/904"
"-30.0217046";"-51.2034479";"establishment";"R. Barão de Santo Ângelo, 493 - Moinhos de Vento, Porto Alegre - RS, 90570-090, Brazil";529;"INSTRUTOR DE IOGA";"R BARAO DE SANTO ANGELO, 384"
"-30.0294624";"-51.138185";"route";"R. João Francisco Martins - Jardim Itu-Sabará, Porto Alegre - RS, Brazil";530;"SALAO DE BELEZA";"R JOAO FRANCISCO MARTINS, 49/3"
"-30.0258314";"-51.204851";"street_address";"R. Padre Chagas, 66 - Moinhos de Vento, Porto Alegre - RS, 90570-080, Brazil";531;"CONSULTORIO MEDICO";"R PADRE CHAGAS, 66/501"
"-30.0328584";"-51.1779499";"street_address";"Av. Soledade, 569 - Petrópolis, Porto Alegre - RS, Brazil";532;"CONSULTORIO MEDICO";"AV SOLEDADE, 569/912"
"-30.0343362";"-51.2125467";"street_address";"Rua General João Telles, 542 - Bom Fim, Porto Alegre - RS, 90035-120, Brazil";533;"CONSULTORIO MEDICO";"R GEN JOAO TELLES, 542/601"
"-30.0602363";"-51.2294788";"street_address";"R. Antenor Lemos, 57 - Menino Deus, Porto Alegre - RS, 90850-100, Brazil";534;"CONSULTORIO MEDICO";"R ANTENOR LEMOS, 57/811"
"-29.9824776";"-51.1913405";"street_address";"R. Prof. João de Souza Ribeiro, 615 - Humaitá, Porto Alegre - RS, 90245-470, Brazil";535;"GARAGEM E ESTACIONAMENTO PARA VEICULOS, EXCETO OS DE CARGA OU COLE";"R PROF JOAO DE SOUZA RIBEIRO, 615"
"-30.022095";"-51.1900742";"street_address";"Av. Plínio Brasil Milano, 80 - Auxiliadora, Porto Alegre - RS, 90510-000, Brazil";536;"CONSULTORIO DE FISIOTERAPIA";"AV PLINIO BRASIL MILANO, 80"
"-30.100797";"-51.226537";"street_address";"Av. Otto Niemeyer, 3575 - Cavalhada, Porto Alegre - RS, 91910-001, Brazil";537;"CYBER CAFE";"AV OTTO NIEMEYER, 3575"
"-30.0795724";"-51.2090472";"street_address";"Av. Teresópolis, 2956 - Teresópolis, Porto Alegre - RS, 90870-000, Brazil";538;"SERVICO DE MASSAGEM (MASSAGISTAS, MASSAGEM ESTETI-CA, TERAPEUTICA";"AV TERESOPOLIS, 2956/3"
"-30.017483";"-51.200136";"street_address";"R. Dr. Timóteo, 258 - Floresta, Porto Alegre - RS, 90570-040, Brazil";539;"ESCRITORIO DE SERVICOS DE ASSESSORIA";"R DR TIMOTEO, 258"
