"lat";"long";"accuracy";"formatted_address";"index";"tipo";"default"
"-30.057496";"-51.2221834";"street_address";"R. Saldanha Marinho, 56 - Menino Deus, Porto Alegre - RS, 90160-240, Brazil";1;"SALAO DE BELEZA";"R SALDANHA MARINHO, 56"
"-30.1496559";"-51.1360751";"street_address";"Av. IgnÍs e Fagundes, 520 - Restinga, Porto Alegre - RS, Brazil";2;"PROFISSIONAL AUTONOMO";"AV IGNES E FAGUNDES, 520"
"-29.9963677";"-51.1304355";"street_address";"Av. Assis Brasil, 6203 - Sarandi, Porto Alegre - RS, 91010-004, Brazil";3;"ESCRITORIO DE CONTABILIDADE";"AV ASSIS BRASIL, 6203/601"
"-30.018314";"-51.1686509";"street_address";"R. Geraldo Souza Moreira, 290 - Passo d'Areia, Porto Alegre - RS, 91340-200, Brazil";4;"EDITORACAO GRAFICA, EDICAO E IMPRESSAO DE OUTROS  PRODUTOS GRAFICO";"R GERALDO SOUZA MOREIRA, 290"
"-30.004251";"-51.092107";"street_address";"R. Caetano Fulginiti, 95 - Rubem Berta, Porto Alegre - RS, 91170-050, Brazil";5;"SALAO DE BELEZA";"R CAETANO FULGINITI, 95"
"-30.0606759";"-51.2115659";"street_address";"PraÁa Paulo Coelho, 6 - Medianeira, Porto Alegre - RS, 90880-120, Brazil";6;"EDITORACAO GRAFICA, EDICAO E IMPRESSAO DE OUTROS  PRODUTOS GRAFICO";"PCA PAULO COELHO, 6"
"-30.1177775";"-51.258661";"premise";"R. Landel de Moura, 131 - Tristeza, Porto Alegre - RS, 91920-150, Brazil";7;"ESCRITORIO DE CONTABILIDADE";"R LANDEL DE MOURA, 131"
"-30.0395063";"-51.1960681";"street_address";"R. Vicente da Fontoura, 2564 - Rio Branco, Porto Alegre - RS, 90640-001, Brazil";8;"SALAO DE BELEZA";"R VICENTE DA FONTOURA, 2564/2"
"-30.1504332";"-51.1457825";"route";"Av. Economista Nilo Wulff - Restinga, Porto Alegre - RS, Brazil";9;"CONSULTORIO ODONTOLOGICO";"AV ECON NILO WULFF, 270"
"-30.0328584";"-51.1779499";"street_address";"Av. Soledade, 569 - PetrÛpolis, Porto Alegre - RS, Brazil";10;"CONSULTORIO MEDICO";"AV SOLEDADE, 569/912"
"-30.0120696";"-51.1696078";"street_address";"Av. Assis Brasil, 1791 - HigienÛpolis, Porto Alegre - RS, 90520-002, Brazil";11;"ESCRITORIO ADMINISTRATIVO (SEDE ADMINISTRATIVA DE EMPRESA)";"AV ASSIS BRASIL, 1791/401"
"-30.0288528";"-51.2243987";"street_address";"Rua Doutor Flores, 190 - Centro HistÛrico, Porto Alegre - RS, 90020-121, Brazil";12;"ESCRITORIO DE CONTABILIDADE";"R DR FLORES, 190/65"
"-30.1140262";"-51.2551327";"street_address";"Av. Wenceslau Escobar, 2923 - Tristeza, Porto Alegre - RS, Brazil";13;"CONSULTORIO ODONTOLOGICO";"AV WENCESLAU ESCOBAR, 2923/408"
"-30.021833";"-51.1625768";"street_address";"Av. T˙lio de Rose, 80 - Passo d'Areia, Porto Alegre - RS, Brazil";14;"SALAO DE BELEZA";"AV TULIO DE ROSE, 80/119"
"-30.0317272";"-51.2347274";"establishment";"R. dos Andradas, 685 - Centro, Porto Alegre - RS, 90020-003, Brazil";15;"SALAO DE BELEZA";"R ANDRADAS, 415"
"-30.0081146";"-51.1586511";"establishment";"Rua Fernando Abbott, 307 - Cristo Redentor, Porto Alegre - RS, 91040-320, Brazil";16;"LOCACAO DE FITAS DE VIDEO";"R FERNANDO ABBOTT, 307"
"-30.0393025";"-51.1767851";"street_address";"Av. Palmeira, 27 - PetrÛpolis, Porto Alegre - RS, 90470-300, Brazil";17;"CONSULTORIO MEDICO";"AV PALMEIRA, 27/701"
"-30.0240529";"-51.1839342";"street_address";"R. Campos S·les, 157 - Auxiliadora, Porto Alegre - RS, Brazil";18;"ESCRITORIO DE ENGENHARIA";"R CAMPOS SALES, 157/204"
"-30.0506457";"-51.2148197";"street_address";"Rua 20 de Setembro, 21 - Azenha, Porto Alegre - RS, 90130-090, Brazil";19;"SALAO DE BELEZA PARA ANIMAIS";"R VINTE DE SETEMBRO, 21"
"-30.0641767";"-51.1575524";"street_address";"Av. Bento GonÁalves, 5808 - Partenon, Porto Alegre - RS, 90650-001, Brazil";20;"ESCRITORIO DE EDICAO DE PERIODICOS";"AV BENTO GONCALVES, 5808"
"-30.0294618";"-51.2142168";"street_address";"Av. IndependÍncia, 691 - IndependÍncia, Porto Alegre - RS, 90035-072, Brazil";21;"SALAO DE BELEZA";"AV INDEPENDENCIA, 691/113"
"-30.0302354";"-51.2160692";"street_address";"Rua Tomaz Flores, 97 - IndependÍncia, Porto Alegre - RS, 90035-201, Brazil";22;"SALAO DE BELEZA";"R TOMAZ FLORES, 97"
"-30.0385263";"-51.2215558";"street_address";"R. Gen. Lima e Silva, 601 - Centro HistÛrico, Porto Alegre - RS, 90050-101, Brazil";23;"SALAO DE BELEZA";"R GEN LIMA E SILVA, 601/2"
"-30.0976574";"-51.2307492";"street_address";"Av. da Cavalhada, 2370 - Cavalhada, Porto Alegre - RS, 91740-001, Brazil";24;"SERVICO DE MASSAGEM (MASSAGISTAS, MASSAGEM ESTETI-CA, TERAPEUTICA";"AV CAVALHADA, 2370/308"
"-30.0976574";"-51.2307492";"street_address";"Av. da Cavalhada, 2370 - Cavalhada, Porto Alegre - RS, 91740-001, Brazil";25;"SERVICO DE MASSAGEM (MASSAGISTAS, MASSAGEM ESTETI-CA, TERAPEUTICA";"AV CAVALHADA, 2370/308"
"-30.021833";"-51.1625768";"street_address";"Av. T˙lio de Rose, 80 - Passo d'Areia, Porto Alegre - RS, Brazil";26;"SALAO DE BELEZA";"AV TULIO DE ROSE, 80/119"
"-30.035826";"-51.204775";"street_address";"R. S„o Manoel, 228 - Rio Branco, Porto Alegre - RS, 90620-110, Brazil";27;"SALAO DE BELEZA";"R SAO MANOEL, 228"
"-30.1550862";"-51.1412921";"street_address";"Estrada Jo„o AntÙnio da Silveira, 1770 - Restinga, Porto Alegre - RS, 91790-400, Brazil";28;"SALAO DE BELEZA";"ESTR JOAO ANTONIO SILVEIRA, 1770/102"
"-30.036658";"-51.2104409";"street_address";"Av. JosÈ Bonif·cio, 725 - Farroupilha, Porto Alegre - RS, Brazil";29;"SALAO DE BELEZA";"AV JOSE BONIFACIO, 725"
"-30.011495";"-51.1693435";"street_address";"Av. Assis Brasil, 1830 - Passo d'Areia, Porto Alegre - RS, 91010-001, Brazil";30;"SALAO DE BELEZA";"AV ASSIS BRASIL, 1830"
"-30.0307109";"-51.2267736";"street_address";"Av. Sen. Salgado Filho, 86 - Centro HistÛrico, Porto Alegre - RS, 90010-221, Brazil";31;"SALAO DE BELEZA";"AV SENADOR SALGADO FILHO, 86"
"-30.0250095";"-51.1622202";"street_address";"Av. Jo„o Wallig, 1800 - Passo d'Areia, Porto Alegre - RS, Brazil";32;"SALAO DE BELEZA";"AV JOAO WALLIG, 1800/1263"
"-30.0300264";"-51.2231452";"street_address";"PraÁa Dom Feliciano, 36 - Centro HistÛrico, Porto Alegre - RS, Brazil";33;"SALAO DE BELEZA";"PCA DOM FELICIANO, 36"
"-30.0289199";"-51.2256121";"street_address";"R. Vig. JosÈ In·cio, 368 - Centro HistÛrico, Porto Alegre - RS, 90020-110, Brazil";34;"TELE-ENTREGAS";"R VIGARIO JOSE IGNACIO, 368/1203"
"-30.042881";"-51.1906554";"street_address";"R. Faria Santos, 27 - PetrÛpolis, Porto Alegre - RS, 90670-150, Brazil";35;"SALAO DE BELEZA";"R FARIA SANTOS, 27"
"-29.9947405";"-51.1301741";"route";"Av. Assis Brasil, Porto Alegre - RS, Brazil";36;"ESCRITORIO DE CORRETAGEM DE IMOVEIS";"AV ASSIS BRASIL, 2464/304"
"-30.0171882";"-51.1952709";"street_address";"Av. Nova York, 547 - Auxiliadora, Porto Alegre - RS, 90550-070, Brazil";37;"ESCRITORIO DE EDICAO DE PERIODICOS";"AV NOVA YORK, 547/304"
"-30.0321383";"-51.2304266";"establishment";"PraÁa Mal. Deodoro, S/N - Centro HistÛrico, Porto Alegre - RS, 90010-300, Brazil";38;"REPRESENTACAO COMERCIAL (INTERMEDIARIOS DE VENDAS DE MERCADORIAS A";"R JURUA, 521"
"-30.0583316";"-51.1940417";"street_address";"Av. Bento GonÁalves, 2018 - Partenon, Porto Alegre - RS, 90650-000, Brazil";39;"EMPRESA DE LIMPEZA E VIGILANCIA S/ARMAZENAMENDO DEPRODUTOS QUIMICO";"AV BENTO GONCALVES, 2018/6"
"-30.0855729";"-51.2083283";"route";"Tv. Irm„o Pedro - TeresÛpolis, Porto Alegre - RS, 91720-360, Brazil";40;"PROFISSIONAL AUTONOMO";"TRAV IRMAOS CALVET, 55"
"-30.0178358";"-51.1885547";"street_address";"R. Felicissimo de Azevedo, 1020 - S„o Jo„o, Porto Alegre - RS, 90540-110, Brazil";41;"CONSULTORIO MEDICO";"R FELICISSIMO DE AZEVEDO, 1020/301"
"-30.0517208";"-51.2088105";"street_address";"R. OnÛfre PÌres, 31 - Azenha, Porto Alegre - RS, 90650-040, Brazil";42;"LOCACAO DE MAO-DE-OBRA";"R ONOFRE PIRES, 31/502"
"-29.9949206";"-51.129846";"street_address";"Av. Assis Brasil, 6405 - Sarandi, Porto Alegre - RS, 91010-004, Brazil";43;"ESCRITORIO DE CONTABILIDADE";"AV ASSIS BRASIL, 6405/303"
"-30.0220512";"-51.1900285";"street_address";"R. Germano Petersen J˙nior, 629 - HigienÛpolis, Porto Alegre - RS, 90540-140, Brazil";44;"CONSULTORIO MEDICO";"R GERMANO PETERSEN JUNIOR, 629"
"-30.0120642";"-51.1676643";"street_address";"Av. Assis Brasil, 1993 - Passo d'Areia, Porto Alegre - RS, 91010-001, Brazil";45;"SALAO DE BELEZA";"AV ASSIS BRASIL, 1993/207"
"-30.0244329";"-51.2053201";"street_address";"R. Bar„o de Santo ¬ngelo, 152 - Moinhos de Vento, Porto Alegre - RS, 90570-090, Brazil";46;"SALAO DE BELEZA";"R BARAO DE SANTO ANGELO, 152"
"-30.0350752";"-51.2284097";"street_address";"R. Cel. Fernando Machado, 915 - Centro HistÛrico, Porto Alegre - RS, 90010-310, Brazil";47;"CHAVEIROS";"R CEL FERNANDO MACHADO, 915"
"-30.1176734";"-51.1090026";"street_address";"Estr. Jo„o de Oliveira Remi„o, 5800 - Agronomia, Porto Alegre - RS, Brazil";48;"OFICINA DE REPARACAO DE ARTIGOS DE MADEIRA  E DO  MOBILIARIO (MOVE";"ESTR JOAO DE OLIVEIRA REMIAO, 5800"
"-30.0517208";"-51.2088105";"street_address";"R. OnÛfre PÌres, 31 - Azenha, Porto Alegre - RS, 90650-040, Brazil";49;"ESCRITORIO DE CORRETAGEM DE SEGUROS";"R ONOFRE PIRES, 31/301"
"-30.0381892";"-51.2118579";"street_address";"Av. Ven‚ncio Aires, 912 - Farroupilha, Porto Alegre - RS, 90040-132, Brazil";50;"ESCRITORIO DE SERVICOS JURIDICOS";"AV VENANCIO AIRES, 912/305"
"-30.094938";"-51.225661";"street_address";"Av. Nonoai, 1749 - Nonoai, Porto Alegre - RS, 91720-000, Brazil";51;"ESCRITORIO DE SERVICOS JURIDICOS";"AV NONOAI, 1749/9"
"-30.022781";"-51.1518623";"street_address";"Porto Nobre ImÛveis e Noblesse Advocacia - Av. do Forte, 1363 - Vila Ipiranga, Porto Alegre - RS, Brazil";52;"OFICINA DE ASSISTENCIA TECNICA";"AV FORTE, 1363"
"-30.029678";"-51.2293383";"establishment";"R. dos Andradas, 1234 - Centro HistÛrico, Porto Alegre - RS, 90010-000, Brazil";53;"CONSULTORIO MEDICO";"R ANDRADAS, 1781/903"
"-29.9994016";"-51.127119";"premise";"R. Ita˙na, 305 - Sarandi, Porto Alegre - RS, 91130-430, Brazil";54;"PROCESSAMENTO DE DADOS";"R ITAUNA, 305"
"-30.0557633";"-51.1513657";"route";"Via 1 - Jardim Carvalho, Porto Alegre - RS, Brazil";55;"LOCACAO DE CD'S, DISCOS E FITAS";"R ORIGINAL, 45/1"
"-30.0306447";"-51.1821444";"street_address";"R. Regente, 245 - PetrÛpolis, Porto Alegre - RS, 90470-170, Brazil";56;"REPRESENTACAO COMERCIAL (INTERMEDIARIOS DE VENDAS DE MERCADORIAS A";"R REGENTE, 245/701"
"-30.0032925";"-51.2048951";"street_address";"Av. Cair˙, 223 - Navegantes, Porto Alegre - RS, 90230-031, Brazil";57;"OFICINA DE REPARACAO DE MAQUINAS E APARELHOS ELE- TRICOS OU NAO";"R CAIRU, 223"
"-30.0305471";"-51.2271357";"street_address";"R. Mal. Floriano Peixoto, 185 - Centro HistÛrico, Porto Alegre - RS, 90020-060, Brazil";58;"FINANCEIRA";"R MARECHAL FLORIANO PEIXOTO, 185/5"
"-30.0527102";"-51.1832338";"premise";"R. ItaboraÌ, 1090 - Jardim Bot‚nico, Porto Alegre - RS, 90670-030, Brazil";59;"MOTOFRETE";"R ITABORAI, 1090"
"-30.002812";"-51.2011258";"street_address";"Av. Pres. Franklin Roosevelt, 341 - Navegantes, Porto Alegre - RS, 90230-220, Brazil";60;"OFICINA DE REPARACAO DE ARTIGOS DE MADEIRA  E DO  MOBILIARIO (MOVE";"AV PRESIDENTE FRANKLIN ROOSEVELT, 341"
"-29.998946";"-51.135376";"street_address";"Av. SertÛrio, 7107 - Sarandi, Porto Alegre - RS, 91130-721, Brazil";61;"EMPREITEIRA DA CONSTRUCAO CIVIL";"AV SERTORIO, 7107"
"-30.0188205";"-51.1407198";"route";"Av. Professora Paula Soares - Jardim Itu-Sabar·, Porto Alegre - RS, Brazil";62;"ESCRITORIO DE SERVICOS DE DESPACHANTE E PROCURADOR";"AV PROF PAULA SOARES, 737"
"-30.0290046";"-51.2262223";"street_address";"R. Vig. JosÈ In·cio, 371 - Centro HistÛrico, Porto Alegre - RS, 90020-100, Brazil";63;"LABORATORIO DE PROTESE";"R VIGARIO JOSE IGNACIO, 371/1017"
"-30.0070334";"-51.1879838";"street_address";"Av. Benjamin Constant, 261 - S„o Jo„o, Porto Alegre - RS, 90550-003, Brazil";64;"ESCOLA DE LINGUAS";"AV BENJAMIN CONSTANT, 261"
"-30.0421948";"-51.146689";"route";"Av. Prot·sio Alves, Porto Alegre - RS, Brazil";65;"OFICINA DE REPARACAO DE BICICLETAS";"AV PROTASIO ALVES, 8069"
"-30.052255";"-51.1975265";"route";"R. EuclÌdes da Cunha - Partenon, Porto Alegre - RS, Brazil";66;"REPRESENTACAO COMERCIAL (INTERMEDIARIOS DE VENDAS DE MERCADORIAS A";"R EUCLYDES DA CUNHA, 309/297"
"-30.0173742";"-51.2081515";"street_address";"Av. Farrapos, 1597 - Floresta, Porto Alegre - RS, 90220-004, Brazil";67;"OFICINA DE ASSISTENCIA TECNICA";"AV FARRAPOS, 1597/1"
"-30.0510297";"-51.2034909";"street_address";"R. Monsenhor Veras, 179 - Santana, Porto Alegre - RS, 90610-010, Brazil";68;"OFICINA MECANICA PARA AUTOMOVEIS";"R MONSENHOR VERAS, 179"
"-30.0300834";"-51.2275687";"street_address";"Av. Borges de Medeiros, 410 - Centro HistÛrico, Porto Alegre - RS, 90020-023, Brazil";69;"CONSULTORIO ODONTOLOGICO";"AV BORGES DE MEDEIROS, 410/709"
"-30.0150803";"-51.1722848";"premise";"Av. PlÌnio Brasil Milano, 2178 - HigienÛpolis, Porto Alegre - RS, 90520-001, Brazil";70;"PROFISSIONAL AUTONOMO";"AV PLINIO BRASIL MILANO, 2178"
"-30.0241835";"-51.1978316";"street_address";"R. Quintino Bocai˙va, 694 - Floresta, Porto Alegre - RS, 90440-050, Brazil";71;"CONSULTORIO MEDICO";"R QUINTINO BOCAIUVA, 694/406"
"-29.982202";"-51.1316607";"premise";"PraÁa ¡lvares Maciel, 48 - Sarandi, Porto Alegre - RS, 91120-230, Brazil";72;"PROFISSIONAL AUTONOMO";"PCA ALVARES MACIEL, 48"
"-30.030607";"-51.154327";"street_address";"Av. Circular, 59 - Vila Jardim, Porto Alegre - RS, 91320-181, Brazil";73;"OFICINA DE MAQUINAS DE ESCRITORIO E SIMILARES";"AV CIRCULAR, 59"
"-30.0414765";"-51.1846886";"street_address";"Rua Jo„o Abbott, 503 - PetrÛpolis, Porto Alegre - RS, Brazil";74;"CONSULTORIO MEDICO";"R JOAO ABBOTT, 257/503"
"-30.0292896";"-51.2198054";"street_address";"Av. IndependÍncia, 172 - IndependÍncia, Porto Alegre - RS, 90035-072, Brazil";75;"CONSULTORIO MEDICO";"AV INDEPENDENCIA, 172/1003"
"-30.0392583";"-51.2017175";"establishment";"R. Jo„o Guimar„es, 31 - Bom Fim, Porto Alegre - RS, 90630-170, Brazil";76;"ESCRITORIO DE SERVICOS JURIDICOS";"R JOAO GUIMARAES, 31/501"
"-30.0687626";"-51.2034849";"street_address";"R. Dom Jo„o VI, 124 - Medianeira, Porto Alegre - RS, 90660-020, Brazil";77;"REPRESENTACAO COMERCIAL (INTERMEDIARIOS DE VENDAS DE MERCADORIAS A";"R DOM JOAO VI, 124"
"-30.012807";"-51.165697";"street_address";"R. Itapeva, 110 - Passo d'Areia, Porto Alegre - RS, 91350-080, Brazil";78;"REPRESENTACAO COMERCIAL (INTERMEDIARIOS DE VENDAS DE MERCADORIAS A";"R ITAPEVA, 110/303"
"-30.1362283";"-51.2226679";"street_address";"Av. Juca Batista, 231 - Cavalhada, Porto Alegre - RS, Brazil";79;"ESCRITORIO DE CORRETAGEM DE IMOVEIS";"AV JUCA BATISTA, 231/13"
"-30.0281315";"-51.2248061";"street_address";"Rua Doutor Flores, 105 - Centro HistÛrico, Porto Alegre - RS, Brazil";80;"CONSULTORIO ODONTOLOGICO";"R DR FLORES, 105/802"
"-30.0457055";"-51.2284675";"street_address";"R. Dra. Rita Lobato, 191 - Praia de Belas, Porto Alegre - RS, 90110-040, Brazil";81;"ESCRITORIO ADMINISTRATIVO (SEDE ADMINISTRATIVA DE EMPRESA)";"R DRA RITA LOBATO, 191/304"
"-30.0273337";"-51.182692";"street_address";"Rua Furriel LuÌz AntÙnio de Vargas, 250 - Bela Vista, Porto Alegre - RS, 90470-130, Brazil";82;"EDITORACAO GRAFICA, EDICAO E IMPRESSAO DE OUTROS  PRODUTOS GRAFICO";"R FURRIEL LUIZ ANTONIO DE VARGAS, 250/303"
"-30.0816849";"-51.2277829";"route";"Tv. A - Santa Tereza, Porto Alegre - RS, Brazil";83;"PROFISSIONAL AUTONOMO";"TRAV A VILA CRUZEIRO DO SUL, 130"
"-30.0077492";"-51.1861208";"street_address";"Av. Benjamin Constant, 76 - S„o Jo„o, Porto Alegre - RS, 90550-003, Brazil";84;"SALAO DE BELEZA";"AV BENJAMIN CONSTANT, 76/2"
"-30.029678";"-51.2293383";"establishment";"R. dos Andradas, 1234 - Centro HistÛrico, Porto Alegre - RS, 90010-000, Brazil";85;"SALAO DE BELEZA";"R ANDRADAS, 1276/1202"
"-30.0757017";"-51.2009074";"street_address";"R. Prof. Oscar Pereira, 2910 - GlÛria, Porto Alegre - RS, Brazil";86;"SALAO DE BELEZA";"AV PROF OSCAR PEREIRA, 2910/6"
"-29.997207";"-51.129919";"street_address";"R. Zeferino Dias, 977 - Sarandi, Porto Alegre - RS, 91130-480, Brazil";87;"PROFISSIONAL AUTONOMO";"R ZEFERINO DIAS, 977"
"-29.9963677";"-51.1304355";"street_address";"Av. Assis Brasil, 6203 - Sarandi, Porto Alegre - RS, 91010-004, Brazil";88;"ESCRITORIO ADMINISTRATIVO (SEDE ADMINISTRATIVA DE EMPRESA)";"AV ASSIS BRASIL, 6203/608"
"-30.077459";"-51.230356";"street_address";"R. DormÍnio, 448 - Santa Tereza, Porto Alegre - RS, 90840-100, Brazil";89;"PROFISSIONAL AUTONOMO";"R DORMENIO, 448"
"-30.055371";"-51.1938389";"street_address";"R. VerÌssimo Rosa, 311 - Paternon, Porto Alegre - RS, 90610-280, Brazil";90;"EDITORACAO GRAFICA, EDICAO E IMPRESSAO DE OUTROS  PRODUTOS GRAFICO";"R VERISSIMO ROSA, 311"
"-30.0199691";"-51.170855";"premise";"R. Azevedo SodrÈ, 275 - Passo d'Areia, Porto Alegre - RS, 91340-140, Brazil";91;"EDITORACAO GRAFICA, EDICAO E IMPRESSAO DE OUTROS  PRODUTOS GRAFICO";"R AZEVEDO SODRE, 275"
"-30.029112";"-51.2078339";"street_address";"Av. IndependÍncia, 1299 - Moinhos de Vento, Porto Alegre - RS, 90035-077, Brazil";92;"ESCRITORIO DE EDICAO DE PERIODICOS";"AV INDEPENDENCIA, 1299/403"
"-30.0283892";"-51.1888725";"premise";"Rua Tito LÌvio Zambecari, 675 - Mont'Serrat, Porto Alegre - RS, 90450-231, Brazil";93;"EDITORACAO GRAFICA, EDICAO E IMPRESSAO DE OUTROS  PRODUTOS GRAFICO";"R TITO LIVIO ZAMBECARI, 675"
"-30.0393825";"-51.1906487";"street_address";"Av. Lavras, 141 - PetrÛpolis, Porto Alegre - RS, 90460-040, Brazil";94;"ESCRITORIO ADMINISTRATIVO (SEDE ADMINISTRATIVA DE EMPRESA)";"AV LAVRAS, 141/301"
"-30.05823";"-51.222805";"street_address";"Av. Get˙lio Vargas, 1508 - Menino Deus, Porto Alegre - RS, 90150-004, Brazil";95;"GARAGEM E ESTACIONAMENTO PARA VEICULOS, EXCETO OS DE CARGA OU COLE";"AV GETULIO VARGAS, 1508"
"-30.0583405";"-51.2226331";"premise";"Av. Get˙lio Vargas, 1526 - Menino Deus, Porto Alegre - RS, Brazil";96;"EDITORACAO GRAFICA, EDICAO E IMPRESSAO DE OUTROS  PRODUTOS GRAFICO";"AV GETULIO VARGAS, 1526"
"-30.058718";"-51.222869";"street_address";"Av. Get˙lio Vargas, 1556 - Menino Deus, Porto Alegre - RS, 90150-004, Brazil";97;"GARAGEM E ESTACIONAMENTO PARA VEICULOS, EXCETO OS DE CARGA OU COLE";"AV GETULIO VARGAS, 1556"
"-30.0294717";"-51.2152899";"street_address";"Av. IndependÍncia, 601 - IndependÍncia, Porto Alegre - RS, 90035-071, Brazil";98;"EDITORACAO GRAFICA, EDICAO E IMPRESSAO DE OUTROS  PRODUTOS GRAFICO";"AV INDEPENDENCIA, 601/201"
"-30.027001";"-51.1814414";"street_address";"Rua Furriel LuÌz AntÙnio de Vargas, 380 - Bela Vista, Porto Alegre - RS, 90470-130, Brazil";99;"EDITORACAO GRAFICA, EDICAO E IMPRESSAO DE OUTROS  PRODUTOS GRAFICO";"R FURRIEL LUIZ ANTONIO DE VARGAS, 380/411"
"-30.016036";"-51.190164";"street_address";"R. Marcelo Gama, 675 - HigienÛpolis, Porto Alegre - RS, 90540-040, Brazil";100;"EDITORACAO GRAFICA, EDICAO E IMPRESSAO DE OUTROS  PRODUTOS GRAFICO";"R MARCELO GAMA, 675"
"-29.9988842";"-51.1345789";"street_address";"Av. SertÛrio, 7170 - Sarandi, Porto Alegre - RS, Brazil";101;"EDITORACAO GRAFICA, EDICAO E IMPRESSAO DE OUTROS  PRODUTOS GRAFICO";"AV SERTORIO, 7170/301"
"-30.0056111";"-51.2030416";"street_address";"Av. P·tria, 466 - S„o Geraldo, Porto Alegre - RS, 90230-070, Brazil";102;"EDITORACAO GRAFICA, EDICAO E IMPRESSAO DE OUTROS  PRODUTOS GRAFICO";"AV PATRIA, 466"
"-29.9919351";"-51.1290242";"street_address";"Av. 21 de Abril, 127 - Sarandi, Porto Alegre - RS, Brazil";103;"EDITORACAO GRAFICA, EDICAO E IMPRESSAO DE OUTROS  PRODUTOS GRAFICO";"AV VINTE UM DE ABRIL, 127/202"
"-30.0334475";"-51.2266204";"establishment";"R. Duque de Caxias, 1464 - Centro HistÛrico, Porto Alegre - RS, Brazil";104;"ESCRITORIO ADMINISTRATIVO (SEDE ADMINISTRATIVA DE EMPRESA)";"R DUQUE DE CAXIAS, 1464/1"
"-30.0389903";"-51.2245311";"street_address";"R. da Rep˙blica, 493 - Cidade Baixa, Porto Alegre - RS, 90050-320, Brazil";105;"ESCRITORIO ADMINISTRATIVO (SEDE ADMINISTRATIVA DE EMPRESA)";"R REPUBLICA, 493/402"
"-30.0214112";"-51.1854606";"street_address";"Av. Augusto Meyer, 163 - Auxiliadora, Porto Alegre - RS, 90550-110, Brazil";106;"EDITORACAO GRAFICA, EDICAO E IMPRESSAO DE OUTROS  PRODUTOS GRAFICO";"AV AUGUSTO MEYER, 163/605"
"-30.029678";"-51.2293383";"establishment";"R. dos Andradas, 1234 - Centro HistÛrico, Porto Alegre - RS, 90010-000, Brazil";107;"ESCRITORIO DE ADMINISTRACAO (SERVIçO DE ASSESSORIAADMINISTRATIVA)";"R ANDRADAS, 1755/73"
"-30.0270911";"-51.2295283";"street_address";"R. Uruguai, 35 - Centro HistÛrico, Porto Alegre - RS, 90010-140, Brazil";108;"EDITORACAO GRAFICA, EDICAO E IMPRESSAO DE OUTROS  PRODUTOS GRAFICO";"R URUGUAI, 35"
"-30.0209003";"-51.1864617";"premise";"R. Dom Pedro II, 1563 - S„o Jo„o, Porto Alegre - RS, 90550-142, Brazil";109;"EDITORACAO GRAFICA, EDICAO E IMPRESSAO DE OUTROS  PRODUTOS GRAFICO";"R DOM PEDRO II, 1563"
"-30.0278384";"-51.2304199";"establishment";"R. Gen. C‚mara, 60 - Centro HistÛrico, Porto Alegre - RS, 90010-230, Brazil";110;"EDITORACAO GRAFICA, EDICAO E IMPRESSAO DE OUTROS  PRODUTOS GRAFICO";"R GEN CAMARA, 381/202"
"-30.0587194";"-51.1585806";"premise";"Rua Waldomiro Schapke, 77 - Partenon, Porto Alegre - RS, 91530-390, Brazil";111;"ESCRITORIO DE IMPORTACAO E EXPORTACAO";"R WALDOMIRO SCHAPKE, 77"
"-30.0842446";"-51.2465905";"street_address";"0x951978a0d63d500d:0x15716d4550ce8aad - Av. Di·rio de NotÌcias, 200 - Cristal, Porto Alegre - RS, Brazil";112;"EDITORACAO GRAFICA, EDICAO E IMPRESSAO DE OUTROS  PRODUTOS GRAFICO";"AV DIARIO DE NOTICIAS, 200/701"
"-30.0221983";"-51.1930141";"street_address";"R. 24 de Outubro, 1557 - Auxiliadora, Porto Alegre - RS, Brazil";113;"ESCRITORIO DE EDICAO DE PERIODICOS";"R VINTE QUATRO DE OUTUBRO, 1557/3"
"-30.0912024";"-51.2352816";"street_address";"R. Comandai, 801 - Cristal, Porto Alegre - RS, 90830-530, Brazil";114;"EDITORACAO GRAFICA, EDICAO E IMPRESSAO DE OUTROS  PRODUTOS GRAFICO";"R COMANDAI, 801"
"-30.0319253";"-51.2276236";"street_address";"Av. Borges de Medeiros, 612 - Centro HistÛrico, Porto Alegre - RS, 90020-024, Brazil";115;"ESCRITORIO DE EDICAO DE PERIODICOS";"AV BORGES DE MEDEIROS, 612/36"
"-30.0305244";"-51.2259518";"street_address";"R. Vig. JosÈ In·cio, 547 - Centro HistÛrico, Porto Alegre - RS, 90020-100, Brazil";116;"EDITORACAO GRAFICA, EDICAO E IMPRESSAO DE OUTROS  PRODUTOS GRAFICO";"R VIGARIO JOSE IGNACIO, 547/1308"
"-30.0420775";"-51.2151111";"street_address";"R. Olavo Bilac, 435 - Azenha, Porto Alegre - RS, 90040-310, Brazil";117;"ESCRITORIO ADMINISTRATIVO (SEDE ADMINISTRATIVA DE EMPRESA)";"R OLAVO BILAC, 435"
"-30.0795724";"-51.2090472";"street_address";"Av. TeresÛpolis, 2956 - TeresÛpolis, Porto Alegre - RS, 90870-000, Brazil";118;"REPRESENTACAO COMERCIAL (INTERMEDIARIOS DE VENDAS DE MERCADORIAS A";"AV TERESOPOLIS, 2956/308"
"-30.0281551";"-51.1811297";"street_address";"Alameda Coelho Neto, 20 - Boa Vista, Porto Alegre - RS, 91340-340, Brazil";119;"ESCRITORIO ADMINISTRATIVO (SEDE ADMINISTRATIVA DE EMPRESA)";"AL COELHO NETO, 20/306"
"-30.0419103";"-51.1843137";"street_address";"Av. Taquara, 386 - PetrÛpolis, Porto Alegre - RS, 90460-210, Brazil";120;"EDITORACAO GRAFICA, EDICAO E IMPRESSAO DE OUTROS  PRODUTOS GRAFICO";"AV TAQUARA, 386/908"
"-30.0182326";"-51.1988231";"street_address";"Av. CristÛv„o Colombo, 2149 - Floresta, Porto Alegre - RS, 90560-002, Brazil";121;"EDITORACAO GRAFICA, EDICAO E IMPRESSAO DE OUTROS  PRODUTOS GRAFICO";"AV CRISTOVAO COLOMBO, 2149/411"
"-30.04127";"-51.186439";"street_address";"Av. IjuÌ, 280 - PetrÛpolis, Porto Alegre - RS, 90460-200, Brazil";122;"ESCRITORIO DE EDICAO DE PERIODICOS";"AV IJUI, 280"
"-30.0327739";"-51.2177984";"establishment";"Av. Osvaldo Aranha, 440 - Bom Fim, Porto Alegre - RS, Brazil";123;"ESCRITORIO DE PROMOCOES";"AV OSVALDO ARANHA, 440/101"
"-30.019096";"-51.211234";"street_address";"Rua Hoffmann, 239 - Floresta, Porto Alegre - RS, 90220-170, Brazil";124;"EDITORACAO GRAFICA, EDICAO E IMPRESSAO DE OUTROS  PRODUTOS GRAFICO";"R HOFFMANN, 239"
"-30.031437";"-51.225579";"beauty_salon";"R. Riachuelo, 1582 - Centro HistÛrico, Porto Alegre - RS, 90010-273, Brazil";125;"EDITORACAO GRAFICA, EDICAO E IMPRESSAO DE OUTROS  PRODUTOS GRAFICO";"R RIACHUELO, 904"
"-30.1035859";"-51.2508303";"street_address";"Av. Copacabana, 1011 - Tristeza, Porto Alegre - RS, Brazil";126;"ESCRITORIO DE PROMOCOES";"AV COPACABANA, 1011"
"-30.029112";"-51.2078339";"street_address";"Av. IndependÍncia, 1299 - Moinhos de Vento, Porto Alegre - RS, 90035-077, Brazil";127;"ESCRITORIO DE EDICAO DE PERIODICOS";"AV INDEPENDENCIA, 1299/403"
"-30.0292446";"-51.2142302";"street_address";"Av. IndependÍncia, 702 - IndependÍncia, Porto Alegre - RS, 90035-074, Brazil";128;"ESCRITORIO DE PUBLICIDADE E PROPAGANDA";"AV INDEPENDENCIA, 702"
"-30.0231191";"-51.1941798";"street_address";"R. Felipe Neri, 148 - Auxiliadora, Porto Alegre - RS, 90440-150, Brazil";129;"EDITORACAO GRAFICA, EDICAO E IMPRESSAO DE OUTROS  PRODUTOS GRAFICO";"R FELIPE NERI, 148/301"
"-30.0275718";"-51.2255137";"street_address";"R. Vig. JosÈ In·cio, 216 - Centro, Porto Alegre - RS, 90020-110, Brazil";130;"EDITORACAO GRAFICA, EDICAO E IMPRESSAO DE OUTROS  PRODUTOS GRAFICO";"R VIGARIO JOSE IGNACIO, 216/501"
"-30.0455741";"-51.199482";"street_address";"R. Livramento, 310 - Santana, Porto Alegre - RS, 90640-130, Brazil";131;"ESCOLA ESPECIAL";"R LIVRAMENTO, 310"
"-30.0110636";"-51.198808";"street_address";"Av. Par·, 984 - S„o Geraldo, Porto Alegre - RS, 90240-592, Brazil";132;"EDITORACAO GRAFICA, EDICAO E IMPRESSAO DE OUTROS  PRODUTOS GRAFICO";"AV PARA, 984/201"
"-30.0270592";"-51.209721";"street_address";"R. GonÁalo de Carvalho, 433 - Floresta, Porto Alegre - RS, 90035-170, Brazil";133;"EDITORACAO GRAFICA, EDICAO E IMPRESSAO DE OUTROS  PRODUTOS GRAFICO";"R GONCALO DE CARVALHO, 433"
"-30.0482645";"-51.2087211";"street_address";"Av. Princesa Isabel, 500 - Santana, Porto Alegre - RS, 90620-001, Brazil";134;"PROFISSIONAL AUTONOMO";"AV PRINCESA ISABEL, 500/718"
"-30.0508421";"-51.1879838";"premise";"R. ItaboraÌ, 550 - Jardim Bot‚nico, Porto Alegre - RS, 90670-030, Brazil";135;"LOCACAO DE FITAS DE VIDEO";"R ITABORAI, 550"
"-30.0856662";"-51.2275178";"street_address";"PraÁa Grande Oriente do Rio Grande do Sul, 44 - Santa Tereza, Porto Alegre - RS, 90830-590, Brazil";136;"ESCRITORIO DE VENDAS (PRODUTOS PROPRIOS SEM INTERMDIACAO DE TERCEI";"PCA GRANDE ORIENTE DO RIO GRANDE DO SUL, 44"
"-30.011243";"-51.183468";"street_address";"R. Portugal, 303 - S„o Jo„o, Porto Alegre - RS, 90520-310, Brazil";137;"ESCRITORIO ADMINISTRATIVO (SEDE ADMINISTRATIVA DE EMPRESA)";"R PORTUGAL, 303"
"-30.041135";"-51.191738";"street_address";"Av. Prot·sio Alves, 1648 - PetrÛpolis, Porto Alegre - RS, 90410-005, Brazil";138;"SALAO DE BELEZA";"AV PROTASIO ALVES, 1648"
"-30.04117";"-51.212668";"street_address";"R. Santana, 292 - Farroupilha, Porto Alegre - RS, 90040-370, Brazil";139;"LABORATORIO DE PROTESE";"R SANTANA, 292/206"
"-30.0602363";"-51.2294788";"street_address";"R. Antenor Lemos, 57 - Menino Deus, Porto Alegre - RS, 90850-100, Brazil";140;"CONSULTORIO ODONTOLOGICO";"R ANTENOR LEMOS, 57/406"
"-30.0110787";"-51.1667516";"street_address";"Rua Jo„o de Magalh„es,, 73 - Passo d'Areia, Porto Alegre - RS, Brazil";141;"CONSULTORIO DE PSICOLOGIA";"R JOAO DE MAGALHAES, 73"
"-30.0164458";"-51.1970802";"street_address";"Av. Benjamin Constant, 1755 - S„o Jo„o, Porto Alegre - RS, Brazil";142;"OFICINA DE ASSISTENCIA TECNICA";"AV BENJAMIN CONSTANT, 1755/401"
"-30.0282728";"-51.2256297";"street_address";"R. Vig. JosÈ In·cio, 295 - Centro, Porto Alegre - RS, 90020-110, Brazil";143;"ESCRITORIO DE SERVICOS JURIDICOS";"R VIGARIO JOSE IGNACIO, 295/507"
"-30.0756669";"-51.2078464";"street_address";"Av. TeresÛpolis, 2504 - TeresÛpolis, Porto Alegre - RS, 90870-000, Brazil";144;"ESCRITORIO DE SERVICOS DE DESPACHANTE E PROCURADOR";"AV TERESOPOLIS, 2504"
"-30.0115492";"-51.1706227";"street_address";"Av. Brasiliano Õndio de Moraes, 872 - Passo d'Areia, Porto Alegre - RS, 91030-000, Brazil";145;"SALAO DE BELEZA";"AV BRASILIANO INDIO DE MORAES, 872"
"-30.0476611";"-51.200493";"street_address";"R. S„o Francisco, 497 - Santana, Porto Alegre - RS, 90620-070, Brazil";146;"EDITORACAO GRAFICA, EDICAO E IMPRESSAO DE OUTROS  PRODUTOS GRAFICO";"R SAO FRANCISCO, 497"
"-30.0280252";"-51.2191478";"street_address";"Av. Alberto Bins, 741 - Centro, Porto Alegre - RS, 90035-143, Brazil";147;"OFICINA DE REPARACAO DE ARTIGOS DIVERSOS NAO ESPE-CIFICADOS";"AV ALBERTO BINS, 741"
"-30.0523242";"-51.1820008";"street_address";"Rua Surup·, 208 - Jardim Bot‚nico, Porto Alegre - RS, 90690-290, Brazil";148;"SALAO DE BELEZA";"R SURUPA, 208"
"-30.0863423";"-51.2391167";"street_address";"R. ButuÌ, 144 - Cristal, Porto Alegre - RS, 90820-150, Brazil";149;"ESCRITORIO ADMINISTRATIVO (SEDE ADMINISTRATIVA DE EMPRESA)";"R BUTUI, 144/204"
"-30.0656958";"-51.1921942";"street_address";"R. Batista Xavier, 533 - Partenon, Porto Alegre - RS, 90680-120, Brazil";150;"ESCRITORIO DE VENDAS (PRODUTOS PROPRIOS SEM INTERMDIACAO DE TERCEI";"R BATISTA XAVIER, 533"
"-30.0582161";"-51.2292508";"street_address";"R. Costa, 30 - Menino Deus, Porto Alegre - RS, 90110-270, Brazil";151;"CONSULTORIO MEDICO";"R COSTA, 30/705"
"-30.0262208";"-51.212016";"street_address";"Av. CristÛv„o Colombo, 545 - Floresta, Porto Alegre - RS, 90560-003, Brazil";152;"SALAO DE BELEZA";"AV CRISTOVAO COLOMBO, 545/2022"
"-30.035227";"-51.2077808";"establishment";"R. CÈsar Lombroso, 49 - Rio Branco, Porto Alegre - RS, 90420-130, Brazil";153;"CONSULTORIO DE PSICOLOGIA";"R CESAR LOMBROSO, 49/503"
"-30.0557099";"-51.2224223";"street_address";"Av. Get˙lio Vargas, 1244 - Menino Deus, Porto Alegre - RS, 90150-000, Brazil";154;"SALAO DE BELEZA";"AV GETULIO VARGAS, 1244"
"-30.1024155";"-51.2331";"street_address";"Av. Otto Niemeyer, 2658 - Tristeza, Porto Alegre - RS, 91910-001, Brazil";155;"SALAO DE BELEZA PARA ANIMAIS";"AV OTTO NIEMEYER, 2658/4"
"-30.029678";"-51.2293383";"establishment";"R. dos Andradas, 1234 - Centro HistÛrico, Porto Alegre - RS, 90010-000, Brazil";156;"CONSULTORIO MEDICO";"R ANDRADAS, 1711/804"
"-30.0299742";"-51.2258624";"street_address";"R. Vig. JosÈ In·cio, 481 - Centro HistÛrico, Porto Alegre - RS, 90020-100, Brazil";157;"CONSULTORIO DE TERAPIAS ALTERNATIVAS";"R VIGARIO JOSE IGNACIO, 481/63"
"-30.029678";"-51.2293383";"establishment";"R. dos Andradas, 1234 - Centro HistÛrico, Porto Alegre - RS, 90010-000, Brazil";158;"ESCRITORIO DE SERVICOS DE CONSULTORIA";"R ANDRADAS, 1234/1808"
"-30.0117499";"-51.1655676";"establishment";"Av. Assis Brasil, 2185 - Passo d'Areia, Porto Alegre - RS, Brazil";159;"SERVICO DE PODOLOGIA";"AV ASSIS BRASIL, 2185/201"
"-30.0764163";"-51.1683371";"establishment";"R. Dona Firmina, 1650 - S„o JosÈ, Porto Alegre - RS, 91520-210, Brazil";160;"PROFISSIONAL AUTONOMO";"R ERNESTO ARAUJO, 46"
"-30.1582592";"-51.1946";"route";"Av. Juca Batista, Porto Alegre - RS, Brazil";161;"SALAO DE BELEZA";"AV JUCA BATISTA, 925/108"
"-30.0424905";"-51.1878466";"street_address";"Av. Itaqui, 99 - PetrÛpolis, Porto Alegre - RS, 90460-140, Brazil";162;"CONSULTORIO ODONTOLOGICO";"AV ITAQUI, 99/301"
"-30.0394053";"-51.1717395";"street_address";"Av. Prot·sio Alves, 3930 - Alto PetrÛpolis, Porto Alegre - RS, Brazil";163;"CONSULTORIO DE TERAPIAS ALTERNATIVAS";"AV PROTASIO ALVES, 3930"
"-30.0572312";"-51.229501";"street_address";"Av. Praia de Belas, 2064 - Menino Deus, Porto Alegre - RS, 90850-100, Brazil";164;"GARAGEM E ESTACIONAMENTO PARA VEICULOS, EXCETO OS DE CARGA OU COLE";"AV PRAIA DE BELAS, 2064"
"-30.029678";"-51.2293383";"establishment";"R. dos Andradas, 1234 - Centro HistÛrico, Porto Alegre - RS, 90010-000, Brazil";165;"AGENCIA DE VIAGENS E TURISMO";"R ANDRADAS, 1234/1801"
"-30.0414407";"-51.1776019";"street_address";"Av. Prot·sio Alves, 3173 - PetrÛpolis, Porto Alegre - RS, 91360-001, Brazil";166;"ESCRITORIO DE SERVICOS DE DESPACHANTE E PROCURADOR";"AV PROTASIO ALVES, 3173/401"
"-30.029678";"-51.2293383";"establishment";"R. dos Andradas, 1234 - Centro HistÛrico, Porto Alegre - RS, 90010-000, Brazil";167;"CORRETORA";"R ANDRADAS, 1137/1410"
"-30.0113";"-51.1564234";"street_address";"R. Ad„o Baino, 89 - Cristo Redentor, Porto Alegre - RS, 91350-240, Brazil";168;"TELE-ENTREGAS";"R ADAO BAINO, 89/201"
"-30.0329429";"-51.1795398";"street_address";"Av. Soledade, 498 - PetrÛpolis, Porto Alegre - RS, 90470-340, Brazil";169;"SERVICO DE MASSAGEM (MASSAGISTAS, MASSAGEM ESTETI-CA, TERAPEUTICA";"AV SOLEDADE, 498"
"-30.0299932";"-51.2232178";"street_address";"PraÁa Dom Feliciano, 39 - Centro HistÛrico, Porto Alegre - RS, Brazil";170;"CONSULTORIO MEDICO";"PCA DOM FELICIANO, 39/803"
"-30.0299932";"-51.2232178";"street_address";"PraÁa Dom Feliciano, 39 - Centro HistÛrico, Porto Alegre - RS, Brazil";171;"CONSULTORIO MEDICO";"PCA DOM FELICIANO, 39/703"
"-30.0300817";"-51.2248339";"street_address";"Rua Doutor Flores, 323 - Centro HistÛrico, Porto Alegre - RS, Brazil";172;"ESCRITORIO ADMINISTRATIVO (SEDE ADMINISTRATIVA DE EMPRESA)";"R DR FLORES, 323/24"
"-30.0457336";"-51.2276455";"street_address";"Av. Praia de Belas, 789 - Praia de Belas, Porto Alegre - RS, 90110-001, Brazil";173;"SALAO DE BELEZA";"AV PRAIA DE BELAS, 789"
"-30.063702";"-51.230457";"street_address";"R. Miguel Couto, 243 - Menino Deus, Porto Alegre - RS, 90850-050, Brazil";174;"GARAGEM E ESTACIONAMENTO PARA VEICULOS, EXCETO OS DE CARGA OU COLE";"R MIGUEL COUTO, 243"
"-30.0237572";"-51.2000357";"street_address";"R. 24 de Outubro, 874 - IndependÍncia, Porto Alegre - RS, 90510-001, Brazil";175;"ESCOLA DE LINGUAS";"R VINTE QUATRO DE OUTUBRO, 874"
"-30.0292409";"-51.2258159";"street_address";"R. Vig. JosÈ In·cio, 399 - Centro HistÛrico, Porto Alegre - RS, 90020-110, Brazil";176;"ESCRITORIO DE SERVICOS JURIDICOS";"R VIGARIO JOSE IGNACIO, 399/612"
"-30.010333";"-51.205241";"street_address";"Av. S„o Paulo, 859 - S„o Geraldo, Porto Alegre - RS, 90230-160, Brazil";177;"ESCRITORIO DE CORRETAGEM DE SEGUROS";"AV SAO PAULO, 859"
"-30.1804702";"-51.1883038";"street_address";"R. das AzalÈias, 55 - Ponta Grossa, Porto Alegre - RS, 91780-789, Brazil";178;"OFICINA DE PINTURA DE PLACAS E LETREIROS";"R AZALEIAS, 55"
"-29.9877953";"-51.1253712";"street_address";"Av. Martins Bastos, 941 - Sarandi, Porto Alegre - RS, 91120-420, Brazil";179;"OFICINA DE REPARACAO DE MOTOCICLETAS";"AV MARTINS BASTOS, 941"
"-30.209925";"-51.181253";"street_address";"R. Dr. CecÌlio Monza, 10914 - BelÈm Novo, Porto Alegre - RS, 91780-060, Brazil";180;"CONSULTORIO MEDICO";"R DR CECILIO MONZA, 10914"
"-29.9880542";"-51.1260168";"premise";"Av. AlcÌdes Maia, 299 - Sarandi, Porto Alegre - RS, 91120-440, Brazil";181;"OFICINA ELETRICA PARA AUTOMOVEIS";"AV ALCIDES MAIA, 299"
"-30.0536982";"-51.1847594";"street_address";"Rua Jo„o de Castilhos, 25 - Jardim Bot‚nico, Porto Alegre - RS, 90690-220, Brazil";182;"CONSULTORIO ODONTOLOGICO";"R JOAO DE CASTILHO, 25/1"
"-30.0121966";"-51.1877488";"street_address";"R. Dom Pedro II, 592 - S„o Jo„o, Porto Alegre - RS, 90550-140, Brazil";183;"CASAS NOTURNAS";"R DOM PEDRO II, 592"
"-30.0557099";"-51.2224223";"street_address";"Av. Get˙lio Vargas, 1244 - Menino Deus, Porto Alegre - RS, 90150-000, Brazil";184;"SALAO DE BELEZA";"AV GETULIO VARGAS, 1244"
"-30.024165";"-51.206407";"street_address";"R. Santo In·cio, 140 - Moinhos de Vento, Porto Alegre - RS, 90570-150, Brazil";185;"ESCOLA DE DANCA";"R SANTO INACIO, 140"
"-30.0369741";"-51.1805022";"street_address";"Av. Lajeado, 991 - PetrÛpolis, Porto Alegre - RS, 90460-110, Brazil";186;"SALAO DE BELEZA";"AV LAGEADO, 991"
"-30.0534745";"-51.1880553";"street_address";"R. ValparaÌso, 638 - Jardim Bot‚nico, Porto Alegre - RS, 90690-300, Brazil";187;"SALAO DE BELEZA";"R VALPARAISO, 638"
"-29.9935685";"-51.1285563";"street_address";"Av. Assis Brasil, 6605 - Passo d'Areia, Porto Alegre - RS, 91010-004, Brazil";188;"SALAO DE BELEZA";"AV ASSIS BRASIL, 6605/206"
"-30.0619712";"-51.1720752";"street_address";"Av. Bento GonÁalves, 4391 - Partenon, Porto Alegre - RS, 90650-002, Brazil";189;"SALAO DE BELEZA";"AV BENTO GONCALVES, 4391"
"-30.0343362";"-51.2125467";"street_address";"Rua General Jo„o Telles, 542 - Bom Fim, Porto Alegre - RS, 90035-120, Brazil";190;"CONSULTORIO DE PSICOLOGIA";"R GEN JOAO TELLES, 542/702"
"-30.0593049";"-51.2290634";"street_address";"R. JosÈ de Alencar, 286 - Menino Deus, Porto Alegre - RS, 90880-481, Brazil";191;"SALAO DE BELEZA";"R JOSE DE ALENCAR, 286"
"-30.0013803";"-51.164699";"car_repair";"R. da V·rzea, 400 - Jardim Sao Pedro, Porto Alegre - RS, 91040-600, Brazil";192;"TELE-ENTREGAS";"R VARZEA, 366"
"-30.0421948";"-51.146689";"route";"Av. Prot·sio Alves, Porto Alegre - RS, Brazil";193;"OFICINA DE LAVAGEM";"AV PROTASIO ALVES, 7917"
"-30.1591569";"-51.1813693";"route";"Rua BaldoÌno Bottini - Campo Novo, Porto Alegre - RS, Brazil";194;"SALAO DE BELEZA PARA ANIMAIS";"R BALDOINO BOTTINI, 39"
"-30.0436551";"-51.1852164";"street_address";"Av. Prot·sio Alves, 2390 - Alto PetrÛpolis, Porto Alegre - RS, Brazil";195;"SERVICO DE TATUAGEM";"AV PROTASIO ALVES, 2390"
"-30.0276893";"-51.1811527";"street_address";"Av. Carlos Gomes, 700 - Auxiliadora, Porto Alegre - RS, 90480-001, Brazil";196;"ESCRITORIO DE SERVICOS JURIDICOS";"AV CARLOS GOMES, 700/502"
"-30.0271492";"-51.131802";"route";"Rua Tenente Ary TarragÙ, Porto Alegre - RS, Brazil";197;"OFICINA MECANICA PARA AUTOMOVEIS";"R TEN ARY TARRAGO, 1765"
"-30.0318362";"-51.1794137";"street_address";"Av. Carlos Gomes, 1200 - Auxiliadora, Porto Alegre - RS, 90480-001, Brazil";198;"CONSULTORIO MEDICO";"AV CARLOS GOMES, 1200/805"
"-30.1544228";"-51.1421436";"route";"Ac. V - Restinga, Porto Alegre - RS, 91792-010, Brazil";199;"ESCRITORIO DE CONTABILIDADE";"AC C SQ TRES TERCEIRA UV VL N RESTINGA, 3188"
"-30.0177795";"-51.1994903";"street_address";"Av. CristÛv„o Colombo, 2144 - Floresta, Porto Alegre - RS, 90560-002, Brazil";200;"AGENCIA DE VIAGENS E TURISMO";"AV CRISTOVAO COLOMBO, 2144/304"
"-30.0534745";"-51.1880553";"street_address";"R. ValparaÌso, 638 - Jardim Bot‚nico, Porto Alegre - RS, 90690-300, Brazil";201;"SALAO DE BELEZA";"R VALPARAISO, 638"
"-30.0675619";"-51.2054602";"street_address";"R. Prof. Oscar Pereira, 1932 - GlÛria, Porto Alegre - RS, 90660-080, Brazil";202;"OFICINA MECANICA PARA AUTOMOVEIS";"AV PROF OSCAR PEREIRA, 1932"
"-30.0239651";"-51.1969999";"street_address";"R. Cel. Bordini, 689 - Auxiliadora, Porto Alegre - RS, 90440-001, Brazil";203;"CONSULTORIO DE PSICOLOGIA";"R CEL BORDINI, 689/702"
"-30.041709";"-51.190972";"street_address";"R. AmÈlia TÈles, 90 - PetrÛpolis, Porto Alegre - RS, 90460-070, Brazil";204;"CONSULTORIO MEDICO";"R AMELIA TELES, 90/303"
"-29.9981866";"-51.1283437";"premise";"Rua Arar·s, 290 - Sarandi, Porto Alegre - RS, 91130-370, Brazil";205;"OFICINA DE ASSISTENCIA TECNICA";"R ARARAS, 290"
"-30.0443554";"-51.1861198";"street_address";"R. Gen. Souza Doca, 71 - PetrÛpolis, Porto Alegre - RS, 90630-050, Brazil";206;"CONSULTORIO ODONTOLOGICO";"R GEN SOUZA DOCA, 71/401"
"-30.0026115";"-51.1668125";"route";"Av. SertÛrio, Porto Alegre - RS, Brazil";207;"ESCRITORIO DE SERVICOS DE DESPACHANTE E PROCURADOR";"AV SERTORIO, 5200"
"-30.0105306";"-51.206224";"street_address";"R. Moura Azevedo, 308 - S„o Geraldo, Porto Alegre - RS, 90230-150, Brazil";208;"ESCRITORIO DE SERVICOS DE DESPACHANTE E PROCURADOR";"R MOURA AZEVEDO, 308/202"
"-30.0552796";"-51.1733766";"street_address";"Av. Ipiranga, 6690 - Jardim Bot‚nico, Porto Alegre - RS, Brazil";209;"CONSULTORIO MEDICO";"AV IPIRANGA, 6690/712"
"-30.0302561";"-51.2038247";"street_address";"R. Mariante, 288 - Rio Branco, Porto Alegre - RS, 90430-180, Brazil";210;"CONSULTORIO MEDICO";"R MARIANTE, 288/806"
"-30.032753";"-51.1667017";"street_address";"Rua Gustavo Schmidt, 580 - TrÍs Figueiras, Porto Alegre - RS, 91330-360, Brazil";211;"CONSULTORIO MEDICO";"R GUSTAVO SCHMIDT, 580"
"-30.0287905";"-51.2287267";"establishment";"R. Uruguai, 240 - Centro HistÛrico, Porto Alegre - RS, 90010-140, Brazil";212;"CONSULTORIO ODONTOLOGICO";"R URUGUAI, 335/54"
"-30.051713";"-51.149811";"bus_station";"Jardim Carvalho, Porto Alegre - RS, 91430-260, Brazil";213;"PROFISSIONAL AUTONOMO";"PSG DEZ CEFER DOIS, 720"
"-30.007607";"-51.187251";"street_address";"R. Pedro AmÈrico, 40 - S„o Jo„o, Porto Alegre - RS, 90550-100, Brazil";214;"FOTOCOPIAS, COPIAS HELIOGRAFICAS E PLASTIFICACAO";"R PEDRO AMERICO, 40"
"-30.0298722";"-51.2256283";"establishment";"R. dos Andradas, 1593 - Centro HistÛrico, Porto Alegre - RS, 90010-140, Brazil";215;"ESCRITORIO DE CORRETAGEM DE IMOVEIS";"R ANDRADAS, 1204"
"-30.0308141";"-51.2283512";"street_address";"R. Gen. Andrade Neves, 155 - Centro HistÛrico, Porto Alegre - RS, Brazil";216;"SALAO DE BELEZA";"R GEN ANDRADE NEVES, 155/4"
"-30.153983";"-51.220194";"street_address";"Av. da Serraria, 1207 - Guaruj·, Porto Alegre - RS, 91770-010, Brazil";217;"SALAO DE BELEZA";"AV SERRARIA, 1207"
"-30.030605";"-51.2249156";"street_address";"Rua Doutor Flores, 381 - Centro HistÛrico, Porto Alegre - RS, 90020-121, Brazil";218;"SALAO DE BELEZA";"R DR FLORES, 381"
"-30.1155388";"-51.2498038";"street_address";"Rua Padre Jo„o Batista Reus, 1290 - Vila ConceiÁ„o, Porto Alegre - RS, Brazil";219;"ESCRITORIO DE PROMOCOES";"R PADRE JOAO BATISTA REUS, 1290/3"
"-30.0336775";"-51.2142833";"street_address";"Av. Osvaldo Aranha, 790 - Bom Fim, Porto Alegre - RS, 90035-190, Brazil";220;"REPRESENTACAO COMERCIAL (INTERMEDIARIOS DE VENDAS DE MERCADORIAS A";"AV OSVALDO ARANHA, 790/302"
"-30.0317262";"-51.2255877";"street_address";"R. Riachuelo, 1601 - Centro HistÛrico, Porto Alegre - RS, 90010-270, Brazil";221;"ESCOLA PREPARATORIA";"R RIACHUELO, 1601/201"
"-30.0440284";"-51.190221";"premise";"R. Faria Santos, 142 - PetrÛpolis, Porto Alegre - RS, 90670-150, Brazil";222;"CONSULTORIO MEDICO";"R FARIA SANTOS, 142"
"-30.0271492";"-51.131802";"route";"Rua Tenente Ary TarragÙ, Porto Alegre - RS, Brazil";223;"SERVICO DE GUINCHO SEM DEPOSITO";"R TEN ARY TARRAGO, 3245/4"
"-30.0309404";"-51.2235845";"street_address";"Rua Professor Annes Dias, 285 - Centro HistÛrico, Porto Alegre - RS, 90010-490, Brazil";224;"CONSULTORIO MEDICO";"R PROF ANNES DIAS, 285"
"-30.016078";"-51.1079451";"street_address";"Av. Delmar Rocha Barbosa, 19 - Rubem Berta, Porto Alegre - RS, Brazil";225;"CONSULTORIO ODONTOLOGICO";"AV DELMAR ROCHA BARBOSA, 19"
"-30.0287429";"-51.1680772";"premise";"Rua Desembargador Espiridi„o de Lima Medeiros, 193 - TrÍs Figueiras, Porto Alegre - RS, 91330-020, Brazil";226;"PROFISSIONAL AUTONOMO";"R DESEMBARGADOR ESPIRIDIAO L MEDEIROS, 193"
"-30.0121692";"-51.1693497";"street_address";"Av. Assis Brasil, 1817 - Passo d'Areia, Porto Alegre - RS, 91010-004, Brazil";227;"ESCRITORIO DE AUDITORIAS CONTABEIS";"AV ASSIS BRASIL, 1817/303"
"-30.0362913";"-51.2344383";"route";"Rua Washington Luiz - Centro HistÛrico, Porto Alegre - RS, Brazil";228;"ESCRITORIO ADMINISTRATIVO (SEDE ADMINISTRATIVA DE EMPRESA)";"R WASHINGTON LUIZ, 862/502"
"-30.0221393";"-51.2082625";"street_address";"Av. CristÛv„o Colombo, 1081 - Floresta, Porto Alegre - RS, 90560-003, Brazil";229;"CONSULTORIO ODONTOLOGICO";"AV CRISTOVAO COLOMBO, 1081/403"
"-30.0303965";"-51.2226075";"street_address";"Rua Professor Annes Dias, 295 - Centro HistÛrico, Porto Alegre - RS, 90020-090, Brazil";230;"CONSULTORIO MEDICO";"R PROF ANNES DIAS, 295"
"-30.0328584";"-51.1779499";"street_address";"Av. Soledade, 569 - PetrÛpolis, Porto Alegre - RS, Brazil";231;"CONSULTORIO MEDICO";"AV SOLEDADE, 569/901"
"-30.0434422";"-51.1841902";"street_address";"Av. Prot·sio Alves, 2500 - PetrÛpolis, Porto Alegre - RS, 90410-006, Brazil";232;"SALAO DE BELEZA";"AV PROTASIO ALVES, 2500/1"
"-30.0317846";"-51.2174929";"street_address";"R. Dr. Barros Cassal, 697 - Floresta, Porto Alegre - RS, 90035-030, Brazil";233;"ESCRITORIO DE PROMOCOES";"R DR BARROS CASSAL, 697/6"
"-30.0212095";"-51.2098686";"street_address";"R. Comendador Azevedo, 458 - Floresta, Porto Alegre - RS, 90220-150, Brazil";234;"EDITORACAO GRAFICA, EDICAO E IMPRESSAO DE OUTROS  PRODUTOS GRAFICO";"R COMENDADOR AZEVEDO, 458/2"
"-30.0380102";"-51.2229113";"street_address";"R. da Rep˙blica, 305 - Cidade Baixa, Porto Alegre - RS, 90050-321, Brazil";235;"ESCRITORIO DE SERVICOS JURIDICOS";"R REPUBLICA, 305/404"
"-30.0283328";"-51.2083779";"street_address";"PraÁa J˙lio de Castilhos, 20 - IndependÍncia, Porto Alegre - RS, 90510-002, Brazil";236;"CONSULTORIO MEDICO";"PCA JULIO DE CASTILHOS, 20/302"
"-30.023646";"-51.1841286";"street_address";"Av. Carlos Gomes, 141 - Auxiliadora, Porto Alegre - RS, 90480-003, Brazil";237;"CONSULTORIO MEDICO";"AV CARLOS GOMES, 141/802"
"-30.029043";"-51.2266487";"street_address";"R. Mal. Floriano Peixoto, 44 - Centro HistÛrico, Porto Alegre - RS, 90020-060, Brazil";238;"SALAO DE BELEZA";"R MARECHAL FLORIANO PEIXOTO, 44"
"-30.06002";"-51.229217";"street_address";"R. Antenor Lemos, 33 - Menino Deus, Porto Alegre - RS, 90850-100, Brazil";239;"PROFISSIONAL LIBERAL,TECNICO E UNIVERSITARIO";"R ANTENOR LEMOS, 33"
"-30.024345";"-51.1978823";"street_address";"R. Quintino Bocai˙va, 720 - Floresta, Porto Alegre - RS, 90440-050, Brazil";240;"SALAO DE BELEZA";"R QUINTINO BOCAIUVA, 720"
"-30.0602891";"-51.2265351";"street_address";"R. JosÈ de Alencar, 521 - Menino Deus, Porto Alegre - RS, 90880-480, Brazil";241;"CONSULTORIO MEDICO";"R JOSE DE ALENCAR, 521/404"
"-30.0125035";"-51.1935239";"street_address";"Rua 16 de Julho, 42 - S„o Jo„o, Porto Alegre - RS, 90550-020, Brazil";242;"ESCRITORIO DE SERVICOS JURIDICOS";"R DEZESSEIS DE JULHO, 42/302"
"-30.040315";"-51.1796793";"premise";"Av. Encantado, 16 - PetrÛpolis, Porto Alegre - RS, 90470-420, Brazil";243;"CONSULTORIO ODONTOLOGICO";"AV ENCANTADO, 16"
"-30.0574986";"-51.2292701";"street_address";"Av. Praia de Belas, 2124 - Praia de Belas, Porto Alegre - RS, Brazil";244;"CONSULTORIO MEDICO";"AV PRAIA DE BELAS, 2124/905"
"-30.0527102";"-51.1832338";"premise";"R. ItaboraÌ, 1090 - Jardim Bot‚nico, Porto Alegre - RS, 90670-030, Brazil";245;"MOTOFRETE";"R ITABORAI, 1090"
"-30.0552796";"-51.1733766";"street_address";"Av. Ipiranga, 6690 - Jardim Bot‚nico, Porto Alegre - RS, Brazil";246;"CONSULTORIO MEDICO";"AV IPIRANGA, 6690/314"
"-30.0526893";"-51.2218442";"street_address";"Av. Get˙lio Vargas, 908 - Menino Deus, Porto Alegre - RS, 90150-004, Brazil";247;"ESCRITORIO DE ENGENHARIA";"AV GETULIO VARGAS, 908/805"
"-30.0651486";"-51.2331613";"street_address";"Av. Padre Cacique, 684 - Praia de Belas, Porto Alegre - RS, 90810-240, Brazil";248;"OFICINA DE ASSISTENCIA TECNICA";"AV PADRE CACIQUE, 684"
"-30.021833";"-51.1625768";"street_address";"Av. T˙lio de Rose, 80 - Passo d'Areia, Porto Alegre - RS, Brazil";249;"ESCRITORIO ADMINISTRATIVO (SEDE ADMINISTRATIVA DE EMPRESA)";"AV TULIO DE ROSE, 80/314"
"-30.0354456";"-51.2093843";"street_address";"R. Felipe Camar„o, 688 - Rio Branco, Porto Alegre - RS, 90035-140, Brazil";250;"CONSULTORIO ODONTOLOGICO";"R FELIPE CAMARAO, 688/303"
"-30.0411138";"-51.2220479";"street_address";"R. JosÈ do PatrocÌnio, 721 - Cidade Baixa, Porto Alegre - RS, 90050-002, Brazil";251;"ESCRITORIO DE SERVICOS JURIDICOS";"R JOSE DO PATROCINIO, 721/203"
"-30.096369";"-51.1777159";"street_address";"R. Prof. Oscar Pereira, 6334 - Cascata, Porto Alegre - RS, 91712-320, Brazil";252;"AGENCIA DE LOCACAO DE VEICULOS";"AV PROF OSCAR PEREIRA, 6334"
"-30.067994";"-51.170553";"street_address";"R. Irm„o Weibert, 688 - Vila Joao Pessoa, Porto Alegre - RS, 91520-310, Brazil";253;"REPRESENTACAO COMERCIAL (INTERMEDIARIOS DE VENDAS DE MERCADORIAS A";"R IRMAO WEIBERT, 688"
"-30.029055";"-51.2055621";"street_address";"R. Mostardeiro, 157 - IndependÍncia, Porto Alegre - RS, Brazil";254;"SALAO DE BELEZA";"R MOSTARDEIRO, 157/8"
"-30.1149416";"-51.2545302";"establishment";"Av. Wenceslau Escobar, 3033 - Cristal, Porto Alegre - RS, Brazil";255;"CONSULTORIO MEDICO";"AV WENCESLAU ESCOBAR, 3033/307"
"-30.0247196";"-51.2035329";"street_address";"R. Luciana de Abreu, 337 - Moinhos de Vento, Porto Alegre - RS, 90570-060, Brazil";256;"CONSULTORIO MEDICO";"R LUCIANA DE ABREU, 337/203"
"-30.0279797";"-51.2244282";"street_address";"Rua Doutor Flores, 98 - Centro, Porto Alegre - RS, 90020-120, Brazil";257;"ESCRITORIO DE SERVICOS JURIDICOS";"R DR FLORES, 98/71"
"-30.0115609";"-51.1696253";"street_address";"Av. Assis Brasil, 1800 - Passo d'Areia, Porto Alegre - RS, 91010-005, Brazil";258;"SALAO DE BELEZA";"AV ASSIS BRASIL, 1800/508"
"-30.0415193";"-51.216764";"street_address";"Av. Ven‚ncio Aires, 333 - Cidade Baixa, Porto Alegre - RS, 90040-191, Brazil";259;"MOTEL";"AV VENANCIO AIRES, 333"
"-30.0298722";"-51.2256283";"establishment";"R. dos Andradas, 1593 - Centro HistÛrico, Porto Alegre - RS, 90010-140, Brazil";260;"SERVICO DE ASSESSORIA, CONSULTORIA, PESQUISA, ANA-LISE E PROMOCOES";"R ANDRADAS, 665"
"-30.0326852";"-51.2286432";"street_address";"R. JerÙnimo Coelho, 85 - Centro HistÛrico, Porto Alegre - RS, 90010-240, Brazil";261;"ESCRITORIO DE SERVICOS JURIDICOS";"R JERONIMO COELHO, 85/408"
"-30.0250268";"-51.2032163";"street_address";"R. Padre Chagas, 247 - Moinhos de Vento, Porto Alegre - RS, 90570-080, Brazil";262;"CONSULTORIO MEDICO";"R PADRE CHAGAS, 247/301"
"-30.1140262";"-51.2551327";"street_address";"Av. Wenceslau Escobar, 2923 - Tristeza, Porto Alegre - RS, Brazil";263;"ESTUDIO DE DESENHO";"AV WENCESLAU ESCOBAR, 2923/308"
"-30.0238464";"-51.1983327";"street_address";"R. Quintino Bocai˙va, 655 - Floresta, Porto Alegre - RS, 90440-051, Brazil";264;"CONSULTORIO MEDICO";"R QUINTINO BOCAIUVA, 655/603"
"-30.0292021";"-51.2040557";"street_address";"R. Mariante, 180 - Rio Branco, Porto Alegre - RS, 90430-180, Brazil";265;"CONSULTORIO MEDICO";"R MARIANTE, 180/502"
"-30.0097852";"-51.1519253";"street_address";"Av. Assis Brasil, 3532 - Jardim Lindoia, Porto Alegre - RS, Brazil";266;"CONSULTORIO ODONTOLOGICO";"AV ASSIS BRASIL, 3532/514"
"-30.0163754";"-51.1917635";"premise";"R. S„o Francisco da California, 133 - HigienÛpolis, Porto Alegre - RS, 90550-080, Brazil";267;"CONSULTORIO MEDICO";"R SAO FRANCISCO DA CALIFORNIA, 133"
"-30.0261953";"-51.2013983";"street_address";"R. Comendador Caminha, 312 - Moinhos de Vento, Porto Alegre - RS, 90430-030, Brazil";268;"CONSULTORIO MEDICO";"R COMENDADOR CAMINHA, 312/403"
"-30.0582161";"-51.2292508";"street_address";"R. Costa, 30 - Menino Deus, Porto Alegre - RS, 90110-270, Brazil";269;"CONSULTORIO MEDICO";"R COSTA, 30/701"
"-30.0582161";"-51.2292508";"street_address";"R. Costa, 30 - Menino Deus, Porto Alegre - RS, 90110-270, Brazil";270;"CONSULTORIO MEDICO";"R COSTA, 30/408"
"-30.0114901";"-51.1693265";"street_address";"Av. Assis Brasil, 1826 - Passo d'Areia, Porto Alegre - RS, 91010-001, Brazil";271;"ESCRITORIO DE CORRETAGEM DE IMOVEIS";"AV ASSIS BRASIL, 1826/802"
"-30.0485068";"-51.1992301";"street_address";"R. Monsenhor Veras, 652 - Santana, Porto Alegre - RS, 90610-010, Brazil";272;"PROFISSIONAL AUTONOMO";"R MONSENHOR VERAS, 652/203"
"-30.0589262";"-51.1545782";"premise";"R. Prof. Guerreiro Lima, 473 - Partenon, Porto Alegre - RS, 91530-190, Brazil";273;"OFICINA DE CHAPEACAO E PINTURA";"R PROF GUERREIRO LIMA, 473"
"-30.106005";"-51.254044";"street_address";"Av. Wenceslau Escobar, 1991 - Tristeza, Porto Alegre - RS, 91900-000, Brazil";274;"SERVICO DE SOFTWARE E HARDWARE";"AV WENCESLAU ESCOBAR, 1991/212"
"-30.0037392";"-51.1856854";"premise";"R. Dona Sebastiana, 104 - S„o Jo„o, Porto Alegre - RS, 91020-010, Brazil";275;"OFICINA MECANICA PARA AUTOMOVEIS";"R DONA SEBASTIANA, 104"
"-30.0160965";"-51.2025406";"street_address";"R. FÈlix da Cunha, 360 - Floresta, Porto Alegre - RS, 90570-000, Brazil";276;"EMPRESA DE LIMPEZA S/ARMAZENAMENTO DE PRODUTOS QUIMICOS";"R FELIX DA CUNHA, 360/210"
"-30.041457";"-51.1826848";"street_address";"Av. Taquara, 586 - PetrÛpolis, Porto Alegre - RS, 90460-210, Brazil";277;"CONSULTORIO MEDICO";"AV TAQUARA, 586/401"
"-30.0477333";"-51.2121215";"street_address";"Av. Ipiranga, 1801 - Azenha, Porto Alegre - RS, Brazil";278;"CONSULTORIO MEDICO";"AV IPIRANGA, 1801/1036"
"-30.0477333";"-51.2121215";"street_address";"Av. Ipiranga, 1801 - Azenha, Porto Alegre - RS, Brazil";279;"CONSULTORIO MEDICO";"AV IPIRANGA, 1801/2"
"-30.020924";"-51.1832951";"street_address";"PraÁa Alberto Ramos, 806 - HigienÛpolis, Porto Alegre - RS, 90520-050, Brazil";280;"SALAO DE BELEZA";"PCA ALBERTO RAMOS, 806/1"
"-30.025024";"-51.2019617";"street_address";"R. 24 de Outubro, 650 - IndependÍncia, Porto Alegre - RS, 90510-001, Brazil";281;"CONSULTORIO MEDICO";"R VINTE QUATRO DE OUTUBRO, 650/508"
"-30.039565";"-51.176822";"street_address";"Av. Palmeira, 18 - PetrÛpolis, Porto Alegre - RS, 90470-300, Brazil";282;"CONSULTORIO ODONTOLOGICO";"AV PALMEIRA, 18/403"
"-30.0426922";"-51.2009687";"premise";"R. Felipe de Oliveira, 87 - PetrÛpolis, Porto Alegre - RS, Brazil";283;"ESCRITORIO DE CORRETAGEM DE IMOVEIS";"R FELIPE DE OLIVEIRA, 87"
"-30.0327392";"-51.2295508";"street_address";"PraÁa Mal. Deodoro, 130 - Centro HistÛrico, Porto Alegre - RS, 90010-121, Brazil";284;"ESCRITORIO DE SERVICOS JURIDICOS";"PCA MARECHAL DEODORO, 130/1202"
"-30.0250095";"-51.1622202";"street_address";"Av. Jo„o Wallig, 1800 - Passo d'Areia, Porto Alegre - RS, Brazil";285;"SALAO DE BELEZA";"AV JOAO WALLIG, 1800/1102"
"-30.0067237";"-51.1861348";"street_address";"R. Dona Sebastiana, 435 - S„o Jo„o, Porto Alegre - RS, 91020-010, Brazil";286;"OFICINA DE ASSISTENCIA TECNICA";"R DONA SEBASTIANA, 435"
"-30.0290601";"-51.2036229";"street_address";"R. Mostardeiro, 333 - Rio Branco, Porto Alegre - RS, Brazil";287;"CONSULTORIO MEDICO";"R MOSTARDEIRO, 333/214"
"-30.0795724";"-51.2090472";"street_address";"Av. TeresÛpolis, 2956 - TeresÛpolis, Porto Alegre - RS, 90870-000, Brazil";288;"ESCRITORIO DE SERVICOS JURIDICOS";"AV TERESOPOLIS, 2956/410"
"-30.0288361";"-51.2294263";"street_address";"Rua 7 de Setembro, 1126 - Centro HistÛrico, Porto Alegre - RS, 90010-190, Brazil";289;"PERSONAL TRAINER";"R SETE DE SETEMBRO, 1126/320"
"-30.0476";"-51.145055";"street_address";"R. Bom PrincÌpio, 21 - Jardim Carvalho, Porto Alegre - RS, 91430-040, Brazil";290;"SALAO DE BELEZA";"R BOM PRINCIPIO, 21"
"-30.0278939";"-51.2254654";"establishment";"R. Vig. JosÈ In·cio, 250 - Centro HistÛrico, Porto Alegre - RS, Brazil";291;"CONSULTORIO ODONTOLOGICO";"R VIGARIO JOSE IGNACIO, 250/54"
"-30.0393144";"-51.172054";"street_address";"Av. Prot·sio Alves, 3904 - Alto PetrÛpolis, Porto Alegre - RS, Brazil";292;"CONSULTORIO ODONTOLOGICO";"AV PROTASIO ALVES, 3904"
"-30.017982";"-51.1911853";"street_address";"Av. CristÛv„o Colombo, 2937 - Floresta, Porto Alegre - RS, Brazil";293;"CONSULTORIO MEDICO";"AV CRISTOVAO COLOMBO, 2937/405"
"-30.0328584";"-51.1779499";"street_address";"Av. Soledade, 569 - PetrÛpolis, Porto Alegre - RS, Brazil";294;"CONSULTORIO MEDICO";"AV SOLEDADE, 569/912"
"-30.0317272";"-51.2347274";"establishment";"R. dos Andradas, 685 - Centro, Porto Alegre - RS, 90020-003, Brazil";295;"SERVICO DE SOFTWARE E HARDWARE";"R ANDRADAS, 1251/42"
"-30.031187";"-51.233757";"street_address";"R. dos Andradas, 800 - Centro HistÛrico, Porto Alegre - RS, 90020-004, Brazil";296;"SERVICO DE SOFTWARE E HARDWARE";"R ANDRADAS, 800/201"
"-30.0181371";"-51.2057811";"street_address";"R. Alm. Barroso, 735 - Floresta, Porto Alegre - RS, 90220-021, Brazil";297;"ESCRITORIO DE SERVICOS JURIDICOS";"R ALMIRANTE BARROSO, 735/703"
"-30.098041";"-51.234993";"street_address";"R. Cel. Massot, 1381 - Cavalhada, Porto Alegre - RS, 91910-530, Brazil";298;"CYBER CAFE";"R CEL MASSOT, 1381/4"
"-30.107712";"-51.247175";"street_address";"Av. Otto Niemeyer, 1173 - Tristeza, Porto Alegre - RS, 91910-001, Brazil";299;"LOCACAO DE FITAS DE VIDEO";"AV OTTO NIEMEYER, 1173"
"-30.212195";"-51.1725939";"street_address";"R. Irineu Francisco da Silva, 70 - BelÈm Novo, Porto Alegre - RS, 91780-430, Brazil";300;"OFICINA DE ASSISTENCIA TECNICA";"R IRINEU FRANCISCO DA SILVA, 70"
"-30.0414237";"-51.1964351";"street_address";"R. Vicente da Fontoura, 2352 - Rio Branco, Porto Alegre - RS, 90640-001, Brazil";301;"SERVICO DE ASSESSORIA, CONSULTORIA, PESQUISA, ANA-LISE E PROMOCOES";"R VICENTE DA FONTOURA, 2352/503"
"-30.0289161";"-51.2040906";"street_address";"R. Mostardeiro, 291 - IndependÍncia, Porto Alegre - RS, Brazil";302;"CONSULTORIO MEDICO";"R MOSTARDEIRO, 291/208"
"-30.0288694";"-51.2248999";"establishment";"Rua Doutor Flores, 383 - Centro HistÛrico, Porto Alegre - RS, 90020-123, Brazil";303;"SERVICO DE MASSAGEM (MASSAGISTAS, MASSAGEM ESTETI-CA, TERAPEUTICA";"R DR FLORES, 383/303"
"-30.0182993";"-51.2070237";"street_address";"R. C‚ncio Gomes, 610 - Floresta, Porto Alegre - RS, 90220-060, Brazil";304;"OFICINA DE ASSISTENCIA TECNICA";"R CANCIO GOMES, 610"
"-30.0549102";"-51.1889951";"street_address";"R. Bar„o do Amazonas, 1288 - Jardim Bot‚nico, Porto Alegre - RS, 90670-001, Brazil";305;"OFICINA DE CONFECCAO E CONSERTO DE FECHADURAS  E  CHAVES";"R BARAO DO AMAZONAS, 1288/1"
"-30.0582161";"-51.2292508";"street_address";"R. Costa, 30 - Menino Deus, Porto Alegre - RS, 90110-270, Brazil";306;"CONSULTORIO MEDICO";"R COSTA, 30/606"
"-30.0290601";"-51.2036229";"street_address";"R. Mostardeiro, 333 - Rio Branco, Porto Alegre - RS, Brazil";307;"OFICINA DE REPARACAO DE JOIAS E RELOGIOS";"R MOSTARDEIRO, 333/117"
"-30.0100652";"-51.1924543";"street_address";"Av. Benjamin Constant, 904 - S„o Jo„o, Porto Alegre - RS, 90550-003, Brazil";308;"CONSULTORIO ODONTOLOGICO";"AV BENJAMIN CONSTANT, 904/607"
"-30.0417084";"-51.1828477";"street_address";"Av. Taquara, 564 - PetrÛpolis, Porto Alegre - RS, 90460-210, Brazil";309;"OFICINA DE REPARACAO DE APARELHOS ELETRONICOS";"AV TAQUARA, 564/403"
"-30.0380102";"-51.2229113";"street_address";"R. da Rep˙blica, 305 - Cidade Baixa, Porto Alegre - RS, 90050-321, Brazil";310;"ESCRITORIO DE SERVICOS JURIDICOS";"R REPUBLICA, 305/203"
"-30.0582161";"-51.2292508";"street_address";"R. Costa, 30 - Menino Deus, Porto Alegre - RS, 90110-270, Brazil";311;"CONSULTORIO MEDICO";"R COSTA, 30/504"
"-30.2114168";"-51.181751";"street_address";"Av. Heitor ViÍira, 605 - BelÈm Novo, Porto Alegre - RS, 91780-000, Brazil";312;"CYBER CAFE";"AV HEITOR VIEIRA, 605"
"-30.0299325";"-51.2329308";"street_address";"Rua 7 de Setembro, 760 - Centro HistÛrico, Porto Alegre - RS, 90010-190, Brazil";313;"ESCRITORIO DE SERVICOS JURIDICOS";"R SETE DE SETEMBRO, 760"
"-30.0443554";"-51.1861198";"street_address";"R. Gen. Souza Doca, 71 - PetrÛpolis, Porto Alegre - RS, 90630-050, Brazil";314;"ESCRITORIO DE ARQUITETURA";"R GEN SOUZA DOCA, 71/507"
"-30.0262208";"-51.212016";"street_address";"Av. CristÛv„o Colombo, 545 - Floresta, Porto Alegre - RS, 90560-003, Brazil";315;"SALAO DE BELEZA";"AV CRISTOVAO COLOMBO, 545/1053"
"-29.9994244";"-51.2011581";"street_address";"Av. SertÛrio, 446 - Navegantes, Porto Alegre - RS, Brazil";316;"OFICINA-TORNEARIA";"AV SERTORIO, 446"
"-30.0352096";"-51.2094945";"street_address";"R. Felipe Camar„o, 664 - Rio Branco, Porto Alegre - RS, 90035-141, Brazil";317;"CONSULTORIO ODONTOLOGICO";"R FELIPE CAMARAO, 664/404"
"-30.1031403";"-51.2333978";"street_address";"Av. Otto Niemeyer, 2595 - Cavalhada, Porto Alegre - RS, 91910-000, Brazil";318;"ESCRITORIO ADMINISTRATIVO (SEDE ADMINISTRATIVA DE EMPRESA)";"AV OTTO NIEMEYER, 2595/402"
"-30.0147568";"-51.1200908";"route";"Av. Baltazar de Oliveira Garcia, Porto Alegre - RS, Brazil";319;"OFICINA DE ASSISTENCIA TECNICA";"AV BALTAZAR DE OLIVEIRA GARCIA, 2053/2"
"-30.135825";"-51.226185";"street_address";"R. Comendador Castro, 414 - Ipanema, Porto Alegre - RS, 91760-200, Brazil";320;"PROFISSIONAL AUTONOMO";"R COMENDADOR CASTRO, 414"
"-30.0263899";"-51.2045666";"street_address";"R. Padre Chagas, 35 - Moinhos de Vento, Porto Alegre - RS, 90570-080, Brazil";321;"CONSULTORIO MEDICO";"R PADRE CHAGAS, 35/302"
"-30.102569";"-51.230652";"street_address";"Av. da Cavalhada, 3000 - Cavalhada, Porto Alegre - RS, 91740-000, Brazil";322;"OFICINA DE REPARACAO DE BICICLETAS";"AV CAVALHADA, 3000"
"-30.155708";"-51.142438";"street_address";"Estrada Jo„o AntÙnio da Silveira, 1837 - Restinga, Porto Alegre - RS, 91790-400, Brazil";323;"ESCRITORIO DE CORRETAGEM DE IMOVEIS";"ESTR JOAO ANTONIO SILVEIRA, 1837/205"
"-30.020597";"-51.1896489";"premise";"R. Marcelo Gama, 1249 - S„o Jo„o, Porto Alegre - RS, 90540-040, Brazil";324;"CONSULTORIO ODONTOLOGICO";"R MARCELO GAMA, 1249"
"-30.0293447";"-51.2224893";"street_address";"PraÁa Dom Feliciano, 78 - Centro HistÛrico, Porto Alegre - RS, 90020-160, Brazil";325;"CONSULTORIO MEDICO";"PCA DOM FELICIANO, 78/508"
"-30.0232957";"-51.1610041";"street_address";"R. AntÙnio Carlos Berta, 475 - Passo d'Areia, Porto Alegre - RS, 91340-020, Brazil";326;"CONSULTORIO MEDICO";"R ANTONIO CARLOS BERTA, 475/1006"
"-30.0256593";"-51.2025573";"street_address";"R. Luciana de Abreu, 471 - Moinhos de Vento, Porto Alegre - RS, 90570-060, Brazil";327;"CONSULTORIO MEDICO";"R LUCIANA DE ABREU, 471/304"
"-30.0455643";"-51.1640248";"street_address";"Rua NazarÈ, 516 - Bom Jesus, Porto Alegre - RS, 91420-470, Brazil";328;"OFICINA DE CHAPEACAO E PINTURA";"R NAZARETH, 516"
"-29.9972452";"-51.095639";"street_address";"R. dos Maias, 1077 - Rubem Berta, Porto Alegre - RS, Brazil";329;"OFICINA-FUNILARIA";"R MAIAS, 1077"
"-30.049624";"-51.1866579";"street_address";"R. Bar„o do Amazonas, 655 - PetrÛpolis, Porto Alegre - RS, 90670-004, Brazil";330;"ACADEMIA DE ENSINO E/OU PRATICA DE GINASTICA";"R BARAO DO AMAZONAS, 655"
"-30.0104202";"-51.1712812";"establishment";"R. Sport Club S„o JosÈ, 67 - Passo d'Areia, Porto Alegre - RS, Brazil";331;"CONSULTORIO DE FISIOTERAPIA";"R SPORT CLUB SAO JOSE, 67/605"
"-30.053111";"-51.202337";"street_address";"R. Gomes Jardim, 1140 - Paternon, Porto Alegre - RS, 90620-130, Brazil";332;"PROFISSIONAL AUTONOMO";"R GOMES JARDIM, 1140/22"
"-30.024891";"-51.151478";"street_address";"Travessa Abramo Eberle, 93 - Jardim Ipiranga, Porto Alegre - RS, 91360-010, Brazil";333;"CONSULTORIO ODONTOLOGICO";"TRAV ABRAMO EBERLE, 93/203"
"-30.025007";"-51.150936";"street_address";"Av. do Forte, 1618 - Vila Ipiranga, Porto Alegre - RS, 91360-001, Brazil";334;"OFICINA DE REPARACAO DE MAQUINAS E APARELHOS ELE- TRICOS OU NAO";"AV FORTE, 1618"
"-30.0646767";"-51.2151124";"premise";"R. Teixeira de Carvalho, 223 - Medianeira, Porto Alegre - RS, 90880-300, Brazil";335;"CENTRAL DE SERVICOS DE APOIO AS EMPRESAS";"R TEIXEIRA DE CARVALHO, 223"
"-30.0593418";"-51.2270363";"street_address";"R. ItororÛ, 211 - Menino Deus, Porto Alegre - RS, 90110-290, Brazil";336;"CONSULTORIO ODONTOLOGICO";"R ITORORO, 211/504"
"-30.0527102";"-51.1832338";"premise";"R. ItaboraÌ, 1090 - Jardim Bot‚nico, Porto Alegre - RS, 90670-030, Brazil";337;"MOTOFRETE";"R ITABORAI, 1090"
"-30.0296363";"-51.2176048";"street_address";"Av. IndependÍncia, 383 - IndependÍncia, Porto Alegre - RS, Brazil";338;"ESCRITORIO DE PUBLICIDADE E PROPAGANDA";"AV INDEPENDENCIA, 383/108"
"-30.1472884";"-51.2098723";"street_address";"R. Cirino Prunes, 48 - EspÌrito Santo, Porto Alegre - RS, 91770-210, Brazil";339;"ESCOLA ESPECIAL";"R CIRINO PRUNES, 48/202"
"-30.038256";"-51.2034721";"street_address";"Av. Prot·sio Alves, 491 - Prot·sio Alves, Porto Alegre - RS, Brazil";340;"LABORATORIO DE PROTESE";"AV PROTASIO ALVES, 491/201"
"-30.0306302";"-51.2236249";"street_address";"Rua Professor Annes Dias, 112 - Centro HistÛrico, Porto Alegre - RS, 90020-090, Brazil";341;"CONSULTORIO MEDICO";"R PROF ANNES DIAS, 112/92"
"-30.0309404";"-51.2235845";"street_address";"Rua Professor Annes Dias, 285 - Centro HistÛrico, Porto Alegre - RS, 90010-490, Brazil";342;"CONSULTORIO MEDICO";"R PROF ANNES DIAS, 285/9"
"-30.0293406";"-51.202297";"premise";"Rua Dona Laura, 320 - Rio Branco, Porto Alegre - RS, 90430-090, Brazil";343;"CONSULTORIO MEDICO";"R DONA LAURA, 320"
"-30.0223873";"-51.1866844";"street_address";"R. Comendador Rheingantz, 35 - Auxiliadora, Porto Alegre - RS, 90450-020, Brazil";344;"CONSULTORIO DE PSIQUIATRIA";"R COMENDADOR RHEINGANTZ, 35/401"
"-30.0230967";"-51.1824575";"premise";"R. Dr. Guimar„es Rosa, 155 - Boa Vista, Porto Alegre - RS, 90480-080, Brazil";345;"CONSULTORIO MEDICO";"R DR GUIMARAES ROSA, 155"
"-30.0289161";"-51.2040906";"street_address";"R. Mostardeiro, 291 - IndependÍncia, Porto Alegre - RS, Brazil";346;"CONSULTORIO MEDICO";"R MOSTARDEIRO, 291/203"
"-30.0343654";"-51.1768842";"establishment";"Av. Luiz Manoel Gonzaga, 351 - PetrÛpolis, Porto Alegre - RS, 90470-280, Brazil";347;"CONSULTORIO MEDICO";"AV LUIZ MANOEL GONZAGA, 351/601"
"-30.0293446";"-51.2073656";"street_address";"R. Mostardeiro, 5 - IndependÍncia, Porto Alegre - RS, Brazil";348;"CONSULTORIO MEDICO";"R MOSTARDEIRO, 5/1009"
"-30.0351566";"-51.2085095";"street_address";"R. Ramiro Barcelos, 1819 - Floresta, Porto Alegre - RS, Brazil";349;"CONSULTORIO ODONTOLOGICO";"R RAMIRO BARCELOS, 1819/105"
"-30.0226345";"-51.2016964";"street_address";"R. Tobias da Silva, 22 - Moinhos de Vento, Porto Alegre - RS, 90510-002, Brazil";350;"CONSULTORIO MEDICO";"R TOBIAS DA SILVA, 22/602"
"-30.0306761";"-51.2257031";"street_address";"R. Vig. JosÈ In·cio, 566 - Centro HistÛrico, Porto Alegre - RS, 90020-100, Brazil";351;"ESCRITORIO DE SERVICOS JURIDICOS";"R VIGARIO JOSE IGNACIO, 566/702"
"-30.030696";"-51.2278136";"establishment";"Av. Sen. Salgado Filho, 28 - Centro HistÛrico, Porto Alegre - RS, 90010-220, Brazil";352;"ESTUDIO FOTOGRAFICO";"AV SENADOR SALGADO FILHO, 28/602"
"-30.0348591";"-51.1771258";"street_address";"Av. Carlos Gomes, 1610 - TrÍs Figueiras, Porto Alegre - RS, 90480-001, Brazil";353;"ESCRITORIO ADMINISTRATIVO (SEDE ADMINISTRATIVA DE EMPRESA)";"AV CARLOS GOMES, 1610/303"
"-30.0317272";"-51.2347274";"establishment";"R. dos Andradas, 685 - Centro, Porto Alegre - RS, 90020-003, Brazil";354;"CONSULTORIO MEDICO";"R ANDRADAS, 1251/43"
"-30.0147474";"-51.157478";"street_address";"R. ¡lvares Cabral, 564 - Cristo Redentor, Porto Alegre - RS, 91350-250, Brazil";355;"ESCRITORIO DE SERVICOS DE ASSESSORIA";"R ALVARES CABRAL, 564"
"-30.0299556";"-51.2052648";"street_address";"Rua Dona Laura, 45 - Rio Branco, Porto Alegre - RS, 90430-091, Brazil";356;"CONSULTORIO MEDICO";"R DONA LAURA, 45/203"
"-30.0582161";"-51.2292508";"street_address";"R. Costa, 30 - Menino Deus, Porto Alegre - RS, 90110-270, Brazil";357;"CONSULTORIO MEDICO";"R COSTA, 30/212"
"-30.0343362";"-51.2125467";"street_address";"Rua General Jo„o Telles, 542 - Bom Fim, Porto Alegre - RS, 90035-120, Brazil";358;"CONSULTORIO MEDICO";"R GEN JOAO TELLES, 542/601"
"-30.109065";"-51.251132";"street_address";"Av. Otto Niemeyer, 779 - Tristeza, Porto Alegre - RS, 91910-001, Brazil";359;"REPRESENTACAO COMERCIAL (INTERMEDIARIOS DE VENDAS DE MERCADORIAS A";"AV OTTO NIEMEYER, 779"
"-30.0414174";"-51.1811355";"street_address";"Av. Montenegro, 186 - PetrÛpolis, Porto Alegre - RS, 90460-160, Brazil";360;"ESCRITORIO DE SERVICOS JURIDICOS";"AV MONTENEGRO, 186/605"
"-30.0036502";"-51.1918751";"street_address";"Rua Pereira Franco, 402 - S„o Jo„o, Porto Alegre - RS, 90240-520, Brazil";361;"REPRESENTACAO COMERCIAL (INTERMEDIARIOS DE VENDAS DE MERCADORIAS A";"R PEREIRA FRANCO, 402/201"
"-30.048814";"-51.208663";"street_address";"Av. Princesa Isabel, 395 - Santana, Porto Alegre - RS, 90620-001, Brazil";362;"CONSULTORIO MEDICO";"AV PRINCESA ISABEL, 395"
"-30.0282121";"-51.2027874";"premise";"R. Dr. FlorÍncio Ygartua, 188 - Moinhos de Vento, Porto Alegre - RS, 90430-010, Brazil";363;"CONSULTORIO MEDICO";"R DR FLORENCIO YGARTUA, 188"
"-30.034614";"-51.168863";"street_address";"R. Balduino Roehrig, 200 - TrÍs Figueiras, Porto Alegre - RS, 91330-140, Brazil";364;"REPRESENTACAO COMERCIAL (INTERMEDIARIOS DE VENDAS DE MERCADORIAS A";"R BALDUINO ROEHRIG, 200"
"-30.1007402";"-51.2487039";"street_address";"R. Cel. Massot, 25 - Cristal, Porto Alegre - RS, 91910-530, Brazil";365;"ESTOFARIA";"R CEL MASSOT, 25"
"-30.0988213";"-51.2386707";"street_address";"R. Cel. Massot, 995 - Cristal, Porto Alegre - RS, 91910-530, Brazil";366;"ESTOFARIA";"R CEL MASSOT, 995/18"
"-30.078903";"-51.2032767";"street_address";"Av. Mal. Mesquita, 155 - TeresÛpolis, Porto Alegre - RS, 91720-160, Brazil";367;"ESCRITORIO DE PAISAGISMO";"R MARECHAL MESQUITA, 155"
"-30.0255639";"-51.2083465";"street_address";"R. Ramiro Barcelos, 910 - Floresta, Porto Alegre - RS, Brazil";368;"CONSULTORIO MEDICO";"R RAMIRO BARCELOS, 910/1002"
"-30.1002844";"-51.2330648";"street_address";"R. Dr. Barcelos, 2649 - Tristeza, Porto Alegre - RS, 91910-250, Brazil";369;"GARAGEM E ESTACIONAMENTO PARA VEICULOS, EXCETO OS DE CARGA OU COLE";"R DR BARCELOS, 2649"
"-30.0294618";"-51.2142168";"street_address";"Av. IndependÍncia, 691 - IndependÍncia, Porto Alegre - RS, 90035-072, Brazil";370;"ESCRITORIO DE ARQUITETURA";"AV INDEPENDENCIA, 691/110"
"-30.029678";"-51.2293383";"establishment";"R. dos Andradas, 1234 - Centro HistÛrico, Porto Alegre - RS, 90010-000, Brazil";371;"CONSULTORIO MEDICO";"R ANDRADAS, 1727/85"
"-30.0183657";"-51.2003687";"street_address";"R. Dr. TimÛteo, 371 - Floresta, Porto Alegre - RS, 90570-041, Brazil";372;"CONSULTORIO ODONTOLOGICO";"R DR TIMOTEO, 371/705"
"-30.0309302";"-51.2282803";"street_address";"R. Gen. Andrade Neves, 159 - Centro HistÛrico, Porto Alegre - RS, Brazil";373;"ESCRITORIO DE SERVICOS JURIDICOS";"R GEN ANDRADE NEVES, 159/134"
"-30.028389";"-51.2062381";"street_address";"R. 24 de Outubro, 111 - IndependÍncia, Porto Alegre - RS, 90510-002, Brazil";374;"CONSULTORIO DE PSIQUIATRIA";"R VINTE QUATRO DE OUTUBRO, 111/407"
"-30.0077492";"-51.1861208";"street_address";"Av. Benjamin Constant, 76 - S„o Jo„o, Porto Alegre - RS, 90550-003, Brazil";375;"ESTUDIO DE MUSICA ( GRAVACAO E EDICAO DE SOM )";"AV BENJAMIN CONSTANT, 76"
"-30.0076564";"-51.1550478";"premise";"R. JavarÌ, 39 - Cristo Redentor, Porto Alegre - RS, 91040-090, Brazil";376;"CONSULTORIO MEDICO";"R JAVARI, 39"
"-30.0260816";"-51.1974943";"street_address";"R. Quintino Bocai˙va, 906 - Floresta, Porto Alegre - RS, 90440-050, Brazil";377;"ESCOLA ESPECIAL";"R QUINTINO BOCAIUVA, 906"
"-30.0290781";"-51.2266595";"street_address";"R. Mal. Floriano Peixoto, 38 - Centro HistÛrico, Porto Alegre - RS, 90020-060, Brazil";378;"ESCRITORIO DE SERVICOS JURIDICOS";"R MARECHAL FLORIANO PEIXOTO, 38/2210"
"-30.0439328";"-51.2299834";"street_address";"R. Dr. Vicente de Paula Dutra, 215 - Praia de Belas, Porto Alegre - RS, 90110-200, Brazil";379;"ESCRITORIO DE SERVICOS JURIDICOS";"R DR VICENTE DE PAULA DUTRA, 215/309"
"-30.02266";"-51.1882394";"street_address";"Av. PlÌnio Brasil Milano, 291 - HigienÛpolis, Porto Alegre - RS, 90520-002, Brazil";380;"LOCACAO DE FITAS DE VIDEO";"AV PLINIO BRASIL MILANO, 291"
"-30.030605";"-51.2249156";"street_address";"Rua Doutor Flores, 381 - Centro HistÛrico, Porto Alegre - RS, 90020-121, Brazil";381;"SALAO DE BELEZA";"R DR FLORES, 381"
"-30.0323426";"-51.1789653";"street_address";"Av. Carlos Gomes, 1286 - Auxiliadora, Porto Alegre - RS, 90480-001, Brazil";382;"ESCOLA DE LINGUAS";"AV CARLOS GOMES, 1286/202"
"-30.0409067";"-51.1785752";"street_address";"Av. IguaÁu, 165 - PetrÛpolis, Porto Alegre - RS, 90470-430, Brazil";383;"CONSULTORIO MEDICO";"AV IGUASSU, 165/304"
"-30.0328584";"-51.1779499";"street_address";"Av. Soledade, 569 - PetrÛpolis, Porto Alegre - RS, Brazil";384;"CONSULTORIO MEDICO";"AV SOLEDADE, 569/1005"
"-30.031743";"-51.196697";"street_address";"R. Quintino Bocai˙va, 1530 - Rio Branco, Porto Alegre - RS, 90440-050, Brazil";385;"SALAO DE BELEZA";"R QUINTINO BOCAIUVA, 1530"
"-30.0132147";"-51.16477";"street_address";"Av. Jo„o Wallig, 168 - Passo d'Areia, Porto Alegre - RS, 91340-001, Brazil";386;"REPRESENTACAO COMERCIAL (INTERMEDIARIOS DE VENDAS DE MERCADORIAS A";"AV JOAO WALLIG, 168/201"
"-30.0602363";"-51.2294788";"street_address";"R. Antenor Lemos, 57 - Menino Deus, Porto Alegre - RS, 90850-100, Brazil";387;"CONSULTORIO MEDICO";"R ANTENOR LEMOS, 57/600"
"-30.0223075";"-51.1541247";"street_address";"Rua Engenheiro Walter Boehl, 285 - Vila Ipiranga, Porto Alegre - RS, 91360-090, Brazil";388;"CONSULTORIO MEDICO";"R ENG WALTER BOEHL, 285/206"
"-30.0217049";"-51.196938";"street_address";"R. Cel. Bordini, 414 - Auxiliadora, Porto Alegre - RS, 90440-003, Brazil";389;"CONSULTORIO MEDICO";"R CEL BORDINI, 414"
"-30.023151";"-51.1909705";"street_address";"R. Felipe Neri, 457 - Auxiliadora, Porto Alegre - RS, 90440-150, Brazil";390;"CONSULTORIO MEDICO";"R FELIPE NERI, 457/508"
"-30.0302647";"-51.2231911";"street_address";"Rua Professor Annes Dias, 154 - Centro HistÛrico, Porto Alegre - RS, 90020-090, Brazil";391;"CONSULTORIO ODONTOLOGICO";"R PROF ANNES DIAS, 154/1405"
"-30.029678";"-51.2293383";"establishment";"R. dos Andradas, 1234 - Centro HistÛrico, Porto Alegre - RS, 90010-000, Brazil";392;"CONSULTORIO MEDICO";"R ANDRADAS, 1464/102"
"-30.0597741";"-51.2297676";"street_address";"R. JosÈ de Alencar, 207 - Menino Deus, Porto Alegre - RS, 90880-481, Brazil";393;"CONSULTORIO MEDICO";"R JOSE DE ALENCAR, 207/404"
"-30.1077306";"-51.2535685";"street_address";"Av. Wenceslau Escobar, 2200 - Vila ConceiÁ„o, Porto Alegre - RS, 91900-001, Brazil";394;"SERVICO DE MASSAGEM (MASSAGISTAS, MASSAGEM ESTETI-CA, TERAPEUTICA";"AV WENCESLAU ESCOBAR, 2200"
"-29.998475";"-51.128722";"street_address";"Rua Arar·s, 325 - Sarandi, Porto Alegre - RS, 91130-370, Brazil";395;"ESCRITORIO DE ENGENHARIA";"R ARARAS, 325"
"-30.048814";"-51.208663";"street_address";"Av. Princesa Isabel, 395 - Santana, Porto Alegre - RS, 90620-001, Brazil";396;"CONSULTORIO MEDICO";"AV PRINCESA ISABEL, 395"
"-30.0323453";"-51.1780246";"premise";"Av. Soledade, 569 - PetrÛpolis, Porto Alegre - RS, Brazil";397;"CONSULTORIO MEDICO";"AV SOLEDADE, 569"
"-30.0238177";"-51.222447";"street_address";"Av. Mau·, 2011 - Centro HistÛrico, Porto Alegre - RS, 90030-080, Brazil";398;"ESCRITORIO DE SERVICOS JURIDICOS";"AV MAUA, 2011/1205"
"-30.029678";"-51.2293383";"establishment";"R. dos Andradas, 1234 - Centro HistÛrico, Porto Alegre - RS, 90010-000, Brazil";399;"LABORATORIO DE PROTESE";"R ANDRADAS, 1519/46"
"-30.0014635";"-51.2015379";"street_address";"R. Dr. Jo„o In·cio, 478 - Navegantes, Porto Alegre - RS, Brazil";400;"ESCRITORIO ADMINISTRATIVO (SEDE ADMINISTRATIVA DE EMPRESA)";"R DR JOAO INACIO, 478"
"-30.029678";"-51.2293383";"establishment";"R. dos Andradas, 1234 - Centro HistÛrico, Porto Alegre - RS, 90010-000, Brazil";401;"CONSULTORIO MEDICO";"R ANDRADAS, 1727/57"
"-30.0256593";"-51.2025573";"street_address";"R. Luciana de Abreu, 471 - Moinhos de Vento, Porto Alegre - RS, 90570-060, Brazil";402;"CONSULTORIO MEDICO";"R LUCIANA DE ABREU, 471/603"
"-30.0409067";"-51.1785752";"street_address";"Av. IguaÁu, 165 - PetrÛpolis, Porto Alegre - RS, 90470-430, Brazil";403;"CONSULTORIO MEDICO";"AV IGUASSU, 165/205"
"-30.0315302";"-51.225625";"street_address";"R. Riachuelo, 1576 - Centro HistÛrico, Porto Alegre - RS, 90010-273, Brazil";404;"ESCRITORIO DE SERVICOS JURIDICOS";"R RIACHUELO, 1576/41"
"-30.0229643";"-51.2007654";"street_address";"R. Tobias da Silva, 99 - Moinhos de Vento, Porto Alegre - RS, Brazil";405;"CONSULTORIO MEDICO";"R TOBIAS DA SILVA, 99/301"
"-30.0173585";"-51.1895672";"premise";"Av. CristÛv„o Colombo, 3060 - HigienÛpolis, Porto Alegre - RS, 90560-002, Brazil";406;"CONSULTORIO MEDICO";"AV CRISTOVAO COLOMBO, 3060"
"-30.005971";"-51.1979397";"street_address";"Av. Brasil, 944 - Navegantes, Porto Alegre - RS, 90230-060, Brazil";407;"OFICINA DE REPARACAO DE ARTIGOS DIVERSOS NAO ESPE-CIFICADOS";"AV BRASIL, 944/1"
"-30.0264238";"-51.222395";"establishment";"PraÁa Osvaldo Cruz, 15 - Centro HistÛrico, Porto Alegre - RS, 90010-130, Brazil";408;"REPRESENTACAO COMERCIAL (INTERMEDIARIOS DE VENDAS DE MERCADORIAS A";"PCA OSVALDO CRUZ, 15/612"
"-30.048814";"-51.208663";"street_address";"Av. Princesa Isabel, 395 - Santana, Porto Alegre - RS, 90620-001, Brazil";409;"CONSULTORIO MEDICO";"AV PRINCESA ISABEL, 395/1"
"-30.0489494";"-51.2073983";"establishment";"R. Santana, 1253 - Santana, Porto Alegre - RS, 90040-373, Brazil";410;"CONSULTORIO MEDICO";"R SANTANA, 1253/302"
"-30.0287163";"-51.1669072";"street_address";"Rua Desembargador Espiridi„o de Lima Medeiros, 81 - TrÍs Figueiras, Porto Alegre - RS, 91330-020, Brazil";411;"CONSULTORIO MEDICO";"R DESEMBARGADOR ESPIRIDIAO L MEDEIROS, 81"
"-30.0298759";"-51.2019477";"street_address";"Av. Goethe, 71 - Rio Branco, Porto Alegre - RS, 90430-100, Brazil";412;"CONSULTORIO MEDICO";"AV GOETHE, 71/907"
"-30.0258314";"-51.204851";"street_address";"R. Padre Chagas, 66 - Moinhos de Vento, Porto Alegre - RS, 90570-080, Brazil";413;"CONSULTORIO MEDICO";"R PADRE CHAGAS, 66/403"
"-30.0253955";"-51.2034903";"street_address";"R. Padre Chagas, 185 - Moinhos de Vento, Porto Alegre - RS, 90570-080, Brazil";414;"CONSULTORIO MEDICO";"R PADRE CHAGAS, 185/507"
"-30.0308092";"-51.1961463";"premise";"R. Cel. Bordini, 1459 - Auxiliadora, Porto Alegre - RS, 90440-001, Brazil";415;"CONSULTORIO MEDICO";"R CEL BORDINI, 1459"
"-30.0443554";"-51.1861198";"street_address";"R. Gen. Souza Doca, 71 - PetrÛpolis, Porto Alegre - RS, 90630-050, Brazil";416;"SERVICO DE ENGENHARIA, ARQUITETURA, URBANISMO, PAISAGISMO, AGRONOM";"R GEN SOUZA DOCA, 71/507"
"-30.0270911";"-51.2295283";"street_address";"R. Uruguai, 35 - Centro HistÛrico, Porto Alegre - RS, 90010-140, Brazil";417;"ESCRITORIO DE CONTABILIDADE";"R URUGUAI, 35/542"
"-30.0163291";"-51.1593834";"street_address";"Av. Francisco Trein, 525 - Cristo Redentor, Porto Alegre - RS, 91350-200, Brazil";418;"CONSULTORIO MEDICO";"AV FRANCISCO TREIN, 525/204"
"-30.0250095";"-51.1622202";"street_address";"Av. Jo„o Wallig, 1800 - Passo d'Areia, Porto Alegre - RS, Brazil";419;"SERVICO DE PODOLOGIA";"AV JOAO WALLIG, 1800/1263"
"-30.0328584";"-51.1779499";"street_address";"Av. Soledade, 569 - PetrÛpolis, Porto Alegre - RS, Brazil";420;"CONSULTORIO MEDICO";"AV SOLEDADE, 569/805"
"-30.0102252";"-51.1561605";"establishment";"Av. Assis Brasil, 3090 - Cristo Redentor, Porto Alegre - RS, Brazil";421;"ESCRITORIO DE SERVICOS JURIDICOS";"AV ASSIS BRASIL, 3090/327"
"-30.0293446";"-51.2073656";"street_address";"R. Mostardeiro, 5 - IndependÍncia, Porto Alegre - RS, Brazil";422;"CONSULTORIO MEDICO";"R MOSTARDEIRO, 5/601"
"-30.1167461";"-51.2538344";"premise";"Av. Wenceslau Escobar, 3239 - Cristal, Porto Alegre - RS, Brazil";423;"CONSULTORIO MEDICO";"AV WENCESLAU ESCOBAR, 3239"
"-30.0294634";"-51.2045172";"street_address";"R. Mariante, 239 - Rio Branco, Porto Alegre - RS, 90430-181, Brazil";424;"CONSULTORIO MEDICO";"R MARIANTE, 239/403"
"-30.0308718";"-51.2030028";"street_address";"R. Dr. FlorÍncio Ygartua, 481 - Moinhos de Vento, Porto Alegre - RS, 90430-010, Brazil";425;"CONSULTORIO MEDICO";"R DR FLORENCIO YGARTUA, 481"
"-30.0323453";"-51.1780246";"premise";"Av. Soledade, 569 - PetrÛpolis, Porto Alegre - RS, Brazil";426;"CONSULTORIO MEDICO";"AV SOLEDADE, 569"
"-30.134404";"-51.2287177";"street_address";"R. G·vea, 351 - Ipanema, Porto Alegre - RS, 91760-040, Brazil";427;"CONSULTORIO ODONTOLOGICO";"R GAVEA, 351/2"
"-30.0270911";"-51.2295283";"street_address";"R. Uruguai, 35 - Centro HistÛrico, Porto Alegre - RS, 90010-140, Brazil";428;"ESCRITORIO DE ADMINISTRACAO (SERVIçO DE ASSESSORIAADMINISTRATIVA)";"R URUGUAI, 35/223"
"-30.0399381";"-51.2227966";"street_address";"R. JosÈ do PatrocÌnio, 584 - Cidade Baixa, Porto Alegre - RS, 90050-002, Brazil";429;"SALAO DE BELEZA";"R JOSE DO PATROCINIO, 584"
"-30.0399381";"-51.2227966";"street_address";"R. JosÈ do PatrocÌnio, 584 - Cidade Baixa, Porto Alegre - RS, 90050-002, Brazil";430;"SALAO DE BELEZA";"R JOSE DO PATROCINIO, 584"
"-30.0065969";"-51.1900849";"street_address";"R. Souza Reis, 67 - S„o Jo„o, Porto Alegre - RS, Brazil";431;"TELE-ENTREGAS";"R SOUZA REIS, 67"
"-30.091746";"-51.221901";"street_address";"Av. Nonoai, 1241 - Nonoai, Porto Alegre - RS, 91720-000, Brazil";432;"OFICINA-FUNILARIA";"AV NONOAI, 1241/2"
"-30.0299932";"-51.2232178";"street_address";"PraÁa Dom Feliciano, 39 - Centro HistÛrico, Porto Alegre - RS, Brazil";433;"CONSULTORIO MEDICO";"PCA DOM FELICIANO, 39/801"
"-30.06056";"-51.223643";"street_address";"PraÁa Menino Deus, 11 - Menino Deus, Porto Alegre - RS, 90850-180, Brazil";434;"CONSULTORIO ODONTOLOGICO";"PCA MENINO DEUS, 11/501"
"-30.030454";"-51.223409";"doctor";"R. Gen. Vitorino, 330/401 - Centro HistÛrico, Porto Alegre - RS, 90020-170, Brazil";435;"CONSULTORIO MEDICO";"R GEN VITORINO, 77/401"
"-30.0684524";"-51.1709192";"street_address";"R. Borborema, 196 - Vila Joao Pessoa, Porto Alegre - RS, 91520-030, Brazil";436;"ESTUDIO DE EDICAO E GRAVACAO DE FITAS DE VIDEO CASSETE E CD DE FES";"R BORBOREMA, 196"
"-30.029678";"-51.2293383";"establishment";"R. dos Andradas, 1234 - Centro HistÛrico, Porto Alegre - RS, 90010-000, Brazil";437;"CONSULTORIO ODONTOLOGICO";"R ANDRADAS, 1755/72"
"-30.1156117";"-51.2538139";"premise";"Av. Wenceslau Escobar, 3130 - Tristeza, Porto Alegre - RS, 91900-000, Brazil";438;"SALAO DE BELEZA";"AV WENCESLAU ESCOBAR, 3130"
"-30.1077306";"-51.2535685";"street_address";"Av. Wenceslau Escobar, 2200 - Vila ConceiÁ„o, Porto Alegre - RS, 91900-001, Brazil";439;"SALAO DE BELEZA";"AV WENCESLAU ESCOBAR, 2200"
"-30.1307245";"-51.2375744";"street_address";"Av. Cel. Marcos, 2136 - Pedra Redonda, Porto Alegre - RS, Brazil";440;"OFICINA DE REPARACAO DE ARTIGOS DE MADEIRA  E DO  MOBILIARIO (MOVE";"AV CEL MARCOS, 2136/2"
"-30.0296479";"-51.2250384";"beauty_salon";"R. dos Andradas, 1656 - 501 - Centro HistÛrico, Porto Alegre - RS, 90020-006, Brazil";441;"ESCRITORIO DE SERVICOS JURIDICOS";"R ANDRADAS, 1155/1205"
"-30.0622952";"-51.21413";"street_address";"R. EurÌco Lara, 380 - Medianeira, Porto Alegre - RS, 90880-390, Brazil";442;"ESCRITORIO DE CONTABILIDADE";"R EURICO LARA, 380/201"
"-30.0281315";"-51.2248061";"street_address";"Rua Doutor Flores, 105 - Centro HistÛrico, Porto Alegre - RS, Brazil";443;"ESCRITORIO DE SERVICOS JURIDICOS";"R DR FLORES, 105/1106"
"-30.0395946";"-51.2245546";"premise";"R. da Rep˙blica, 528 - Cidade Baixa, Porto Alegre - RS, 90050-321, Brazil";444;"CONSULTORIO DE TERAPIAS ALTERNATIVAS";"R REPUBLICA, 528"
"-30.0388554";"-51.1962075";"street_address";"R. Vicente da Fontoura, 2638 - Rio Branco, Porto Alegre - RS, 90640-002, Brazil";445;"PERSONAL TRAINER";"R VICENTE DA FONTOURA, 2638/401"
"-30.0100365";"-51.1767053";"street_address";"Av. Brasiliano Õndio de Moraes, 226 - Passo d'Areia, Porto Alegre - RS, 91030-001, Brazil";446;"CONSULTORIO ODONTOLOGICO";"AV BRASILIANO INDIO DE MORAES, 226"
"-30.0047035";"-51.1692618";"establishment";"Tv. Afonso Mabilde, 84 - Santa Maria Goretti, Porto Alegre - RS, 91030-350, Brazil";447;"EMPREITEIRA DA CONSTRUCAO CIVIL";"TRAV AFONSO MABILDE, 140"
"-30.0311234";"-51.2266742";"street_address";"R. Mal. Floriano Peixoto, 270 - Centro, Porto Alegre - RS, 90020-020, Brazil";448;"ESCRITORIO DE CONTABILIDADE E AUDITORIA";"R MARECHAL FLORIANO PEIXOTO, 270/502"
"-30.042699";"-51.193837";"street_address";"Rua Coronel Corte Real, 247 - PetrÛpolis, Porto Alegre - RS, 90630-080, Brazil";449;"PERSONAL TRAINER";"R CEL CORTE REAL, 247"
"-30.0179734";"-51.2042792";"street_address";"Av. CristÛv„o Colombo, 1694 - Floresta, Porto Alegre - RS, 90560-002, Brazil";450;"ESTUDIO FOTOGRAFICO";"AV CRISTOVAO COLOMBO, 1694/702"
"-30.0689044";"-51.1788724";"premise";"Av. RÛcio, 586 - Vila Joao Pessoa, Porto Alegre - RS, 91510-090, Brazil";451;"REPRESENTACAO COMERCIAL (INTERMEDIARIOS DE VENDAS DE MERCADORIAS A";"AV ROCIO, 586"
"-30.0292409";"-51.2258159";"street_address";"R. Vig. JosÈ In·cio, 399 - Centro HistÛrico, Porto Alegre - RS, 90020-110, Brazil";452;"CONSULTORIO MEDICO";"R VIGARIO JOSE IGNACIO, 399/908"
"-30.047663";"-51.220464";"street_address";"R. Dezessete de Junho, 871 - Menino Deus, Porto Alegre - RS, 90110-170, Brazil";453;"CONSULTORIO ODONTOLOGICO";"R DEZESSETE DE JUNHO, 871/202"
"-29.9893344";"-51.143138";"route";"R. SÈrgio Jungblut Dieterich, Porto Alegre - RS, Brazil";454;"TELE-ENTREGAS";"R SERGIO JUNGBLUT DIETERICH, 780"
"-30.0749065";"-51.2091017";"street_address";"Av. TeresÛpolis, 2 - TeresÛpolis, Porto Alegre - RS, Brazil";455;"FOTOCOPIAS, COPIAS HELIOGRAFICAS E PLASTIFICACAO";"AV TERESOPOLIS, 3084/2"
"-30.0847404";"-51.2149169";"premise";"Av. Nonoai, 31 - Nonoai, Porto Alegre - RS, 91720-000, Brazil";456;"CONSULTORIO MEDICO";"AV NONOAI, 31"
"-30.1143465";"-51.2548713";"street_address";"Av. Wenceslau Escobar, 2961 - Tristeza, Porto Alegre - RS, 91900-000, Brazil";457;"CONSULTORIO MEDICO";"AV WENCESLAU ESCOBAR, 2961"
"-30.0230967";"-51.1824575";"premise";"R. Dr. Guimar„es Rosa, 155 - Boa Vista, Porto Alegre - RS, 90480-080, Brazil";458;"CONSULTORIO MEDICO";"R DR GUIMARAES ROSA, 155"
"-30.0305244";"-51.2259518";"street_address";"R. Vig. JosÈ In·cio, 547 - Centro HistÛrico, Porto Alegre - RS, 90020-100, Brazil";459;"ESCRITORIO DE SERVICOS JURIDICOS";"R VIGARIO JOSE IGNACIO, 547/404"
"-30.0381952";"-51.2124131";"street_address";"R. ViÍira de Castro, 36 - Farroupilha, Porto Alegre - RS, Brazil";460;"ACADEMIA DE ENSINO E/OU PRATICA DE GINASTICA";"R VIEIRA DE CASTRO, 36"
"-30.0296136";"-51.2348723";"street_address";"R. Siqueira Campos, 702 - Centro HistÛrico, Porto Alegre - RS, Brazil";461;"CONSULTORIO MEDICO";"R SIQUEIRA CAMPOS, 702/114"
"-30.0299874";"-51.2040364";"street_address";"R. Mariante, 284 - Rio Branco, Porto Alegre - RS, 90430-180, Brazil";462;"CONSULTORIO MEDICO";"R MARIANTE, 284/304"
"-30.036356";"-51.2075843";"street_address";"Rua Francisco Ferrer, 453 - Rio Branco, Porto Alegre - RS, Brazil";463;"CONSULTORIO MEDICO";"R FRANCISCO FERRER, 453/605"
"-30.0578171";"-51.2225956";"street_address";"R. Saldanha Marinho, 33 - Menino Deus, Porto Alegre - RS, 90160-240, Brazil";464;"CONSULTORIO MEDICO";"R SALDANHA MARINHO, 33/503"
"-30.0260588";"-51.2269598";"bus_station";"Centro HistÛrico, Porto Alegre - RS, 90010-000, Brazil";465;"SERVICO DE SOFTWARE E HARDWARE";"LG VISCONDE DO CAIRU, 12/103"
"-30.0428161";"-51.2199758";"street_address";"R. JosÈ do PatrocÌnio, 998 - Cidade Baixa, Porto Alegre - RS, 90050-000, Brazil";466;"SERVICO DE TATUAGEM";"R JOSE DO PATROCINIO, 998"
"-30.0329034";"-51.217089";"street_address";"Av. Osvaldo Aranha, 508 - Bom Fim, Porto Alegre - RS, 90035-190, Brazil";467;"CONSULTORIO ODONTOLOGICO";"AV OSVALDO ARANHA, 508/201"
"-30.0300466";"-51.2033094";"street_address";"R. Dr. FlorÍncio Ygartua, 391 - Moinhos de Vento, Porto Alegre - RS, 90430-010, Brazil";468;"CONSULTORIO ODONTOLOGICO";"R DR FLORENCIO YGARTUA, 391/508"
"-30.0664471";"-51.2290112";"street_address";"R. Don· SofÌa, 113 - Santa Tereza, Porto Alegre - RS, 90840-060, Brazil";469;"PROFISSIONAL AUTONOMO";"R DONA SOFIA, 113"
"-30.0388734";"-51.1556581";"street_address";"R. Aquiles PÙrto Alegre, 221 - Vila Jardim, Porto Alegre - RS, 91330-550, Brazil";470;"EDITORACAO GRAFICA, EDICAO E IMPRESSAO DE OUTROS  PRODUTOS GRAFICO";"R AQUILES PORTO ALEGRE, 221/201"
"-30.0439539";"-51.2150395";"premise";"R. Dr. Sebasti„o Le„o, 295 - Azenha, Porto Alegre - RS, 90050-090, Brazil";471;"AGENCIA DE LOCACAO DE AUTOMOVEIS";"R DR SEBASTIAO LEAO, 295"
"-30.0319245";"-51.2169298";"street_address";"Rua Ant„o de Faria, 21 - Bom Fim, Porto Alegre - RS, 90035-210, Brazil";472;"CONSULTORIO DE PSIQUIATRIA";"R ANTAO DE FARIAS, 21/202"
"-30.0306302";"-51.2236249";"street_address";"Rua Professor Annes Dias, 112 - Centro HistÛrico, Porto Alegre - RS, 90020-090, Brazil";473;"CONSULTORIO MEDICO";"R PROF ANNES DIAS, 112/92"
"-30.0438432";"-51.1903659";"street_address";"R. Faria Santos, 132 - PetrÛpolis, Porto Alegre - RS, 90670-150, Brazil";474;"CONSULTORIO MEDICO";"R FARIA SANTOS, 132"
"-30.0215537";"-51.2112686";"street_address";"Av. Farrapos, 1029 - Floresta, Porto Alegre - RS, 90220-004, Brazil";475;"OFICINA DE REPARACAO DE MOTOCICLETAS";"AV FARRAPOS, 1029"
"-30.0288108";"-51.2255579";"street_address";"Av. Ot·vio Rocha, 115 - Centro HistÛrico, Porto Alegre - RS, 90020-151, Brazil";476;"OFICINA DE REPARACAO DE JOIAS E RELOGIOS";"AV OTAVIO ROCHA, 115/1703"
"-30.102093";"-51.2319551";"premise";"Av. Otto Niemeyer, 2994 - Cavalhada, Porto Alegre - RS, Brazil";477;"FOTOCOPIAS, COPIAS HELIOGRAFICAS E PLASTIFICACAO";"AV OTTO NIEMEYER, 2994"
"-30.0256593";"-51.2025573";"street_address";"R. Luciana de Abreu, 471 - Moinhos de Vento, Porto Alegre - RS, 90570-060, Brazil";478;"CONSULTORIO MEDICO";"R LUCIANA DE ABREU, 471/304"
"-30.0292896";"-51.2198054";"street_address";"Av. IndependÍncia, 172 - IndependÍncia, Porto Alegre - RS, 90035-072, Brazil";479;"CONSULTORIO MEDICO";"AV INDEPENDENCIA, 172/704"
"-30.0339334";"-51.2224544";"street_address";"Av. Jo„o Pessoa, 149 - Farroupilha, Porto Alegre - RS, 90040-001, Brazil";480;"EDITORACAO GRAFICA, EDICAO E IMPRESSAO DE OUTROS  PRODUTOS GRAFICO";"AV JOAO PESSOA, 149/1"
"-30.0293447";"-51.2224893";"street_address";"PraÁa Dom Feliciano, 78 - Centro HistÛrico, Porto Alegre - RS, 90020-160, Brazil";481;"CONSULTORIO MEDICO";"PCA DOM FELICIANO, 78/701"
"-30.0293446";"-51.2073656";"street_address";"R. Mostardeiro, 5 - IndependÍncia, Porto Alegre - RS, Brazil";482;"CONSULTORIO MEDICO";"R MOSTARDEIRO, 5/806"
"-30.0180991";"-51.2048456";"street_address";"Av. CristÛv„o Colombo, 1636 - Floresta, Porto Alegre - RS, 90560-002, Brazil";483;"CONSULTORIO MEDICO";"AV CRISTOVAO COLOMBO, 1636/203"
"-30.0373348";"-51.2084348";"street_address";"R. Ramiro Barcelos, 2073 - Floresta, Porto Alegre - RS, 90035-004, Brazil";484;"CONSULTORIO DE FISIOTERAPIA";"R RAMIRO BARCELOS, 2073/4"
"-30.0092842";"-51.1542445";"street_address";"R. AlianÁa, 115 - Jardim Lindoia, Porto Alegre - RS, Brazil";485;"OFICINA DE ASSISTENCIA TECNICA";"R ALIANCA, 115"
"-30.0582161";"-51.2292508";"street_address";"R. Costa, 30 - Menino Deus, Porto Alegre - RS, 90110-270, Brazil";486;"CONSULTORIO MEDICO";"R COSTA, 30/802"
"-30.0279865";"-51.222828";"establishment";"Av. Alberto Bins, 392 - Centro HistÛrico, Porto Alegre - RS, Brazil";487;"CONSULTORIO ODONTOLOGICO";"AV ALBERTO BINS, 392/402"
"-30.02491";"-51.1825937";"street_address";"Av. Carlos Gomes, 350 - Boa Vista, Porto Alegre - RS, 90480-000, Brazil";488;"GARAGEM E ESTACIONAMENTO PARA VEICULOS, EXCETO OS DE CARGA OU COLE";"AV CARLOS GOMES, 350"
"-30.0552796";"-51.1733766";"street_address";"Av. Ipiranga, 6690 - Jardim Bot‚nico, Porto Alegre - RS, Brazil";489;"CONSULTORIO MEDICO";"AV IPIRANGA, 6690/607"
"-30.0190108";"-51.1876303";"street_address";"R. MarquÍs do Pombal, 1627 - Auxiliadora, Porto Alegre - RS, 90540-001, Brazil";490;"CONSULTORIO VETERINARIO";"R MARQUES DO POMBAL, 1627"
"-30.0652207";"-51.2125533";"street_address";"Av. Dr. Carlos Barbosa, 1117 - Medianeira, Porto Alegre - RS, 90880-001, Brazil";491;"CONSULTORIO MEDICO";"AV DR CARLOS BARBOSA, 1117"
"-30.0582161";"-51.2292508";"street_address";"R. Costa, 30 - Menino Deus, Porto Alegre - RS, 90110-270, Brazil";492;"CONSULTORIO MEDICO";"R COSTA, 30"
"-30.0369194";"-51.1538341";"street_address";"R. Souza LÙbo, 521 - Vila Jardim, Porto Alegre - RS, 91320-320, Brazil";493;"SALAO DE BELEZA";"R SOUZA LOBO, 521"
"-30.0221146";"-51.2023565";"establishment";"PraÁa Dr. MaurÌcio Cardoso, 170 - Moinhos de Vento, Porto Alegre - RS, Brazil";494;"ESCOLA PROFISSIONALIZANTE";"PCA DR MAURICIO CARDOSO, 170/501"
"-30.0387638";"-51.1774086";"street_address";"Av. IguaÁu, 418 - PetrÛpolis, Porto Alegre - RS, 90470-430, Brazil";495;"ESCRITORIO ADMINISTRATIVO (SEDE ADMINISTRATIVA DE EMPRESA)";"AV IGUASSU, 418/1003"
"-30.027243";"-51.14777";"bus_station";"Vila Ipiranga, Porto Alegre - RS, 91320-190, Brazil";496;"REPRESENTACAO COMERCIAL (INTERMEDIARIOS DE VENDAS DE MERCADORIAS A";"R DOM LUIZ GUANELLA, 320/1"
"-30.1305037";"-51.2313621";"street_address";"R. Tenente-Coronel Mario Doernte, 200 - Ipanema, Porto Alegre - RS, 91760-700, Brazil";497;"ESCOLA PARA EXCEPCIONAIS";"R TEN CEL MARIO DOERNTE, 200"
"-30.0291601";"-51.224489";"street_address";"Rua Doutor Flores, 220 - Centro HistÛrico, Porto Alegre - RS, 90020-121, Brazil";498;"ESCOLA PREPARATORIA";"R DR FLORES, 220/1"
"-30.0291601";"-51.224489";"street_address";"Rua Doutor Flores, 220 - Centro HistÛrico, Porto Alegre - RS, 90020-121, Brazil";499;"ESCRITORIO ADMINISTRATIVO (SEDE ADMINISTRATIVA DE EMPRESA)";"R DR FLORES, 220/1"
"-30.0177795";"-51.1994903";"street_address";"Av. CristÛv„o Colombo, 2144 - Floresta, Porto Alegre - RS, 90560-002, Brazil";500;"FOTOCOPIAS, COPIAS HELIOGRAFICAS E PLASTIFICACAO";"AV CRISTOVAO COLOMBO, 2144/505"
"-30.0108189";"-51.1353253";"route";"R. VitÛrio Francisco Giordani - Jardim Itu-Sabar·, Porto Alegre - RS, Brazil";501;"INSTITUICAO DE EDUCACAO INFANTIL (CRECHE)";"R VITORIO FRANCISCO GIORDANI, 165"
"-30.0142191";"-51.1672906";"street_address";"Av. AndaraÌ, 266 - Passo d'Areia, Porto Alegre - RS, 91350-110, Brazil";502;"INSTITUICAO DE EDUCACAO INFANTIL (CRECHE)";"R ANDARAI, 266"
"-30.0555089";"-51.2234714";"street_address";"R. Comendador Rodolfo Gomes, 703 - Menino Deus, Porto Alegre - RS, 90150-101, Brazil";503;"INSTITUICAO DE EDUCACAO INFANTIL (CRECHE)";"R COMENDADOR RODOLFO GOMES, 703"
"-30.0436674";"-51.1834001";"street_address";"Av. Prot·sio Alves, 2561 - Alto PetrÛpolis, Porto Alegre - RS, Brazil";504;"ESCOLA PROFISSIONALIZANTE";"AV PROTASIO ALVES, 2561/603"
"-30.0388941";"-51.1946884";"street_address";"Av. Cel. Lucas de Oliveira, 1841 - PetrÛpolis, Porto Alegre - RS, Brazil";505;"SERVICO DE TREINAMENTO E ADMINISTRACAO DE PESSOAL";"AV CEL LUCAS DE OLIVEIRA, 1841/404"
"-30.0278384";"-51.2304199";"establishment";"R. Gen. C‚mara, 60 - Centro HistÛrico, Porto Alegre - RS, 90010-230, Brazil";506;"ESCRITORIO DE COBRANCA E AJUSTE DE CONTAS";"R GEN CAMARA, 432/1004"
"-30.0292398";"-51.2245467";"street_address";"Rua Doutor Flores, 230 - Centro, Porto Alegre - RS, Brazil";507;"ESCOLA PREPARATORIA";"R DR FLORES, 230"
"-30.045443";"-51.204863";"street_address";"R. Bernardo PÌres, 280 - Santana, Porto Alegre - RS, 90620-010, Brazil";508;"ESCRITORIO DE SERVICOS JURIDICOS";"R BERNARDO PIRES, 280/301"
"-30.048881";"-51.206322";"street_address";"R. Domingos CrescÍncio, 394 - Santana, Porto Alegre - RS, 90650-090, Brazil";509;"ESCRITORIO ADMINISTRATIVO (SEDE ADMINISTRATIVA DE EMPRESA)";"R DOMINGOS CRESCENCIO, 394"
"-30.030913";"-51.1809697";"street_address";"Av. Carlos Gomes, 1001 - PetrÛpolis, Porto Alegre - RS, 90470-100, Brazil";510;"REPRESENTACAO COMERCIAL (INTERMEDIARIOS DE VENDAS DE MERCADORIAS A";"AV CARLOS GOMES, 1001/707"
"-30.0215177";"-51.2108865";"street_address";"R. Gaspar Martins, 390 - Floresta, Porto Alegre - RS, 90220-160, Brazil";511;"OFICINA DE ASSISTENCIA TECNICA";"R GASPAR MARTINS, 390"
"-30.0557389";"-51.2289257";"street_address";"Av. Praia de Belas, 1948 - Praia de Belas, Porto Alegre - RS, Brazil";512;"CRECHES,ESCOLAS MATERNAIS, CENTROS DE CUIDADOS";"AV PRAIA DE BELAS, 1948"
"-30.1075575";"-51.2380526";"street_address";"R. Dr. Pereira Neto, 1453 - Tristeza, Porto Alegre - RS, 91920-530, Brazil";513;"SERVICO DE BUFFET";"R DR PEREIRA NETO, 1453"
"-30.0072113";"-51.1936334";"establishment";"Av. Brasil, 1490 - S„o Jo„o, Porto Alegre - RS, 90230-061, Brazil";514;"OFICINA DE ASSISTENCIA TECNICA";"AV BRASIL, 1424"
"-30.0436098";"-51.1830765";"establishment";"Av. Prot·sio Alves, 2599 - PetrÛpolis, Porto Alegre - RS, 90410-003, Brazil";515;"CONSULTORIO DE TERAPIAS ALTERNATIVAS";"AV PROTASIO ALVES, 2599/205"
"-30.0485282";"-51.1852355";"street_address";"R. Guilherme Alves, 145 - PetrÛpolis, Porto Alegre - RS, 90680-001, Brazil";516;"OFICINA DE REPARACAO DE ARTIGOS DE MADEIRA  E DO  MOBILIARIO (MOVE";"R GUILHERME ALVES, 145"
"-30.0229095";"-51.1084561";"route";"R. Dr. Vargas Neto, Porto Alegre - RS, Brazil";517;"PROFISSIONAL AUTONOMO";"R DR VARGAS NETO, 893"
"-30.036562";"-51.103755";"street_address";"R. Cel. Pm Hermano Wolf, 325 - Mario Quintana, Porto Alegre - RS, 91260-420, Brazil";518;"PROFISSIONAL AUTONOMO";"R CEL PM HERMANO WOLF, 85"
"-30.0640666";"-51.2118354";"premise";"Av. Dr. Carlos Barbosa, 974 - Medianeira, Porto Alegre - RS, 90880-000, Brazil";519;"HOTEIS";"AV DR CARLOS BARBOSA, 974"
"-30.0226514";"-51.19535";"street_address";"Av. Cel. Lucas de Oliveira, 15 - PetrÛpolis, Porto Alegre - RS, Brazil";520;"CONSULTORIO MEDICO";"AV CEL LUCAS DE OLIVEIRA, 15"
"-30.0338172";"-51.2378141";"street_address";"R. Riachuelo, 387 - Centro HistÛrico, Porto Alegre - RS, 90010-273, Brazil";521;"GARAGEM E ESTACIONAMENTO PARA VEICULOS, EXCETO OS DE CARGA OU COLE";"R RIACHUELO, 387"
"-30.029678";"-51.2293383";"establishment";"R. dos Andradas, 1234 - Centro HistÛrico, Porto Alegre - RS, 90010-000, Brazil";522;"CLINICA MEDICA S/PROCEDIMENTO INVASIVO S/CALDEIRA";"R ANDRADAS, 1464/132"
"-29.991206";"-51.133373";"street_address";"R. Passos Figueiroa, 252 - Sarandi, Porto Alegre - RS, 91110-500, Brazil";523;"ESCRITORIO ADMINISTRATIVO (SEDE ADMINISTRATIVA DE EMPRESA)";"R PASSOS FIGUEIROA, 252"
"-30.0162569";"-51.1260494";"route";"R. Manoel Ferrador - Passo das Pedras, Porto Alegre - RS, Brazil";524;"INSTALACOES ELETRICAS";"R MANOEL FERRADOR, 330"
"-29.9992752";"-51.188051";"street_address";"Rua 18 de Novembro, 800 - S„o Jo„o, Porto Alegre - RS, 90240-040, Brazil";525;"ESCOLA ESPECIAL";"R DEZOITO DE NOVEMBRO, 800"
"-30.0121692";"-51.1693497";"street_address";"Av. Assis Brasil, 1817 - Passo d'Areia, Porto Alegre - RS, 91010-004, Brazil";526;"ESCRITORIO ADMINISTRATIVO (SEDE ADMINISTRATIVA DE EMPRESA)";"AV ASSIS BRASIL, 1817/304"
"-30.07773";"-51.19957";"street_address";"R. Prof. Oscar Pereira, 3170 - GlÛria, Porto Alegre - RS, 91710-000, Brazil";527;"OFICINA DE REPARACAO DE MAQUINAS E APARELHOS ELE- TRICOS OU NAO";"AV PROF OSCAR PEREIRA, 3170"
"-30.0225926";"-51.2018356";"street_address";"R. FÈlix da Cunha, 1088 - Floresta, Porto Alegre - RS, 90570-001, Brazil";528;"AGENCIA DE VIAGENS E TURISMO";"R FELIX DA CUNHA, 1088/1"
"-30.0459478";"-51.2246571";"street_address";"R. Cel. AndrÈ Belo, 450 - Menino Deus, Porto Alegre - RS, 90050-360, Brazil";529;"ESCOLA ESPECIAL";"R CEL ANDRE BELO, 450"
"-30.0550575";"-51.1997966";"street_address";"Av. Bento GonÁalves, 1403 - Santo AntÙnio, Porto Alegre - RS, Brazil";530;"ESCOLA PROFISSIONALIZANTE";"AV BENTO GONCALVES, 1403"
"-30.0172907";"-51.1893105";"street_address";"Av. CristÛv„o Colombo, 3084 - HigienÛpolis, Porto Alegre - RS, Brazil";531;"ESCRITORIO DE SERVICOS DE ASSESSORIA";"AV CRISTOVAO COLOMBO, 3084/404"
"-30.0084085";"-51.154528";"street_address";"R. Amoroso Costa, 363 - Cristo Redentor, Porto Alegre - RS, 91050-010, Brazil";532;"GARAGEM E ESTACIONAMENTO PARA VEICULOS, EXCETO OS DE CARGA OU COLE";"R AMOROSO COSTA, 363"
"-30.0233709";"-51.1927385";"street_address";"R. Felipe Neri, 287 - Auxiliadora, Porto Alegre - RS, 90440-150, Brazil";533;"SERVICO DE TREINAMENTO E ADMINISTRACAO DE PESSOAL";"R FELIPE NERI, 287/504"
"-30.1004088";"-51.2479211";"street_address";"R. Cel. Massot, 58 - Camaqu„, Porto Alegre - RS, 91910-530, Brazil";534;"SERVICO DE MONTAGEM DE MOVEIS";"R CEL MASSOT, 58"
"-30.0051979";"-51.1920562";"establishment";"Rua Arabutan, 903 - Navegantes, Porto Alegre - RS, 90240-470, Brazil";535;"ESCRITORIO DE ENGENHARIA";"R ARABUTAN, 903"
"-30.0121108";"-51.1916417";"street_address";"R. Marcelo Gama, 218 - S„o Jo„o, Porto Alegre - RS, 90540-041, Brazil";536;"REPRESENTACAO COMERCIAL (INTERMEDIARIOS DE VENDAS DE MERCADORIAS A";"R MARCELO GAMA, 218"
"-30.0317262";"-51.2255877";"street_address";"R. Riachuelo, 1601 - Centro HistÛrico, Porto Alegre - RS, 90010-270, Brazil";537;"ESCRITORIO DE CONTABILIDADE E AUDITORIA";"R RIACHUELO, 1601/401"
"-30.0317262";"-51.2255877";"street_address";"R. Riachuelo, 1601 - Centro HistÛrico, Porto Alegre - RS, 90010-270, Brazil";538;"ESCRITORIO ADMINISTRATIVO (SEDE ADMINISTRATIVA DE EMPRESA)";"R RIACHUELO, 1601/401"
"-30.0272472";"-51.1869112";"premise";"R. Carlos Trein Filho, 580 - Auxiliadora, Porto Alegre - RS, 90450-120, Brazil";539;"SERVICO DE SOFTWARE E HARDWARE";"R CARLOS TREIN FILHO, 580"
"-30.1001542";"-51.2482267";"street_address";"Av. Wenceslau Escobar, 1134 - Cristal, Porto Alegre - RS, Brazil";540;"EMPREITEIRA DA CONSTRUCAO CIVIL";"AV WENCESLAU ESCOBAR, 1134/408"
"-30.0362009";"-51.2081509";"street_address";"R. Ramiro Barcelos, 1954 - Floresta, Porto Alegre - RS, Brazil";541;"ESCOLA DE LINGUAS";"R RAMIRO BARCELOS, 1954/503"
"-30.0328503";"-51.1785966";"street_address";"Av. Carlos Gomes, 1340 - Auxiliadora, Porto Alegre - RS, 90480-001, Brazil";542;"ESCRITORIO DE PUBLICIDADE E PROPAGANDA";"AV CARLOS GOMES, 1340/701"
"-30.0976574";"-51.2307492";"street_address";"Av. da Cavalhada, 2370 - Cavalhada, Porto Alegre - RS, 91740-001, Brazil";543;"ESCRITORIO DE SERVICOS DE CONSULTORIA";"AV CAVALHADA, 2370/511"
