"lat";"long";"accuracy";"formatted_address";"index";"tipo";"default"
"-30.042744";"-51.187157";"street_address";"Av. Taquara, 110 - Petrópolis, Porto Alegre - RS, 90460-210, Brazil";1;"CONSULTORIO DE FISIOTERAPIA";"AV TAQUARA, 110/301"
"-30.0371023";"-51.209056";"street_address";"Av. Venâncio Aires, 1191 - Santana, Porto Alegre - RS, 90040-200, Brazil";2;"CONSULTORIO DE FONOAUDIOLOGIA";"AV VENANCIO AIRES, 1191/52"
"-30.0177488";"-51.200159";"street_address";"R. Dr. Timóteo, 288 - Floresta, Porto Alegre - RS, Brazil";3;"SALAO DE BELEZA";"R DR TIMOTEO, 288"
"-30.0377728";"-51.2121546";"street_address";"Av. José Bonifácio, 519 - Farroupilha, Porto Alegre - RS, 90040-130, Brazil";4;"CONSULTORIO DE PSICOLOGIA";"AV JOSE BONIFACIO, 519/304"
"-30.1456992";"-51.2161328";"street_address";"Av. da Serraria, 219 - Espírito Santo, Porto Alegre - RS, 91770-010, Brazil";5;"SALAO DE BELEZA";"AV SERRARIA, 219"
"-30.0323453";"-51.1780246";"premise";"Av. Soledade, 569 - Petrópolis, Porto Alegre - RS, Brazil";6;"CONSULTORIO MEDICO";"AV SOLEDADE, 569"
"-30.1091591";"-51.2556955";"premise";"R. Pedro de Oliveira Bitencourt, 125 - Tristeza, Porto Alegre - RS, 91900-230, Brazil";7;"CONSULTORIO DE PSICOLOGIA";"R PEDRO DE OLIVEIRA BITTENCOURT, 125"
"-30.0270911";"-51.2295283";"street_address";"R. Uruguai, 35 - Centro Histórico, Porto Alegre - RS, 90010-140, Brazil";8;"SALAO DE BELEZA";"R URUGUAI, 35/417"
"-30.0282017";"-51.1782493";"premise";"Alameda Alípio César, 177 - Boa Vista, Porto Alegre - RS, 91340-310, Brazil";9;"CONSULTORIO DE PSICOLOGIA";"AL ALIPIO CESAR, 177"
"-30.0064434";"-51.1343187";"route";"Rua Engenheiro Fernando Abreu Pereira - Sarandi, Porto Alegre - RS, Brazil";10;"SALAO DE BELEZA";"R ENG FERNANDO DE ABREU PEREIRA, 112"
"-30.1048517";"-51.2544351";"street_address";"Av. Wenceslau Escobar, 1823 - Cristal, Porto Alegre - RS, Brazil";11;"CONSULTORIO ODONTOLOGICO";"AV WENCESLAU ESCOBAR, 1823/303"
"-30.0488296";"-51.2033392";"premise";"R. São Luís, 686 - Santana, Porto Alegre - RS, 90620-170, Brazil";12;"SALAO DE BELEZA";"R SAO LUIZ, 686"
"-30.0529278";"-51.2143344";"premise";"R. Barão do Triunfo, 723 - Menino Deus, Porto Alegre - RS, 90130-100, Brazil";13;"SALAO DE BELEZA";"R BARAO DO TRIUNFO, 723"
"-30.0399162";"-51.1947569";"premise";"Av. Cel. Lucas de Oliveira, 1955 - Petrópolis, Porto Alegre - RS, 90460-001, Brazil";14;"CONSULTORIO ODONTOLOGICO";"AV CEL LUCAS DE OLIVEIRA, 1955"
"-30.0237186";"-51.2005551";"street_address";"R. 24 de Outubro, 838 - Moinhos de Vento, Porto Alegre - RS, 90510-001, Brazil";15;"CONSULTORIO DE PSIQUIATRIA";"R VINTE QUATRO DE OUTUBRO, 838/711"
"-30.0394966";"-51.2249836";"street_address";"R. da República, 567 - Cidade Baixa, Porto Alegre - RS, 90050-321, Brazil";16;"ESCRITORIO DE SERVICOS JURIDICOS";"R REPUBLICA, 567/211"
"-30.0217249";"-51.1828869";"street_address";"Av. Plínio Brasil Milano, 805 - Higienópolis, Porto Alegre - RS, 90520-002, Brazil";17;"CONSULTORIO MEDICO";"AV PLINIO BRASIL MILANO, 805/307"
"-30.0288336";"-51.2027461";"street_address";"R. Dr. Florêncio Ygartua, 270 - Moinhos de Vento, Porto Alegre - RS, 90430-010, Brazil";18;"CONSULTORIO MEDICO";"R DR FLORENCIO YGARTUA, 270/807"
"-30.050308";"-51.214111";"street_address";"R. Marcílio Dias, 1492 - Menino Deus, Porto Alegre - RS, 90130-000, Brazil";19;"SALAO DE BELEZA";"R MARCILIO DIAS, 1492"
"-30.0114901";"-51.1693265";"street_address";"Av. Assis Brasil, 1826 - Passo d'Areia, Porto Alegre - RS, 91010-001, Brazil";20;"CONSULTORIO DE FISIOTERAPIA";"AV ASSIS BRASIL, 1826/404"
"-30.0250095";"-51.1622202";"street_address";"Av. João Wallig, 1800 - Passo d'Areia, Porto Alegre - RS, Brazil";21;"SALAO DE BELEZA";"AV JOAO WALLIG, 1800/1102"
"-30.0289933";"-51.2031926";"street_address";"R. Dr. Florêncio Ygartua, 271 - Moinhos de Vento, Porto Alegre - RS, Brazil";22;"CONSULTORIO ODONTOLOGICO";"R DR FLORENCIO YGARTUA, 271/405"
"-30.0123791";"-51.0976666";"street_address";"Av. Baltazar de Oliveira Garcia, 4870 - Sao Sebastiao, Porto Alegre - RS, Brazil";23;"CONSULTORIO ODONTOLOGICO";"AV BALTAZAR DE OLIVEIRA GARCIA, 4870"
"-30.158716";"-51.223461";"street_address";"R. Joaçaba, 260 - Guarujá, Porto Alegre - RS, 91770-440, Brazil";24;"MINI-SNOOKER";"R JOACABA, 260"
"-30.0291938";"-51.2011878";"street_address";"Av. Goethe, 21 - PARCÃO, Porto Alegre - RS, 90430-100, Brazil";25;"CONSULTORIO MEDICO";"AV GOETHE, 21/803"
"-30.0318973";"-51.1436043";"route";"R. Guadalajara - Jardim Itu-Sabará, Porto Alegre - RS, Brazil";26;"ESCRITORIO ADMINISTRATIVO (SEDE ADMINISTRATIVA DE EMPRESA)";"R GUADALAJARA, 19"
"-30.0551152";"-51.2222415";"street_address";"Av. Getúlio Vargas, 1184 - Menino Deus, Porto Alegre - RS, 90150-004, Brazil";27;"CONSULTORIO DE PSICOLOGIA";"AV GETULIO VARGAS, 1184/405"
"-30.1116124";"-51.2545569";"street_address";"R. Dr. Armando Barbedo, 480 - Tristeza, Porto Alegre - RS, 91920-520, Brazil";28;"CONSULTORIO DE NUTRICIONISTA";"R DR ARMANDO BARBEDO, 480/401"
"-30.0261953";"-51.2013983";"street_address";"R. Comendador Caminha, 312 - Moinhos de Vento, Porto Alegre - RS, 90430-030, Brazil";29;"CONSULTORIO DE NUTRICIONISTA";"R COMENDADOR CAMINHA, 312/606"
"-30.0097852";"-51.1519253";"street_address";"Av. Assis Brasil, 3532 - Jardim Lindoia, Porto Alegre - RS, Brazil";30;"CONSULTORIO DE NUTRICIONISTA";"AV ASSIS BRASIL, 3532/703"
"-30.0293446";"-51.2073656";"street_address";"R. Mostardeiro, 5 - Independência, Porto Alegre - RS, Brazil";31;"CONSULTORIO MEDICO";"R MOSTARDEIRO, 5/711"
"-30.0292896";"-51.2198054";"street_address";"Av. Independência, 172 - Independência, Porto Alegre - RS, 90035-072, Brazil";32;"CONSULTORIO DE PSICOLOGIA";"AV INDEPENDENCIA, 172/604"
"-30.0213993";"-51.186523";"premise";"R. Dom Pedro II, 1619 - Auxiliadora, Porto Alegre - RS, 90540-100, Brazil";33;"SALAO DE BELEZA";"R DOM PEDRO II, 1619"
"-30.042946";"-51.219937";"street_address";"R. José do Patrocínio, 1006 - Cidade Baixa, Porto Alegre - RS, 90050-004, Brazil";34;"CONSULTORIO VETERINARIO SEM ALOJAMENTO";"R JOSE DO PATROCINIO, 1006"
"-30.0398693";"-51.1640573";"establishment";"R. Dr. Ernesto Ludwig, 25 - Chac das Pedras, Porto Alegre - RS, 91330-420, Brazil";35;"PROFISSIONAL AUTONOMO";"R DR ERNESTO LUDWIG, 25/303"
"-30.0403514";"-51.2154417";"street_address";"Av. Venâncio Aires, 504 - Cidade Baixa, Porto Alegre - RS, 90040-191, Brazil";36;"CONSULTORIO DE PSICOLOGIA";"AV VENANCIO AIRES, 504/504"
"-30.0320051";"-51.2275678";"street_address";"Av. Borges de Medeiros, 632 - Centro Histórico, Porto Alegre - RS, 90020-021, Brazil";37;"SERVICO DE PODOLOGIA";"AV BORGES DE MEDEIROS, 632"
"-30.009786";"-51.1519262";"street_address";"Av. Assis Brasil, 3522 - Jardim Lindoia, Porto Alegre - RS, 91010-003, Brazil";38;"CONFECCAO SOB MEDIDA DE ARTIGOS DO VESTUARIO";"AV ASSIS BRASIL, 3522/116"
"-30.0186896";"-51.1904898";"street_address";"R. Germano Petersen Júnior, 235 - Higienópolis, Porto Alegre - RS, 90540-140, Brazil";39;"SALAO DE BELEZA";"R GERMANO PETERSEN JUNIOR, 235"
"-30.0421948";"-51.146689";"route";"Av. Protásio Alves, Porto Alegre - RS, Brazil";40;"SALAO DE BELEZA";"AV PROTASIO ALVES, 7731"
"-30.029678";"-51.2293383";"establishment";"R. dos Andradas, 1234 - Centro Histórico, Porto Alegre - RS, 90010-000, Brazil";41;"CONSULTORIO MEDICO";"R ANDRADAS, 1711/203"
"-30.0267899";"-51.1973584";"street_address";"R. Quintino Bocaiúva, 984 - Floresta, Porto Alegre - RS, 90440-050, Brazil";42;"CONSULTORIO MEDICO";"R QUINTINO BOCAIUVA, 984"
"-30.0582161";"-51.2292508";"street_address";"R. Costa, 30 - Menino Deus, Porto Alegre - RS, 90110-270, Brazil";43;"CONSULTORIO MEDICO";"R COSTA, 30/506"
"-30.061475";"-51.226369";"street_address";"R. Dona Augusta, 136 - Menino Deus, Porto Alegre - RS, 90850-130, Brazil";44;"ESCRITORIO ADMINISTRATIVO (SEDE ADMINISTRATIVA DE EMPRESA)";"R DONA AUGUSTA, 136"
"-30.021833";"-51.1625768";"street_address";"Av. Túlio de Rose, 80 - Passo d'Areia, Porto Alegre - RS, Brazil";45;"SALAO DE BELEZA";"AV TULIO DE ROSE, 80/323"
"-30.03596";"-51.2098918";"street_address";"R. Felipe Camarão, 751 - Rio Branco, Porto Alegre - RS, 90035-141, Brazil";46;"CONSULTORIO DE PSICOLOGIA";"R FELIPE CAMARAO, 751/602"
"-30.1140262";"-51.2551327";"street_address";"Av. Wenceslau Escobar, 2923 - Tristeza, Porto Alegre - RS, Brazil";47;"CONSULTORIO MEDICO";"AV WENCESLAU ESCOBAR, 2923/409"
"-30.0434695";"-51.1895277";"street_address";"R. Prof. Langendonck, 57 - Petrópolis, Porto Alegre - RS, 90630-060, Brazil";48;"CONSULTORIO MEDICO";"R PROF LANGENDONCK, 57/207"
"-30.0322908";"-51.2110986";"street_address";"Rua Fernandes Vieira, 325 - Bom Fim, Porto Alegre - RS, 90035-091, Brazil";49;"CONSULTORIO DE FISIOTERAPIA";"R FERNANDES VIEIRA, 325/201"
"-30.0322908";"-51.2110986";"street_address";"Rua Fernandes Vieira, 325 - Bom Fim, Porto Alegre - RS, 90035-091, Brazil";50;"CONSULTORIO DE FISIOTERAPIA";"R FERNANDES VIEIRA, 325/202"
"-30.036568";"-51.2089522";"street_address";"Av. Osvaldo Aranha, 1380 - Bom Fim, Porto Alegre - RS, Brazil";51;"SALAO DE BELEZA PARA ANIMAIS";"AV OSVALDO ARANHA, 1380/201"
"-30.0595209";"-51.1525167";"street_address";"Av. Ipiranga, 8435 - Partenon, Porto Alegre - RS, 91530-001, Brazil";52;"ESCRITORIO DE CONTABILIDADE";"AV IPIRANGA, 8435"
"-30.0225507";"-51.1742048";"premise";"R. Anita Garibaldi, 2177 - Boa Vista, Porto Alegre - RS, 90484-200, Brazil";53;"SALAO DE BELEZA";"R ANITA GARIBALDI, 2177"
"-30.0177795";"-51.1994903";"street_address";"Av. Cristóvão Colombo, 2144 - Floresta, Porto Alegre - RS, 90560-002, Brazil";54;"CONSULTORIO DE NUTRICIONISTA";"AV CRISTOVAO COLOMBO, 2144/307"
"-30.0293446";"-51.2073656";"street_address";"R. Mostardeiro, 5 - Independência, Porto Alegre - RS, Brazil";55;"CONSULTORIO DE PSIQUIATRIA";"R MOSTARDEIRO, 5/308"
"-30.0760378";"-51.2004261";"street_address";"R. Intendente Alfredo Azevedo, 39 - Glória, Porto Alegre - RS, Brazil";56;"SERVICO DE MASSAGEM (MASSAGISTAS, MASSAGEM ESTETI-CA, TERAPEUTICA";"R INTENDENTE ALFREDO AZEVEDO, 39"
"-29.9796943";"-51.1278947";"premise";"R. Jacob Philippsen, 70 - Sarandi, Porto Alegre - RS, 91120-520, Brazil";57;"PROFISSIONAL AUTONOMO";"R JACOB PHILIPPSEN, 70"
"-30.018588";"-51.208392";"street_address";"R. Sete de Abril, 252 - Floresta, Porto Alegre - RS, 90220-130, Brazil";58;"EDITORACAO GRAFICA, EDICAO E IMPRESSAO DE OUTROS  PRODUTOS GRAFICO";"R SETE DE ABRIL, 252"
"-30.0847365";"-51.1883108";"street_address";"R. da Gruta, 145 - Cascata, Porto Alegre - RS, Brazil";59;"CONSULTORIO MEDICO";"R GRUTA, 145/304"
"-30.094069";"-51.2297531";"street_address";"R. Dr. Campos Velho, 1675 - Cristal, Porto Alegre - RS, 90820-001, Brazil";60;"OFICINA DE ASSISTENCIA TECNICA";"R DR CAMPOS VELHO, 1675/14"
"-30.0489494";"-51.2073983";"establishment";"R. Santana, 1253 - Santana, Porto Alegre - RS, 90040-373, Brazil";61;"CONSULTORIO MEDICO";"R SANTANA, 1253/406"
"-30.0350041";"-51.2116354";"street_address";"Av. Osvaldo Aranha, 1082 - Bom Fim, Porto Alegre - RS, 90035-191, Brazil";62;"ESCRITORIO DE PROMOCOES";"AV OSVALDO ARANHA, 1082/304"
"-30.035227";"-51.2077808";"establishment";"R. César Lombroso, 49 - Rio Branco, Porto Alegre - RS, 90420-130, Brazil";63;"CONSULTORIO MEDICO";"R CESAR LOMBROSO, 49/704"
"-30.0232336";"-51.2000696";"premise";"R. Dr. Timóteo, 891 - Floresta, Porto Alegre - RS, Brazil";64;"GARAGEM E ESTACIONAMENTO PARA VEICULOS, EXCETO OS DE CARGA OU COLE";"R DR TIMOTEO, 891"
"-30.0482666";"-51.2013672";"street_address";"R. Vicente da Fontoura, 1340 - Rio Branco, Porto Alegre - RS, 90640-001, Brazil";65;"TINTURARIA E LAVANDERIA";"R VICENTE DA FONTOURA, 1340"
"-30.0552796";"-51.1733766";"street_address";"Av. Ipiranga, 6690 - Jardim Botânico, Porto Alegre - RS, Brazil";66;"CONSULTORIO MEDICO";"AV IPIRANGA, 6690/705"
"-30.1283643";"-51.2191104";"route";"Av. Eduardo Prado, Porto Alegre - RS, Brazil";67;"CONSULTORIO MEDICO";"AV EDUARDO PRADO, 1940/212"
"-30.008723";"-51.182016";"street_address";"Av. Assis Brasil, 383 - São João, Porto Alegre - RS, 91010-004, Brazil";68;"CONSULTORIO DE TERAPIAS ALTERNATIVAS";"AV ASSIS BRASIL, 383/3"
"-30.0404719";"-51.1673391";"street_address";"Av. Protásio Alves, 4428 - Alto Petrópolis, Porto Alegre - RS, Brazil";69;"ACADEMIA DE ENSINO E/OU PRATICA DE GINASTICA";"AV PROTASIO ALVES, 4428"
"-30.0302561";"-51.2038247";"street_address";"R. Mariante, 288 - Rio Branco, Porto Alegre - RS, 90430-180, Brazil";70;"ESCRITORIO DE SERVICOS JURIDICOS";"R MARIANTE, 288/809"
"-30.021893";"-51.1919363";"street_address";"R. 24 de Outubro, 1661 - Independência, Porto Alegre - RS, 90510-002, Brazil";71;"CONSULTORIO MEDICO";"R VINTE QUATRO DE OUTUBRO, 1661/707"
"-30.0245892";"-51.2036318";"street_address";"R. Luciana de Abreu, 323 - Moinhos de Vento, Porto Alegre - RS, 90570-060, Brazil";72;"CONSULTORIO ODONTOLOGICO";"R LUCIANA DE ABREU, 323/402"
"-30.03596";"-51.2098918";"street_address";"R. Felipe Camarão, 751 - Rio Branco, Porto Alegre - RS, 90035-141, Brazil";73;"ESCRITORIO DE CONTABILIDADE";"R FELIPE CAMARAO, 751/302"
"-30.0520759";"-51.1892663";"street_address";"Rua La Plata, 769 - Jardim Botânico, Porto Alegre - RS, 90670-140, Brazil";74;"SALAO DE BELEZA";"R LA PLATA, 769"
"-30.0255639";"-51.2083465";"street_address";"R. Ramiro Barcelos, 910 - Floresta, Porto Alegre - RS, Brazil";75;"CONSULTORIO MEDICO";"R RAMIRO BARCELOS, 910"
"-30.0233207";"-51.1978084";"street_address";"R. 24 de Outubro, 1100 - Moinhos de Vento, Porto Alegre - RS, 90510-001, Brazil";76;"CONSULTORIO ODONTOLOGICO";"R VINTE QUATRO DE OUTUBRO, 1100/501"
"-30.1355304";"-51.2267215";"street_address";"Av. Tramandaí, 720 - Ipanema, Porto Alegre - RS, 91760-050, Brazil";77;"CONSULTORIO MEDICO";"AV TRAMANDAI, 720/206"
"-30.030476";"-51.226284";"establishment";"Ed. Fleming - R. Gen. Vitorino, 53 - sala 31 - Centro Histórico, Porto Alegre - RS, 90020-170, Brazil";78;"CONSULTORIO MEDICO";"R GEN VITORINO, 310/502"
"-29.9887314";"-51.1291063";"street_address";"Av. 21 de Abril, 481 - Sarandi, Porto Alegre - RS, 91120-630, Brazil";79;"EDITORACAO GRAFICA, EDICAO E IMPRESSAO DE OUTROS  PRODUTOS GRAFICO";"AV VINTE UM DE ABRIL, 481"
"-30.066009";"-51.178108";"street_address";"Av. Rócio, 275 - Vila Joao Pessoa, Porto Alegre - RS, 91510-090, Brazil";80;"REPRESENTACAO COMERCIAL (INTERMEDIARIOS DE VENDAS DE MERCADORIAS A";"AV ROCIO, 275"
"-30.1354547";"-51.2233539";"street_address";"Av. Juca Batista, 100 - Cavalhada, Porto Alegre - RS, 91770-001, Brazil";81;"PROFISSIONAL AUTONOMO";"AV JUCA BATISTA, 100"
"-30.0297476";"-51.2036366";"establishment";"Rua Dona Laura, 207 - Moinhos de Vent, Porto Alegre - RS, 90430-091, Brazil";82;"CONSULTORIO MEDICO";"R DONA LAURA, 207/407"
"-30.029678";"-51.2293383";"establishment";"R. dos Andradas, 1234 - Centro Histórico, Porto Alegre - RS, 90010-000, Brazil";83;"SERVICO DE TELEFONIA";"R ANDRADAS, 1137/301"
"-30.0486946";"-51.2126603";"street_address";"Rua Dr. Ramiro D'Ávila, 20 - Azenha, Porto Alegre - RS, Brazil";84;"CONSULTORIO MEDICO";"R DR RAMIRO D'AVILA, 20/305"
"-30.0557389";"-51.2289257";"street_address";"Av. Praia de Belas, 1948 - Praia de Belas, Porto Alegre - RS, Brazil";85;"ACADEMIA DE ENSINO E/OU PRATICA DE GINASTICA";"AV PRAIA DE BELAS, 1948"
"-30.0232957";"-51.1610041";"street_address";"R. Antônio Carlos Berta, 475 - Passo d'Areia, Porto Alegre - RS, 91340-020, Brazil";86;"CONSULTORIO ODONTOLOGICO";"R ANTONIO CARLOS BERTA, 475/1903"
"-30.021639";"-51.210545";"street_address";"R. São Carlos, 545 - Floresta, Porto Alegre - RS, 90220-121, Brazil";87;"ESCRITORIO ADMINISTRATIVO (SEDE ADMINISTRATIVA DE EMPRESA)";"R SAO CARLOS, 545"
"-30.0289933";"-51.2031926";"street_address";"R. Dr. Florêncio Ygartua, 271 - Moinhos de Vento, Porto Alegre - RS, Brazil";88;"CONSULTORIO DE PSICOLOGIA";"R DR FLORENCIO YGARTUA, 271/301"
"-30.0297122";"-51.2311667";"establishment";"Customs Square - R. Siqueira Campos, 2529 - Centro Histórico, Porto Alegre - RS, 90010-000, Brazil";89;"ESCRITORIO DE SERVICOS JURIDICOS";"PCA ALFANDEGA, 12"
"-30.0275508";"-51.2293029";"street_address";"R. Uruguai, 91 - Centro Histórico, Porto Alegre - RS, 90010-140, Brazil";90;"FOTOCOPIAS, COPIAS HELIOGRAFICAS E PLASTIFICACAO";"R URUGUAI, 91/111"
"-30.0255639";"-51.2083465";"street_address";"R. Ramiro Barcelos, 910 - Floresta, Porto Alegre - RS, Brazil";91;"CONSULTORIO MEDICO";"R RAMIRO BARCELOS, 910/601"
"-30.081746";"-51.212807";"street_address";"Praça Guia Lopes, 87 - Teresópolis, Porto Alegre - RS, 90840-330, Brazil";92;"PROFISSIONAL AUTONOMO";"PCA GUIA LOPES, 87"
"-30.0109857";"-51.1596046";"premise";"Av. Francisco Trein, 20 - C Redentor, Porto Alegre - RS, 91350-200, Brazil";93;"CHAVEIROS";"AV FRANCISCO TREIN, 20"
"-30.0290601";"-51.2036229";"street_address";"R. Mostardeiro, 333 - Rio Branco, Porto Alegre - RS, Brazil";94;"CONSULTORIO ODONTOLOGICO";"R MOSTARDEIRO, 333/309"
"-30.074285";"-51.1732405";"street_address";"Av. Luiz Moschetti, 977 - Vila Joao Pessoa, Porto Alegre - RS, 91510-590, Brazil";95;"OFICINA DE CHAPEACAO E PINTURA";"AV LUIZ MOSCHETTI, 977"
"-30.0543541";"-51.2146522";"street_address";"Av. da Azenha, 1195 - Azenha, Porto Alegre - RS, 90160-003, Brazil";96;"ESCRITORIO DE CONTABILIDADE";"AV AZENHA, 1195/14"
"-30.029678";"-51.2293383";"establishment";"R. dos Andradas, 1234 - Centro Histórico, Porto Alegre - RS, 90010-000, Brazil";97;"SALAO DE BELEZA";"R ANDRADAS, 1535/11"
"-30.0740764";"-51.2127402";"premise";"R. Catumbi, 243 - Medianeira, Porto Alegre - RS, 90870-270, Brazil";98;"ESCRITORIO DE ARQUITETURA";"R CATUMBI, 243"
"-30.0099743";"-51.2045646";"premise";"Av. São Pedro, 481 - São Geraldo, Porto Alegre - RS, Brazil";99;"OFICINA DE ASSISTENCIA TECNICA";"AV SAO PEDRO, 481"
"-30.0253729";"-51.2040939";"street_address";"R. Padre Chagas, 140 - Moinhos de Vento, Porto Alegre - RS, 90570-080, Brazil";100;"CONSULTORIO MEDICO";"R PADRE CHAGAS, 140/201"
"-30.0552796";"-51.1733766";"street_address";"Av. Ipiranga, 6690 - Jardim Botânico, Porto Alegre - RS, Brazil";101;"CONSULTORIO MEDICO";"AV IPIRANGA, 6690/515"
"-30.0292799";"-51.2128219";"street_address";"Av. Independência, 832 - Independência, Porto Alegre - RS, 90035-074, Brazil";102;"CONSULTORIO MEDICO";"AV INDEPENDENCIA, 832"
"-30.04001";"-51.2224689";"street_address";"Rua Luiz Afonso, 384 - Cidade Baixa, Porto Alegre - RS, 90050-310, Brazil";103;"ESCOLA ESPECIAL";"R LUIZ AFONSO, 384"
"-30.022808";"-51.1992397";"street_address";"R. Tobias da Silva, 253 - Moinhos de Vento, Porto Alegre - RS, 90570-020, Brazil";104;"ESCRITORIO DE SERVICOS JURIDICOS";"R TOBIAS DA SILVA, 253/205"
"-30.031437";"-51.225579";"beauty_salon";"R. Riachuelo, 1582 - Centro Histórico, Porto Alegre - RS, 90010-273, Brazil";105;"CONSULTORIO MEDICO";"R RIACHUELO, 1038/401"
"-30.0293446";"-51.2073656";"street_address";"R. Mostardeiro, 5 - Independência, Porto Alegre - RS, Brazil";106;"CONSULTORIO MEDICO";"R MOSTARDEIRO, 5/505"
"-30.0229514";"-51.1919375";"street_address";"R. Felipe Neri, 366 - Auxiliadora, Porto Alegre - RS, 90440-150, Brazil";107;"SEDE DE EMPRESA DE CONSTRUCAO CIVIL";"R FELIPE NERI, 366/502"
"-30.0178793";"-51.2018728";"street_address";"Av. Cristóvão Colombo, 1918 - Floresta, Porto Alegre - RS, 90560-002, Brazil";108;"ESCRITORIO DE SERVICOS JURIDICOS";"AV CRISTOVAO COLOMBO, 1918/402"
"-30.0407839";"-51.1955286";"street_address";"Av. Protásio Alves, 1281 - Petrópolis, Porto Alegre - RS, 90410-000, Brazil";109;"CONSULTORIO MEDICO";"AV PROTASIO ALVES, 1281/307"
"-30.0074467";"-51.1871931";"street_address";"Av. Benjamin Constant, 134 - São João, Porto Alegre - RS, 90550-003, Brazil";110;"CONFECCAO SOB MEDIDA DE ARTIGOS DO VESTUARIO";"AV BENJAMIN CONSTANT, 134/8"
"-30.0064434";"-51.1343187";"route";"Rua Engenheiro Fernando Abreu Pereira - Sarandi, Porto Alegre - RS, Brazil";111;"PROFISSIONAL LIBERAL,TECNICO E UNIVERSITARIO";"R ENG FERNANDO DE ABREU PEREIRA, 720/408"
"-30.0854252";"-51.1906327";"street_address";"R. Prof. Oscar Pereira, 4495 - Glória, Porto Alegre - RS, Brazil";112;"PROFISSIONAL AUTONOMO";"AV PROF OSCAR PEREIRA, 4495"
"-30.102202";"-51.2322366";"street_address";"Av. Otto Niemeyer, 2964 - Cavalhada, Porto Alegre - RS, Brazil";113;"CONSULTORIO DE TERAPIAS ALTERNATIVAS";"AV OTTO NIEMEYER, 2964/302"
"-30.1035696";"-51.2364121";"street_address";"Av. Otto Niemeyer, 2314 - Tristeza, Porto Alegre - RS, 91910-001, Brazil";114;"CONSULTORIO DE TERAPIAS ALTERNATIVAS";"AV OTTO NIEMEYER, 2314/303"
"-30.0602891";"-51.2265351";"street_address";"R. José de Alencar, 521 - Menino Deus, Porto Alegre - RS, 90880-480, Brazil";115;"ESCRITORIO DE SERVICOS JURIDICOS";"R JOSE DE ALENCAR, 521/401"
"-30.006372";"-51.175098";"establishment";"Rua Piauí, 183 - Rua Piauí, 193 - Santa Maria Goretti, Porto Alegre - RS, 91030-320, Brazil";116;"OFICINA DE REPARACAO DE APARELHOS ELETRONICOS";"R PIAUI, 154"
"-30.011563";"-51.2006421";"street_address";"Av. Bahia, 1053 - Navegantes, Porto Alegre - RS, 90240-550, Brazil";117;"ESCRITORIO DE CONTABILIDADE";"AV BAHIA, 1053/201"
"-30.012824";"-51.165104";"street_address";"Av. João Wallig, 119 - Passo d'Areia, Porto Alegre - RS, 91340-000, Brazil";118;"ESCRITORIO DE CORRETAGEM DE IMOVEIS";"AV JOAO WALLIG, 119"
"-30.0258314";"-51.204851";"street_address";"R. Padre Chagas, 66 - Moinhos de Vento, Porto Alegre - RS, 90570-080, Brazil";119;"CONSULTORIO DE PSIQUIATRIA";"R PADRE CHAGAS, 66/604"
"-30.041457";"-51.1826848";"street_address";"Av. Taquara, 586 - Petrópolis, Porto Alegre - RS, 90460-210, Brazil";120;"CONSULTORIO MEDICO";"AV TAQUARA, 586/606"
"-30.0308395";"-51.1816423";"street_address";"R. Carvalho Monteiro, 234 - Petrópolis, Porto Alegre - RS, 90470-100, Brazil";121;"CONSULTORIO MEDICO";"R CARVALHO MONTEIRO, 234/704"
"-30.0385263";"-51.2215558";"street_address";"R. Gen. Lima e Silva, 601 - Centro Histórico, Porto Alegre - RS, 90050-101, Brazil";122;"SALAO DE BELEZA";"R GEN LIMA E SILVA, 601/2"
"-30.0292744";"-51.2081417";"street_address";"R. Ramiro Barcelos, 1172 - Floresta, Porto Alegre - RS, 90035-004, Brazil";123;"PROCESSAMENTO DE DADOS";"R RAMIRO BARCELOS, 1172/229"
"-30.0291775";"-51.2295923";"street_address";"Rua 7 de Setembro, 1069 - Centro Histórico, Porto Alegre - RS, 90010-190, Brazil";124;"ESCRITORIO DE SERVICOS JURIDICOS";"R SETE DE SETEMBRO, 1069"
"-30.001147";"-51.092294";"street_address";"R. Ary E Preissler, 70 - Rubem Berta, Porto Alegre - RS, 91170-040, Brazil";125;"REPRESENTACAO COMERCIAL (INTERMEDIARIOS DE VENDAS DE MERCADORIAS A";"R ARY E PREISSLER, 70"
"-30.0277436";"-51.2243996";"street_address";"Rua Doutor Flores, 62 - Centro Histórico, Porto Alegre - RS, Brazil";126;"ESCRITORIO DE ENGENHARIA";"R DR FLORES, 62/601"
"-30.0258314";"-51.204851";"street_address";"R. Padre Chagas, 66 - Moinhos de Vento, Porto Alegre - RS, 90570-080, Brazil";127;"ESCRITORIO DE SERVICOS JURIDICOS";"R PADRE CHAGAS, 66/207"
"-30.0347409";"-51.2273566";"street_address";"R. Mal. Floriano Peixoto, 651 - Centro Histórico, Porto Alegre - RS, 90020-060, Brazil";128;"ESCRITORIO DE PUBLICIDADE E PROPAGANDA";"R MARECHAL FLORIANO PEIXOTO, 651"
"-30.0413627";"-51.1787396";"street_address";"Av. Iguaçu, 119 - Petrópolis, Porto Alegre - RS, 90470-430, Brazil";129;"CONSULTORIO MEDICO";"AV IGUASSU, 119/505"
"-30.0294284";"-51.2277204";"street_address";"Av. Borges de Medeiros, 340 - Centro Histórico, Porto Alegre - RS, Brazil";130;"ESCRITORIO DE SERVICOS JURIDICOS";"AV BORGES DE MEDEIROS, 340/132"
"-30.0281898";"-51.1993289";"street_address";"R. Mostardeiro, 780 - Independência, Porto Alegre - RS, 90430-001, Brazil";131;"CONSULTORIO MEDICO";"R MOSTARDEIRO, 780/205"
"-30.0290192";"-51.2224445";"street_address";"R. Pinto Bandeira, 533 - Centro Histórico, Porto Alegre - RS, 90030-150, Brazil";132;"PERSONAL TRAINER";"R PINTO BANDEIRA, 533/1"
"-30.0270775";"-51.2256457";"street_address";"R. Vig. José Inácio, 161 - Centro Histórico, Porto Alegre - RS, 90020-110, Brazil";133;"OFICINA DE REPARACAO DE ARTIGOS DIVERSOS NAO ESPE-CIFICADOS";"R VIGARIO JOSE IGNACIO, 161"
"-30.0400549";"-51.1653009";"street_address";"Av. Protásio Alves, 4638 - Petrópolis, Porto Alegre - RS, 90410-004, Brazil";134;"LABORATORIO DE PROTESE";"AV PROTASIO ALVES, 4638/505"
"-30.0659222";"-51.1984542";"street_address";"Rua 1º de Maio, 31 - Partenon, Porto Alegre - RS, 90660-190, Brazil";135;"ESCRITORIO DE CONTABILIDADE";"R PRIMEIRO DE MAIO, 31"
"-30.131639";"-51.233939";"street_address";"Rua Paradiso Biacchi, 40 - Ipanema, Porto Alegre - RS, 91760-610, Brazil";136;"REPRESENTACAO COMERCIAL (INTERMEDIARIOS DE VENDAS DE MERCADORIAS A";"R PARADISO BIACCHI, 40"
"-30.0359313";"-51.2095811";"street_address";"R. Felipe Camarão, 748 - Rio Branco, Porto Alegre - RS, 90035-140, Brazil";137;"CONSULTORIO ODONTOLOGICO";"R FELIPE CAMARAO, 748/101"
"-29.987575";"-51.115938";"street_address";"R. Bangu, 475 - Sarandi, Porto Alegre - RS, 91140-010, Brazil";138;"PROFISSIONAL AUTONOMO";"R BANGU, 475"
"-30.0289553";"-51.2268245";"street_address";"R. Mal. Floriano Peixoto, 13 - Centro Histórico, Porto Alegre - RS, 90020-061, Brazil";139;"OFICINA DE REPARACAO DE JOIAS E RELOGIOS";"R MARECHAL FLORIANO PEIXOTO, 13/52"
"-30.0199137";"-51.1963664";"street_address";"R. Marquês do Pombal, 783 - Moinhos de Vento, Porto Alegre - RS, Brazil";140;"CONSULTORIO MEDICO";"R MARQUES DO POMBAL, 783/502"
"-30.0218318";"-51.1885511";"street_address";"R. Felicissimo de Azevedo, 1455 - São João, Porto Alegre - RS, 90540-110, Brazil";141;"CONSULTORIO MEDICO";"R FELICISSIMO DE AZEVEDO, 1455/506"
"-30.029678";"-51.2293383";"establishment";"R. dos Andradas, 1234 - Centro Histórico, Porto Alegre - RS, 90010-000, Brazil";142;"ESCRITORIO DE SERVICOS JURIDICOS";"R ANDRADAS, 1251/122"
"-30.0278384";"-51.2304199";"establishment";"R. Gen. Câmara, 60 - Centro Histórico, Porto Alegre - RS, 90010-230, Brazil";143;"ESCRITORIO DE SERVICOS JURIDICOS";"R GEN CAMARA, 406/701"
"-30.0305244";"-51.2259518";"street_address";"R. Vig. José Inácio, 547 - Centro Histórico, Porto Alegre - RS, 90020-100, Brazil";144;"ESCRITORIO DE SERVICOS JURIDICOS";"R VIGARIO JOSE IGNACIO, 547/1401"
"-30.0296223";"-51.2269603";"street_address";"R. Mal. Floriano Peixoto, 91 - Centro Histórico, Porto Alegre - RS, 90020-061, Brazil";145;"CONSULTORIO ODONTOLOGICO";"R MARECHAL FLORIANO PEIXOTO, 91/202"
"-30.0270911";"-51.2295283";"street_address";"R. Uruguai, 35 - Centro Histórico, Porto Alegre - RS, 90010-140, Brazil";146;"OFICINA DE ASSISTENCIA TECNICA";"R URUGUAI, 35/340"
"-30.0570644";"-51.2250044";"premise";"Rua Mucio Teixeira, 1492 - Menino Deus, Porto Alegre - RS, 90150-090, Brazil";147;"CONSULTORIO DE FISIOTERAPIA";"R MUCIO TEIXEIRA, 1492"
"-30.030675";"-51.2336773";"street_address";"R. Gen. João Manoel, 191 - Centro Histórico, Porto Alegre - RS, 90010-030, Brazil";148;"HOTEIS";"R GEN JOAO MANOEL, 191"
"-30.1565917";"-51.1856445";"street_address";"Av. Edgar Píres de Castro, 503 - Aberta dos Morros, Porto Alegre - RS, 91787-000, Brazil";149;"ACADEMIA DE ENSINO E/OU PRATICA DE GINASTICA";"AV EDGAR PIRES DE CASTRO, 503"
"-29.988456";"-51.1092049";"route";"Rua Diogo Álvares Correia - Sarandi, Porto Alegre - RS, Brazil";150;"OFICINA DE REPARACAO DE MAQUINAS E APARELHOS ELE- TRICOS OU NAO";"R DIOGO ALVARES CORREIA, 314"
"-30.0260555";"-51.2224288";"street_address";"R. Comendador Manoel Pereira, 20 - Centro Histórico, Porto Alegre - RS, 90030-010, Brazil";151;"OFICINA DE LAVAGEM E LUBRIFICACAO";"R COMENDADOR MANOEL PEREIRA, 20/12"
"-30.0295586";"-51.217998";"street_address";"Av. Independência, 359 - Independência, Porto Alegre - RS, Brazil";152;"CONSULTORIO MEDICO";"AV INDEPENDENCIA, 359/105"
"-30.0293447";"-51.2224893";"street_address";"Praça Dom Feliciano, 78 - Centro Histórico, Porto Alegre - RS, 90020-160, Brazil";153;"CONSULTORIO MEDICO";"PCA DOM FELICIANO, 78/402"
"-30.0301758";"-51.2248488";"establishment";"Rua Doutor Flores, 327 - Centro Histórico, Porto Alegre - RS, 90020-121, Brazil";154;"REPRESENTACAO COMERCIAL (INTERMEDIARIOS DE VENDAS DE MERCADORIAS A";"R DR FLORES, 327/3"
"-30.0391599";"-51.1863793";"street_address";"Av. Alegrete, 339 - Petrópolis, Porto Alegre - RS, 90460-100, Brazil";155;"GARAGEM E ESTACIONAMENTO PARA VEICULOS, EXCETO OS DE CARGA OU COLE";"AV ALEGRETE, 339"
"-30.0618832";"-51.2207627";"premise";"R. Corrêa Lima, 140 - Santa Tereza, Porto Alegre - RS, Brazil";156;"ESTUDIO FOTOGRAFICO";"R CORREA LIMA, 140"
"-30.053801";"-51.205276";"street_address";"Tv. Ouvidor, 220 - Santo Antônio, Porto Alegre - RS, 90650-050, Brazil";157;"OFICINA-SERRALHERIA";"TRAV OUVIDOR, 220"
"-30.0245892";"-51.2036318";"street_address";"R. Luciana de Abreu, 323 - Moinhos de Vento, Porto Alegre - RS, 90570-060, Brazil";158;"CONSULTORIO MEDICO";"R LUCIANA DE ABREU, 323/304"
"-30.0338326";"-51.1777811";"street_address";"Av. Carlos Gomes, 1492 - Auxiliadora, Porto Alegre - RS, 90480-001, Brazil";159;"CONSULTORIO MEDICO";"AV CARLOS GOMES, 1492/804"
"-30.0388388";"-51.2069231";"street_address";"R. Ramiro Barcelos, 2350 - Santa Cecilia, Porto Alegre - RS, 90035-007, Brazil";160;"CONSULTORIO MEDICO";"R RAMIRO BARCELOS, 2350/2235"
"-30.0290601";"-51.2036229";"street_address";"R. Mostardeiro, 333 - Rio Branco, Porto Alegre - RS, Brazil";161;"CONSULTORIO MEDICO";"R MOSTARDEIRO, 333/120"
"-30.042368";"-51.184394";"street_address";"Av. Taquara, 363 - Petrópolis, Porto Alegre - RS, 90460-210, Brazil";162;"OFICINA DE ASSISTENCIA TECNICA";"AV TAQUARA, 363/302"
"-30.0552796";"-51.1733766";"street_address";"Av. Ipiranga, 6690 - Jardim Botânico, Porto Alegre - RS, Brazil";163;"CLINICA MEDICA SEM CALDEIRA";"AV IPIRANGA, 6690/615"
"-30.023073";"-51.2191284";"street_address";"Largo Vespasiano Júlio Veppo, 70 - Centro Histórico, Porto Alegre - RS, Brazil";164;"AGENCIA DE VIAGENS E TURISMO";"LG VESPASIANO JULIO VEPPO, 70/20"
"-30.0478023";"-51.2216908";"establishment";"Av. Getúlio Vargas, 379 - M Deus, Porto Alegre - RS, 90150-001, Brazil";165;"ESCRITORIO DE SERVICOS JURIDICOS";"AV GETULIO VARGAS, 379/203"
"-30.0254236";"-51.1831659";"street_address";"Av. Carlos Gomes, 403 - Auxiliadora, Porto Alegre - RS, Brazil";166;"SERVICO DE SOFTWARE E HARDWARE";"AV CARLOS GOMES, 403/501"
"-30.0499336";"-51.2013263";"premise";"R. Monsenhor Veras, 411 - Santana, Porto Alegre - RS, 90610-010, Brazil";167;"ACADEMIA DE ENSINO E/OU PRATICA DE GINASTICA";"R MONSENHOR VERAS, 411"
"-30.1018581";"-51.2505465";"street_address";"Av. Wenceslau Escobar, 1403 - Cristal, Porto Alegre - RS, Brazil";168;"ESCRITORIO DE CORRETAGEM DE IMOVEIS";"AV WENCESLAU ESCOBAR, 1403/2"
"-30.0316104";"-51.214394";"street_address";"R. Santo Antonio, 727 - Floresta, Porto Alegre - RS, 90220-010, Brazil";169;"ESCOLA PREPARATORIA";"R SANTO ANTONIO, 727"
"-30.1094559";"-51.2519938";"premise";"Av. Otto Niemeyer, 687 - Tristeza, Porto Alegre - RS, Brazil";170;"POSTO DE COLETA";"AV OTTO NIEMEYER, 687"
"-30.0265942";"-51.18969";"street_address";"R. Anita Garibaldi, 600 - Mont'Serrat, Porto Alegre - RS, 90480-200, Brazil";171;"LABORATORIO DE ANALISES CLINICAS";"R ANITA GARIBALDI, 600/102"
"-30.0601892";"-51.2259783";"street_address";"R. José de Alencar, 573 - Menino Deus, Porto Alegre - RS, 90880-481, Brazil";172;"CLINICA MEDICA S/PROCEDIMENTO INVASIVO S/CALDEIRA";"R JOSE DE ALENCAR, 573"
"-30.0451616";"-51.2075081";"premise";"Av. Ipiranga, 2511 - Santana, Porto Alegre - RS, 90160-093, Brazil";173;"LABORATORIO DE ANALISES CLINICAS";"AV IPIRANGA, 2511"
"-30.1148817";"-51.2545811";"street_address";"Av. Wenceslau Escobar, 3017 - Tristeza, Porto Alegre - RS, 91900-000, Brazil";174;"LABORATORIO DE ANALISES CLINICAS";"AV WENCESLAU ESCOBAR, 3017/102"
"-30.030454";"-51.223409";"doctor";"R. Gen. Vitorino, 330/401 - Centro Histórico, Porto Alegre - RS, 90020-170, Brazil";175;"LABORATORIO DE ANALISES CLINICAS";"R GEN VITORINO, 29"
"-30.0475521";"-51.2119022";"premise";"Av. Ipiranga, 1801 - Azenha, Porto Alegre - RS, Brazil";176;"LABORATORIO DE ANALISES CLINICAS";"AV IPIRANGA, 1801"
"-30.0288072";"-51.2040815";"street_address";"R. Mostardeiro, 295 - Independência, Porto Alegre - RS, Brazil";177;"LABORATORIO DE ANALISES CLINICAS";"R MOSTARDEIRO, 295"
"-30.0550755";"-51.1868768";"street_address";"Av. Ipiranga, 5200 - Jardim Botânico, Porto Alegre - RS, 90160-001, Brazil";178;"LABORATORIO DE ANALISES CLINICAS";"AV IPIRANGA, 5200/300"
"-30.0255639";"-51.2083465";"street_address";"R. Ramiro Barcelos, 910 - Floresta, Porto Alegre - RS, Brazil";179;"LABORATORIO DE ANALISES CLINICAS";"R RAMIRO BARCELOS, 910"
"-30.0213199";"-51.2132774";"street_address";"R. Ramiro Barcelos, 142 - Floresta, Porto Alegre - RS, Brazil";180;"LABORATORIO DE ANALISES CLINICAS";"R RAMIRO BARCELOS, 142"
"-30.0303714";"-51.2261089";"establishment";"R. Gen. Vitorino, 77 - sl 403 - Centro Histórico, Porto Alegre - RS, 91230-150, Brazil";181;"LABORATORIO DE ANALISES CLINICAS";"R GEN VITORINO, 77"
"-30.0293138";"-51.2343925";"street_address";"R. Gen. João Manoel, 119 - Centro, Porto Alegre - RS, 90010-030, Brazil";182;"LABORATORIO DE ANALISES CLINICAS";"R GEN JOAO MANOEL, 119"
"-30.0284954";"-51.165685";"street_address";"Av. Dr. Nilo Peçanha, 2655 - Petrópolis, Porto Alegre - RS, 90470-001, Brazil";183;"LABORATORIO DE ANALISES CLINICAS";"AV DR NILO PECANHA, 2655"
"-30.009786";"-51.1519262";"street_address";"Av. Assis Brasil, 3522 - Jardim Lindoia, Porto Alegre - RS, 91010-003, Brazil";184;"LABORATORIO DE ANALISES CLINICAS";"AV ASSIS BRASIL, 3522/207"
"-30.0250095";"-51.1622202";"street_address";"Av. João Wallig, 1800 - Passo d'Areia, Porto Alegre - RS, Brazil";185;"LABORATORIO DE ANALISES CLINICAS";"AV JOAO WALLIG, 1800/3001"
"-30.0293433";"-51.202027";"street_address";"Rua Dona Laura, 354 - Rio Branco, Porto Alegre - RS, 90430-090, Brazil";186;"REPRESENTACAO COMERCIAL (INTERMEDIARIOS DE VENDAS DE MERCADORIAS A";"R DONA LAURA, 354/602"
"-30.091873";"-51.130897";"street_address";"Estr. João de Oliveira Remião, 1788 - Agronomia, Porto Alegre - RS, Brazil";187;"ACADEMIA DE ENSINO E/OU PRATICA DE GINASTICA";"ESTR JOAO DE OLIVEIRA REMIAO, 1788/3"
"-30.018429";"-51.212518";"street_address";"Rua Hoffmann, 102 - Floresta, Porto Alegre - RS, 90220-170, Brazil";188;"OFICINA DE REPARACAO DE ARTIGOS DE MADEIRA  E DO  MOBILIARIO (MOVE";"R HOFFMANN, 102"
"-30.0174482";"-51.1922436";"street_address";"Av. Cristóvão Colombo, 2834 - Floresta, Porto Alegre - RS, Brazil";189;"ESCRITORIO DE AGENCIAMENTO DE CARGAS";"AV CRISTOVAO COLOMBO, 2834/401"
"-30.046716";"-51.187333";"street_address";"R. Ferreira Viana, 551 - Petrópolis, Porto Alegre - RS, 90670-100, Brazil";190;"ACADEMIA DE ENSINO E/OU PRATICA DE GINASTICA";"R FERREIRA VIANA, 551"
"-30.0348591";"-51.1771258";"street_address";"Av. Carlos Gomes, 1610 - Três Figueiras, Porto Alegre - RS, 90480-001, Brazil";191;"CENTRAL DE SERVICOS DE APOIO AS EMPRESAS";"AV CARLOS GOMES, 1610/806"
"-30.0277436";"-51.2243996";"street_address";"Rua Doutor Flores, 62 - Centro Histórico, Porto Alegre - RS, Brazil";192;"EDITORACAO GRAFICA, EDICAO E IMPRESSAO DE OUTROS  PRODUTOS GRAFICO";"R DR FLORES, 62/1201"
"-30.002224";"-51.197511";"street_address";"R. Dr. João Inácio, 876 - Navegantes, Porto Alegre - RS, 90230-181, Brazil";193;"EDITORACAO GRAFICA, EDICAO E IMPRESSAO DE OUTROS  PRODUTOS GRAFICO";"R DR JOAO INACIO, 876"
"-30.004636";"-51.174589";"establishment";"Rua Cerro Azul, 1094 - Santa Maria Goretti, Porto Alegre - RS, 91030-250, Brazil";194;"DEPOSITOS (FECHADOS) SEM ISS";"R SERRO AZUL, 1095"
"-29.978747";"-51.174749";"street_address";"Av. Jaime Vignoli, 103 - Anchieta, Porto Alegre - RS, 90200-110, Brazil";195;"ESCRITORIO ADMINISTRATIVO (SEDE ADMINISTRATIVA DE EMPRESA)";"AV JAIME VIGNOLI, 103/3"
"-30.0057938";"-51.1749344";"establishment";"R. São Nicolau, 1070 - Santa Maria Goretti, Porto Alegre - RS, 91030-230, Brazil";196;"REPRESENTACAO COMERCIAL (INTERMEDIARIOS DE VENDAS DE MERCADORIAS A";"R SAO NICOLAU, 1103"
"-30.0503885";"-51.1909809";"street_address";"R. Machado de Assis, 902 - Partenon, Porto Alegre - RS, 90620-260, Brazil";197;"GARAGEM E ESTACIONAMENTO PARA VEICULOS, EXCETO OS DE CARGA OU COLE";"R MACHADO DE ASSIS, 902"
"-30.009786";"-51.1519262";"street_address";"Av. Assis Brasil, 3522 - Jardim Lindoia, Porto Alegre - RS, 91010-003, Brazil";198;"JOGOS ELETRONICOS (FLIPERAMA)";"AV ASSIS BRASIL, 3522/247"
"-30.0550755";"-51.1868768";"street_address";"Av. Ipiranga, 5200 - Jardim Botânico, Porto Alegre - RS, 90160-001, Brazil";199;"JOGOS ELETRONICOS (FLIPERAMA)";"AV IPIRANGA, 5200/147"
"-30.0303702";"-51.2305036";"establishment";"6 e 11 Andar - R. dos Andradas, 1121 - Centro, Porto Alegre - RS, 90020-015, Brazil";200;"JOGOS ELETRONICOS (FLIPERAMA)";"R ANDRADAS, 1001/1"
"-30.009786";"-51.1519262";"street_address";"Av. Assis Brasil, 3522 - Jardim Lindoia, Porto Alegre - RS, 91010-003, Brazil";201;"JOGOS ELETRONICOS (FLIPERAMA)";"AV ASSIS BRASIL, 3522/200"
"-30.0100652";"-51.1924543";"street_address";"Av. Benjamin Constant, 904 - São João, Porto Alegre - RS, 90550-003, Brazil";202;"OFICINA DE ASSISTENCIA TECNICA";"AV BENJAMIN CONSTANT, 904/902"
"-30.0031572";"-51.2010119";"street_address";"Av. Pres. Franklin Roosevelt, 368 - Navegantes, Porto Alegre - RS, 90230-220, Brazil";203;"OFICINA DE CONFECCAO DE CARIMBOS";"AV PRESIDENTE FRANKLIN ROOSEVELT, 368"
"-30.00864";"-51.094366";"street_address";"R. Ovídio de Morães Leal, 130 - Rubem Berta, Porto Alegre - RS, 91180-110, Brazil";204;"PROFISSIONAL AUTONOMO";"R OVIDIO MORAES LEAL, 130"
"-30.0306302";"-51.2236249";"street_address";"Rua Professor Annes Dias, 112 - Centro Histórico, Porto Alegre - RS, 90020-090, Brazil";205;"ESCRITORIO ADMINISTRATIVO (SEDE ADMINISTRATIVA DE EMPRESA)";"R PROF ANNES DIAS, 112/13"
"-30.0221983";"-51.1930141";"street_address";"R. 24 de Outubro, 1557 - Auxiliadora, Porto Alegre - RS, Brazil";206;"ESCRITORIO ADMINISTRATIVO (SEDE ADMINISTRATIVA DE EMPRESA)";"R VINTE QUATRO DE OUTUBRO, 1557/201"
"-30.0619976";"-51.2091635";"premise";"Av. Natal, 180 - Medianeira, Porto Alegre - RS, 90880-110, Brazil";207;"ESCRITORIO DE PARTICIPACAO EM OUTRAS EMPRESAS     MEDIANTE COMPRA/";"AV NATAL, 180"
"-30.061574";"-51.168019";"street_address";"Av. Bento Gonçalves, 4790 - Paternon, Porto Alegre - RS, 91540-000, Brazil";208;"SERVICO DE TREINAMENTO E ADMINISTRACAO DE PESSOAL";"AV BENTO GONCALVES, 4790"
"-30.0454487";"-51.2309861";"street_address";"R. Celeste Gobbato, 229 - Praia de Belas, Porto Alegre - RS, 90110-160, Brazil";209;"SERVICO DE BUFFET";"R CELESTE GOBBATO, 229"
"-30.0386293";"-51.195525";"street_address";"Av. Neusa Goulart Brizola, 418 - Petrópolis, Porto Alegre - RS, 90460-230, Brazil";210;"ESCRITORIO DE PROMOCOES";"AV NEUSA GOULART BRIZOLA, 418"
"-30.0439328";"-51.2299834";"street_address";"R. Dr. Vicente de Paula Dutra, 215 - Praia de Belas, Porto Alegre - RS, 90110-200, Brazil";211;"ESCRITORIO DE SERVICOS JURIDICOS";"R DR VICENTE DE PAULA DUTRA, 215/402"
"-30.0439328";"-51.2299834";"street_address";"R. Dr. Vicente de Paula Dutra, 215 - Praia de Belas, Porto Alegre - RS, 90110-200, Brazil";212;"ESCRITORIO DE SERVICOS JURIDICOS";"R DR VICENTE DE PAULA DUTRA, 215/402"
"-30.0337717";"-51.2274275";"street_address";"R. Duque de Caxias, 1379 - Centro Histórico, Porto Alegre - RS, 90010-283, Brazil";213;"SALAO DE BELEZA";"R DUQUE DE CAXIAS, 1379/11"
"-30.0080076";"-51.1889655";"street_address";"R. Dona Leopoldina, 322 - São João, Porto Alegre - RS, 90550-130, Brazil";214;"PROFISSIONAL AUTONOMO";"R DONA LEOPOLDINA, 322/404"
"-30.028071";"-51.22563";"establishment";"R. Vig. José Inácio, 265 - Centro, Porto Alegre - RS, 90020-110, Brazil";215;"ESCRITORIO DE SERVICOS JURIDICOS";"R VIGARIO JOSE IGNACIO, 250/123"
"-29.9945184";"-51.0947472";"route";"R. dos Maias - Rubem Berta, Porto Alegre - RS, Brazil";216;"PROFISSIONAL AUTONOMO";"R MAIAS, 464"
"-30.065846";"-51.225646";"street_address";"R. Miguel Couto, 770 - Menino Deus, Porto Alegre - RS, 90850-050, Brazil";217;"CONSULTORIO DE PSICOLOGIA";"R MIGUEL COUTO, 770"
"-30.0262208";"-51.212016";"street_address";"Av. Cristóvão Colombo, 545 - Floresta, Porto Alegre - RS, 90560-003, Brazil";218;"SALAO DE BELEZA";"AV CRISTOVAO COLOMBO, 545/1053"
"-30.1059492";"-51.2422205";"street_address";"Av. Otto Niemeyer, 1699 - Camaquã, Porto Alegre - RS, 91910-001, Brazil";219;"CONSULTORIO DE PSICOLOGIA";"AV OTTO NIEMEYER, 1699"
"-30.0786837";"-51.2307686";"street_address";"R. Prisma, 253 - Santa Tereza, Porto Alegre - RS, 90840-130, Brazil";220;"REPRESENTACAO COMERCIAL (INTERMEDIARIOS DE VENDAS DE MERCADORIAS A";"R PRISMA, 253"
"-30.0173331";"-51.1906272";"street_address";"R. Germano Petersen Júnior, 101 - Higienópolis, Porto Alegre - RS, 90540-140, Brazil";221;"PROMOTORA DE EMPREENDIMENTOS IMOBILIARIOS";"R GERMANO PETERSEN JUNIOR, 101/606"
"-30.1165352";"-51.1018582";"route";"Av. Dep. Adão Pretto - Lomba do Pinheiro, Porto Alegre - RS, Brazil";222;"PROFISSIONAL AUTONOMO";"ESTR TAQUARA, 1"
"37.4315734";"-78.6568942";"administrative_area_level_1";"Virginia, USA";223;"PROFISSIONAL AUTONOMO";"VA ONZE CEFER DOIS, 630"
"-30.0486452";"-51.2219085";"street_address";"Av. Ipiranga, 607 - Praia de Belas, Porto Alegre - RS, 90160-091, Brazil";224;"CONSULTORIO ODONTOLOGICO";"AV IPIRANGA, 607/202"
"-30.0112045";"-51.1681664";"street_address";"R. Açores, 57 - Passo d'Areia, Porto Alegre - RS, 91030-530, Brazil";225;"CONSULTORIO DE PSICOLOGIA";"R ACORES, 57/201"
"-30.0290601";"-51.2036229";"street_address";"R. Mostardeiro, 333 - Rio Branco, Porto Alegre - RS, Brazil";226;"CONSULTORIO MEDICO";"R MOSTARDEIRO, 333/201"
"-30.0417314";"-51.2140074";"street_address";"R. Inácio Montanha, 42 - Santana, Porto Alegre - RS, 90040-300, Brazil";227;"CONSULTORIO MEDICO";"R IGNACIO MONTANHA, 42/2"
"-30.032753";"-51.1667017";"street_address";"Rua Gustavo Schmidt, 580 - Três Figueiras, Porto Alegre - RS, 91330-360, Brazil";228;"ESCRITORIO DE LOCACAO";"R GUSTAVO SCHMIDT, 580"
"-30.0283147";"-51.2094086";"street_address";"R. André Puente, 441 - Independência, Porto Alegre - RS, 90035-150, Brazil";229;"ESCRITORIO DE SERVICOS JURIDICOS";"R ANDRE PUENTE, 441/405"
"-30.1035045";"-51.2364817";"street_address";"Tv. Escobar, 268 - Camaquã, Porto Alegre - RS, Brazil";230;"SALAO DE BELEZA PARA ANIMAIS";"TRAV ESCOBAR, 268/105"
"-30.0277436";"-51.2243996";"street_address";"Rua Doutor Flores, 62 - Centro Histórico, Porto Alegre - RS, Brazil";231;"ESCRITORIO DE COBRANCA E AJUSTE DE CONTAS";"R DR FLORES, 62/1102"
"-30.0842446";"-51.2465905";"street_address";"0x951978a0d63d500d:0x15716d4550ce8aad - Av. Diário de Notícias, 200 - Cristal, Porto Alegre - RS, Brazil";232;"CLINICA E POLICLINICA ODONTOLOGICA SEM CALDEIRA";"AV DIARIO DE NOTICIAS, 200/1512"
"-30.0178793";"-51.2018728";"street_address";"Av. Cristóvão Colombo, 1918 - Floresta, Porto Alegre - RS, 90560-002, Brazil";233;"ESCRITORIO ADMINISTRATIVO (SEDE ADMINISTRATIVA DE EMPRESA)";"AV CRISTOVAO COLOMBO, 1918/206"
"-30.0318362";"-51.1794137";"street_address";"Av. Carlos Gomes, 1200 - Auxiliadora, Porto Alegre - RS, 90480-001, Brazil";234;"ESCRITORIO ADMINISTRATIVO (SEDE ADMINISTRATIVA DE EMPRESA)";"AV CARLOS GOMES, 1200/502"
"-30.0220963";"-51.1951042";"street_address";"Av. Nova York, 10 - Auxiliadora, Porto Alegre - RS, 90550-070, Brazil";235;"SALAO DE BELEZA";"AV NOVA YORK, 10/208"
"-30.1544228";"-51.1421436";"route";"Ac. V - Restinga, Porto Alegre - RS, 91792-010, Brazil";236;"PROFISSIONAL AUTONOMO";"AC R SQ TRES SEGUNDA UV VL N RESTINGA, 2082"
"-30.047658";"-51.194681";"street_address";"R. João Ribeiro, 9 - Petrópolis, Porto Alegre - RS, 90630-120, Brazil";237;"ESCRITORIO DE SERVICOS JURIDICOS";"R JOAO RIBEIRO, 9"
"-30.2107235";"-51.1838178";"street_address";"Praça Inácio Antônio da Silva, 137 - Belém Novo, Porto Alegre - RS, 91780-080, Brazil";238;"BARBEARIA, SALAO DE BELEZA E MASSAGISTAS";"PCA INACIO ANTONIO DA SILVA, 137"
"-30.0348509";"-51.2123761";"street_address";"Av. Osvaldo Aranha, 1008 - Bom Fim, Porto Alegre - RS, 90035-191, Brazil";239;"CYBER CAFE";"AV OSVALDO ARANHA, 1008/1"
"-30.0273126";"-51.1786579";"street_address";"Praça Japão, 155 - Boa Vista, Porto Alegre - RS, 91340-380, Brazil";240;"ESCRITORIO DE PROMOCOES";"PCA JAPAO, 155"
"-30.0421615";"-51.1817425";"establishment";"Praça Tamandaré - Petrópolis, Porto Alegre - RS, Brazil";241;"SERVICO DE AJARDINAMENTO";"PCA TAMANDARE, 98"
"-30.0556199";"-51.1899349";"premise";"R. Barão do Amazonas, 1387 - Jardim Botânico, Porto Alegre - RS, 90670-005, Brazil";242;"FOTOCOPIAS, COPIAS HELIOGRAFICAS E PLASTIFICACAO";"R BARAO DO AMAZONAS, 1387"
"-30.0026465";"-51.1318158";"street_address";"R. Zeferino Dias, 254 - Sarandi, Porto Alegre - RS, Brazil";243;"DECORACAO DE FESTAS";"R ZEFERINO DIAS, 254"
"-30.064548";"-51.2129009";"street_address";"Av. Cel. Gastão Haslocher Mazeron, 336 - Medianeira, Porto Alegre - RS, 90880-370, Brazil";244;"ESCRITORIO ADMINISTRATIVO (SEDE ADMINISTRATIVA DE EMPRESA)";"AV CEL GASTAO HASLOCHER MAZERON, 336"
"-30.0098094";"-51.1844621";"street_address";"R. Luzitana, 173 - Higienópolis, Porto Alegre - RS, 90520-080, Brazil";245;"ESCRITORIO ADMINISTRATIVO (SEDE ADMINISTRATIVA DE EMPRESA)";"R LUZITANA, 173"
"-30.005971";"-51.1979397";"street_address";"Av. Brasil, 944 - Navegantes, Porto Alegre - RS, 90230-060, Brazil";246;"AGENCIA DE LOCACAO DE VEICULOS";"AV BRASIL, 944"
"-30.0449607";"-51.1783796";"street_address";"R. Prof. Ivo Corseuil, 304 - Petrópolis, Porto Alegre - RS, Brazil";247;"ESCRITORIO DE IMPORTACAO E EXPORTACAO";"R PROF IVO CORSEUIL, 304/101"
"-30.145488";"-51.203118";"street_address";"Estr. Cristiano Kraemer, 5016 - Parque Urbano, Porto Alegre - RS, 91750-060, Brazil";248;"SALAO DE BELEZA";"ESTR CRISTIANO KRAEMER, 5016"
"-30.0232957";"-51.1610041";"street_address";"R. Antônio Carlos Berta, 475 - Passo d'Areia, Porto Alegre - RS, 91340-020, Brazil";249;"CONSULTORIO ODONTOLOGICO";"R ANTONIO CARLOS BERTA, 475/1903"
"-30.0535277";"-51.2219927";"street_address";"Av. Getúlio Vargas, 1000 - Menino Deus, Porto Alegre - RS, 90150-004, Brazil";250;"ESCRITORIO DE CONTABILIDADE E AUDITORIA";"AV GETULIO VARGAS, 1000/506"
"-30.0254545";"-51.2021417";"street_address";"R. 24 de Outubro, 600 - Independência, Porto Alegre - RS, 90510-001, Brazil";251;"ESCRITORIO DE LOCACAO";"R VINTE QUATRO DE OUTUBRO, 600/501"
"-29.9864437";"-51.1302389";"street_address";"R. Rodrigues da Costa, 657 - Sarandi, Porto Alegre - RS, 91120-640, Brazil";252;"PROFISSIONAL AUTONOMO";"R RODRIGUES DA COSTA, 657"
"-30.0115609";"-51.1696253";"street_address";"Av. Assis Brasil, 1800 - Passo d'Areia, Porto Alegre - RS, 91010-005, Brazil";253;"ESCRITORIO DE IMPORTACAO E EXPORTACAO";"AV ASSIS BRASIL, 1800/708"
"-30.0276485";"-51.1819397";"street_address";"Av. Carlos Gomes, 651 - Auxiliadora, Porto Alegre - RS, 90480-003, Brazil";254;"ESCRITORIO DE PUBLICIDADE E PROPAGANDA";"AV CARLOS GOMES, 651/1002"
"-30.0115609";"-51.1696253";"street_address";"Av. Assis Brasil, 1800 - Passo d'Areia, Porto Alegre - RS, 91010-005, Brazil";255;"ESCRITORIO DE IMPORTACAO E EXPORTACAO";"AV ASSIS BRASIL, 1800/708"
"-30.0064434";"-51.1343187";"route";"Rua Engenheiro Fernando Abreu Pereira - Sarandi, Porto Alegre - RS, Brazil";256;"ESCRITORIO DE IMPORTACAO E EXPORTACAO";"R ENG FERNANDO DE ABREU PEREIRA, 499"
"-30.0287028";"-51.2211";"premise";"R. Cel. Vicente, 575 - Centro Histórico, Porto Alegre - RS, 90030-041, Brazil";257;"ESTUDIO DE MUSICA ( GRAVACAO E EDICAO DE SOM )";"R CEL VICENTE, 575"
"-30.0852056";"-51.2456904";"street_address";"Av. Diário de Notícias, 300 - Cristal, Porto Alegre - RS, Brazil";258;"CLINICA DE FISIOTERAPIA SEM CALDEIRA";"AV DIARIO DE NOTICIAS, 300/305"
"-29.986013";"-51.189014";"street_address";"R. Irmão Félix Roberto, 181 - Humaitá, Porto Alegre - RS, 90250-170, Brazil";259;"ESCRITORIO DE IMPORTACAO E EXPORTACAO";"R IRMAO FELIX ROBERTO (ROBERTAO), 181"
"-30.0565248";"-51.1973049";"street_address";"Av. Bento Gonçalves, 1656 - Partenon, Porto Alegre - RS, 90650-001, Brazil";260;"SERVICO DE SOFTWARE E HARDWARE";"AV BENTO GONCALVES, 1656"
"-30.0264238";"-51.222395";"establishment";"Praça Osvaldo Cruz, 15 - Centro Histórico, Porto Alegre - RS, 90010-130, Brazil";261;"REPRESENTACAO COMERCIAL (INTERMEDIARIOS DE VENDAS DE MERCADORIAS A";"PCA OSVALDO CRUZ, 15/1514"
"-30.0496827";"-51.2064454";"premise";"R. Santana, 1372 - Farroupilha, Porto Alegre - RS, 90040-371, Brazil";262;"SALAO DE BELEZA";"R SANTANA, 1372"
"-30.0087957";"-51.1841345";"street_address";"R. Luzitana, 64 - Higienópolis, Porto Alegre - RS, 90520-080, Brazil";263;"ESCRITORIO ADMINISTRATIVO (SEDE ADMINISTRATIVA DE EMPRESA)";"R LUZITANA, 64/1"
"-30.0035311";"-51.1984757";"street_address";"Av. Pernambuco, 1202 - Navegantes, Porto Alegre - RS, 90240-003, Brazil";264;"OFICINA DE ASSISTENCIA TECNICA";"AV PERNAMBUCO, 1202"
"-30.0085742";"-51.1686405";"street_address";"R. Aparício Mariense, 91 - Passo d'Areia, Porto Alegre - RS, 91030-370, Brazil";265;"SERVICO DE SOFTWARE E HARDWARE";"R APARICIO MARIENSE, 91/301"
"-30.0582161";"-51.2292508";"street_address";"R. Costa, 30 - Menino Deus, Porto Alegre - RS, 90110-270, Brazil";266;"CLINICA MEDICA S/PROCEDIMENTO INVASIVO S/CALDEIRA";"R COSTA, 30"
"-30.081927";"-51.209198";"street_address";"Av. Engenheiro Ludolfo Boehl, 325 - Teresópolis, Porto Alegre - RS, 91720-150, Brazil";267;"ESTUDIO DE MUSICA ( GRAVACAO E EDICAO DE SOM )";"AV ENG LUDOLFO BOEHL, 325"
"-30.0261373";"-51.2037644";"street_address";"R. Hilário Ribeiro, 313 - Moinhos de Vento, Porto Alegre - RS, 90510-040, Brazil";268;"AGENCIA DE VIAGENS E TURISMO";"R HILARIO RIBEIRO, 313"
"-29.9992752";"-51.188051";"street_address";"Rua 18 de Novembro, 800 - São João, Porto Alegre - RS, 90240-040, Brazil";269;"LOCACAO DE CD'S, DISCOS E FITAS";"R DEZOITO DE NOVEMBRO, 800"
"-30.0261373";"-51.2037644";"street_address";"R. Hilário Ribeiro, 313 - Moinhos de Vento, Porto Alegre - RS, 90510-040, Brazil";270;"ESCRITORIO DE CORRETAGEM DE SEGUROS";"R HILARIO RIBEIRO, 313"
"-30.0090476";"-51.2014375";"street_address";"Av. Polônia, 730 - São Geraldo, Porto Alegre - RS, 90230-110, Brazil";271;"REPRESENTACAO COMERCIAL (INTERMEDIARIOS DE VENDAS DE MERCADORIAS A";"AV POLONIA, 730/302"
"-30.029678";"-51.2293383";"establishment";"R. dos Andradas, 1234 - Centro Histórico, Porto Alegre - RS, 90010-000, Brazil";272;"AGENCIA DE VIAGENS E TURISMO";"R ANDRADAS, 1234/2102"
"-30.0301396";"-51.2332489";"street_address";"Rua 7 de Setembro, 730 - Centro Histórico, Porto Alegre - RS, 90010-190, Brazil";273;"AGENCIA DE VIAGENS E TURISMO";"R SETE DE SETEMBRO, 730"
"-30.029678";"-51.2293383";"establishment";"R. dos Andradas, 1234 - Centro Histórico, Porto Alegre - RS, 90010-000, Brazil";274;"AGENCIA DE VIAGENS E TURISMO";"R ANDRADAS, 1234/2102"
"-30.0297122";"-51.2311667";"establishment";"Customs Square - R. Siqueira Campos, 2529 - Centro Histórico, Porto Alegre - RS, 90010-000, Brazil";275;"REPRESENTACAO COMERCIAL (INTERMEDIARIOS DE VENDAS DE MERCADORIAS A";"PCA ALFANDEGA, 12/7"
"-30.0019006";"-51.1587976";"street_address";"Rua Conselheiro d'Ávila, 317 - Jardim Floresta, Porto Alegre - RS, 91040-450, Brazil";276;"ESCRITORIO ADMINISTRATIVO (SEDE ADMINISTRATIVA DE EMPRESA)";"R CONSELHEIRO D'AVILA, 317"
"-30.054879";"-51.1502709";"street_address";"R. Beija-Flor, 80 - Jardim Carvalho, Porto Alegre - RS, 90001-970, Brazil";277;"ESCRITORIO DE CONTABILIDADE E AUDITORIA";"R BEIJA-FLOR, 80"
"-30.0271492";"-51.131802";"route";"Rua Tenente Ary Tarragô, Porto Alegre - RS, Brazil";278;"LOCACAO DE FITAS DE VIDEO";"R TEN ARY TARRAGO, 1837"
"-30.047663";"-51.220464";"street_address";"R. Dezessete de Junho, 871 - Menino Deus, Porto Alegre - RS, 90110-170, Brazil";279;"ESCRITORIO ADMINISTRATIVO (SEDE ADMINISTRATIVA DE EMPRESA)";"R DEZESSETE DE JUNHO, 871/202"
"-30.0202984";"-51.1939279";"street_address";"Av. Mariland, 636 - São João, Porto Alegre - RS, 90440-191, Brazil";280;"ESTUDIO FOTOGRAFICO";"AV MARILAND, 636"
"-30.0192561";"-51.1556555";"street_address";"Av. Dr. João Simplício Alves de Carvalho, 330 - Vila Ipiranga, Porto Alegre - RS, 91360-260, Brazil";281;"ESCRITORIO DE CORRETAGEM DE SEGUROS";"AV DR JOAO SIMPLICIO A DE CARVALHO, 330"
"-30.015375";"-51.154672";"street_address";"R. Dom Diogo de Souza, 535 - Cristo Redentor, Porto Alegre - RS, 91350-000, Brazil";282;"AGENCIA DE LOCACAO DE MOVEIS, LOUCAS E SEMELHANTES";"R DOM DIOGO DE SOUZA, 535"
"-30.0240529";"-51.1839342";"street_address";"R. Campos Sáles, 157 - Auxiliadora, Porto Alegre - RS, Brazil";283;"CENTRAL DE SERVICOS DE APOIO AS EMPRESAS";"R CAMPOS SALES, 157/301"
"-30.0582161";"-51.2292508";"street_address";"R. Costa, 30 - Menino Deus, Porto Alegre - RS, 90110-270, Brazil";284;"CLINICA MEDICA SEM CALDEIRA";"R COSTA, 30/211"
"-30.050449";"-51.214933";"street_address";"R. Marcílio Dias, 1427 - Menino Deus, Porto Alegre - RS, 90130-001, Brazil";285;"ESCRITORIO DE PROMOCOES";"R MARCILIO DIAS, 1427"
"-30.0852056";"-51.2456904";"street_address";"Av. Diário de Notícias, 300 - Cristal, Porto Alegre - RS, Brazil";286;"OFICINA DE ASSISTENCIA TECNICA";"AV DIARIO DE NOTICIAS, 300/1121"
"-30.04692";"-51.1864459";"street_address";"R. Ferreira Viana, 635 - Petrópolis, Porto Alegre - RS, 90670-100, Brazil";287;"REPRESENTACAO COMERCIAL (INTERMEDIARIOS DE VENDAS DE MERCADORIAS A";"R FERREIRA VIANA, 635"
"-30.003732";"-51.1896693";"premise";"R. Souza Reis, 365 - São João, Porto Alegre - RS, 90240-650, Brazil";288;"ESCRITORIO DE CORRETAGEM DE SEGUROS";"R SOUZA REIS, 365"
"-30.0176339";"-51.2020363";"street_address";"Av. Pernambuco, 2817 - Floresta, Porto Alegre - RS, 90240-003, Brazil";289;"REPRESENTACAO COMERCIAL (INTERMEDIARIOS DE VENDAS DE MERCADORIAS A";"AV PERNAMBUCO, 2817/302"
"-30.0086966";"-51.1836058";"street_address";"R. Portugal, 23 - São João, Porto Alegre - RS, 90520-310, Brazil";290;"LOCACAO DE FITAS DE VIDEO";"R PORTUGAL, 23/7"
"-30.0431321";"-51.1963098";"street_address";"R. Vicente da Fontoura, 2169 - Petrópolis, Porto Alegre - RS, 90640-003, Brazil";291;"LOCACAO DE FITAS DE VIDEO";"R VICENTE DA FONTOURA, 2169/1"
"-30.0353607";"-51.2219994";"street_address";"Av. Loureiro da Silva, 2001 - Cidade Baixa, Porto Alegre - RS, 90050-240, Brazil";292;"SERVICO DE ASSESSORIA, CONSULTORIA, PESQUISA, ANA-LISE E PROMOCOES";"AV LOUREIRO DA SILVA, 2001/702"
"-30.0245631";"-51.182861";"street_address";"Av. Carlos Gomes, 300 - Boa Vista, Porto Alegre - RS, Brazil";293;"SERVICO DE PUBLICIDADE E PROPAGANDA,DE TRADUCAO,  REPRODUCAO E DOC";"AV CARLOS GOMES, 300/201"
"-30.0353607";"-51.2219994";"street_address";"Av. Loureiro da Silva, 2001 - Cidade Baixa, Porto Alegre - RS, 90050-240, Brazil";294;"PROCESSAMENTO DE DADOS";"AV LOUREIRO DA SILVA, 2001/705"
"-30.0103027";"-51.2021453";"street_address";"Av. São Pedro, 720 - São Geraldo, Porto Alegre - RS, 90230-123, Brazil";295;"AGENCIA DE LOCACAO DE MAQUINAS E EQUIPAMENTOS";"AV SAO PEDRO, 720/303"
"-30.023646";"-51.1841286";"street_address";"Av. Carlos Gomes, 141 - Auxiliadora, Porto Alegre - RS, 90480-003, Brazil";296;"ESCRITORIO DE IMPORTACAO E EXPORTACAO";"AV CARLOS GOMES, 141/707"
"-30.0182651";"-51.186152";"street_address";"R. Dom Pedro II, 1240 - São João, Porto Alegre - RS, 90550-141, Brazil";297;"ESCRITORIO DE SERVICOS DE CONSULTORIA";"R DOM PEDRO II, 1240/312"
"-30.0182651";"-51.186152";"street_address";"R. Dom Pedro II, 1240 - São João, Porto Alegre - RS, 90550-141, Brazil";298;"ESCRITORIO DE SERVICOS DE CONSULTORIA";"R DOM PEDRO II, 1240/313"
"-30.006721";"-51.1632152";"street_address";"Rua Fernando Abbott, 871 - Cristo Redentor, Porto Alegre - RS, 91040-360, Brazil";299;"OFICINA DE ASSISTENCIA TECNICA";"R FERNANDO ABBOTT, 871"
"-30.0259445";"-51.204177";"street_address";"R. Padre Chagas, 79 - Moinhos de Vento, Porto Alegre - RS, 90570-080, Brazil";300;"ESCRITORIO DE COBRANCA E AJUSTE DE CONTAS";"R PADRE CHAGAS, 79/402"
"-30.0853432";"-51.2461497";"street_address";"Av. Diário de Notícias, 400 - Cristal, Porto Alegre - RS, 90810-080, Brazil";301;"CLINICA MEDICA SEM CALDEIRA";"AV DIARIO DE NOTICIAS, 400/211"
"-29.993975";"-51.1298948";"street_address";"Av. Assis Brasil, 6482 - Passo d'Areia, Porto Alegre - RS, Brazil";302;"GARAGEM E ESTACIONAMENTO PARA VEICULOS, EXCETO OS DE CARGA OU COLE";"AV ASSIS BRASIL, 6482"
"-30.0178067";"-51.2011118";"street_address";"Av. Cristóvão Colombo, 1980 - Floresta, Porto Alegre - RS, 90560-002, Brazil";303;"GARAGEM E ESTACIONAMENTO PARA VEICULOS, EXCETO OS DE CARGA OU COLE";"AV CRISTOVAO COLOMBO, 1980"
"-30.100251";"-51.262899";"street_address";"Av. Pereira Passos, 162 - Vila Assunção, Porto Alegre - RS, 91900-240, Brazil";304;"SERVICO DE ASSESSORIA, CONSULTORIA, PESQUISA, ANA-LISE E PROMOCOES";"AV PEREIRA PASSOS, 162"
"-30.0283043";"-51.2036812";"street_address";"R. Mostardeiro, 366 - Independência, Porto Alegre - RS, 90430-001, Brazil";305;"SERVICO DE TREINAMENTO E ADMINISTRACAO DE PESSOAL";"R MOSTARDEIRO, 366/501"
"-30.0626209";"-51.1513417";"street_address";"Av. Ipiranga, 8797 - Partenon, Porto Alegre - RS, Brazil";306;"SERVICO DE SOFTWARE E HARDWARE";"AV IPIRANGA, 8797/203"
"-30.0578171";"-51.2225956";"street_address";"R. Saldanha Marinho, 33 - Menino Deus, Porto Alegre - RS, 90160-240, Brazil";307;"ESCRITORIO DE FACTORING";"R SALDANHA MARINHO, 33/504"
"-30.0293446";"-51.2073656";"street_address";"R. Mostardeiro, 5 - Independência, Porto Alegre - RS, Brazil";308;"ESCRITORIO DE SERVICOS DE CONSULTORIA";"R MOSTARDEIRO, 5/411"
"-30.0152072";"-51.1167101";"street_address";"Av. Baltazar de Oliveira Garcia, 2880 - São Sebastião, Porto Alegre - RS, Brazil";309;"OFICINA DE REPARACAO DE APARELHOS ELETRONICOS";"AV BALTAZAR DE OLIVEIRA GARCIA, 2880/1"
"-30.029678";"-51.2293383";"establishment";"R. dos Andradas, 1234 - Centro Histórico, Porto Alegre - RS, 90010-000, Brazil";310;"LABORATORIO DE REVELACAO FOTOGRAFICA";"R ANDRADAS, 1464/103"
"-30.029678";"-51.2293383";"establishment";"R. dos Andradas, 1234 - Centro Histórico, Porto Alegre - RS, 90010-000, Brazil";311;"ESCRITORIO ADMINISTRATIVO (SEDE ADMINISTRATIVA DE EMPRESA)";"R ANDRADAS, 1464/84"
"-30.0172907";"-51.1893105";"street_address";"Av. Cristóvão Colombo, 3084 - Higienópolis, Porto Alegre - RS, Brazil";312;"ESCRITORIO DE GEOLOGIA";"AV CRISTOVAO COLOMBO, 3084/202"
"-30.0285737";"-51.2061951";"street_address";"R. Mostardeiro, 120 - Independência, Porto Alegre - RS, 90430-001, Brazil";313;"REPARACAO E CONSERTO DE ARMACAO PARA OCULOS";"R MOSTARDEIRO, 120/4"
"-30.02594";"-51.162916";"establishment";"Av. João Wallig, 1800 - Iguatemi Porto Alegre - Passo d'Areia, Porto Alegre - RS, 91340-001, Brazil";314;"LABORATORIO DE OTICA";"AV JOAO WALLIG, 1800/1227"
"-30.0600413";"-51.2272221";"street_address";"R. José de Alencar, 451 - Menino Deus, Porto Alegre - RS, 90880-480, Brazil";315;"DECORACAO DE FESTAS";"R JOSE DE ALENCAR, 451"
"-30.0292021";"-51.2040557";"street_address";"R. Mariante, 180 - Rio Branco, Porto Alegre - RS, 90430-180, Brazil";316;"ESCRITORIO DE CONTABILIDADE";"R MARIANTE, 180/701"
"-29.9798019";"-51.1771327";"clothing_store";"Av. Torquarto Severo, 111 - Anchieta, Porto Alegre - RS, 90200-210, Brazil";317;"REPRESENTACAO COMERCIAL (INTERMEDIARIOS DE VENDAS DE MERCADORIAS A";"AV TORQUATO SEVERO, 30"
"-30.0453042";"-51.2302408";"street_address";"R. Celeste Gobbato, 32 - Praia de Belas, Porto Alegre - RS, 90110-160, Brazil";318;"ESCRITORIO ADMINISTRATIVO (SEDE ADMINISTRATIVA DE EMPRESA)";"R CELESTE GOBBATO, 32/503"
"-30.0902193";"-51.241507";"street_address";"R. Itapitocai, 19 - Cristal, Porto Alegre - RS, 90810-000, Brazil";319;"DECORACAO DE FESTAS";"R ITAPITOCAI, 19"
"-30.0290601";"-51.2036229";"street_address";"R. Mostardeiro, 333 - Rio Branco, Porto Alegre - RS, Brazil";320;"ESCOLA DE LINGUAS";"R MOSTARDEIRO, 333/404"
"-30.000294";"-51.1520758";"street_address";"Av. Panamericana, 1082 - Jardim Lindoia, Porto Alegre - RS, 91050-000, Brazil";321;"SALAO DE BELEZA PARA ANIMAIS";"AV PANAMERICANA, 1082"
"-30.0220611";"-51.191774";"street_address";"R. 24 de Outubro, 1681 - Auxiliadora, Porto Alegre - RS, Brazil";322;"ESCRITORIO DE FACTORING";"R VINTE QUATRO DE OUTUBRO, 1681/203"
"-30.0602363";"-51.2294788";"street_address";"R. Antenor Lemos, 57 - Menino Deus, Porto Alegre - RS, 90850-100, Brazil";323;"REPRESENTACAO COMERCIAL (INTERMEDIARIOS DE VENDAS DE MERCADORIAS A";"R ANTENOR LEMOS, 57/503"
"-30.0602363";"-51.2294788";"street_address";"R. Antenor Lemos, 57 - Menino Deus, Porto Alegre - RS, 90850-100, Brazil";324;"SERVICO DE ASSESSORIA, CONSULTORIA, PESQUISA, ANA-LISE E PROMOCOES";"R ANTENOR LEMOS, 57/503"
"-30.049779";"-51.2284706";"street_address";"Av. Praia de Belas, 1181 - Praia de Belas, Porto Alegre - RS, 90110-001, Brazil";325;"OFICINA DE REPARACAO DE ARTIGOS DIVERSOS NAO ESPE-CIFICADOS";"AV PRAIA DE BELAS, 1181/1051"
"-30.029112";"-51.2078339";"street_address";"Av. Independência, 1299 - Moinhos de Vento, Porto Alegre - RS, 90035-077, Brazil";326;"EMPRESA DE MANUTENCAO DE REDES E/OU LINHAS PARA   TELECOMUNICACAO";"AV INDEPENDENCIA, 1299/503"
"-30.004262";"-51.207284";"street_address";"Av. Pátria, 48 - São Geraldo, Porto Alegre - RS, 90230-070, Brazil";327;"OFICINA DE REPARACAO DE ARTIGOS DE BORRACHA (PNEUSCAMARAS DE AR E";"AV PATRIA, 48"
"-30.031785";"-51.2174907";"street_address";"R. Dr. Barros Cassal, 689 - Bom Fim, Porto Alegre - RS, 90035-030, Brazil";328;"SERVICO DE TREINAMENTO E ADMINISTRACAO DE PESSOAL";"R DR BARROS CASSAL, 689/17"
"-30.0106855";"-51.1481006";"street_address";"Av. Assis Brasil, 3857 - Passo d'Areia, Porto Alegre - RS, 91010-004, Brazil";329;"ESCRITORIO DE CORRETAGEM DE SEGUROS";"AV ASSIS BRASIL, 3857"
"-30.0323346";"-51.2241466";"street_address";"R. Duque de Caxias, 1743 - Centro Histórico, Porto Alegre - RS, 90010-490, Brazil";330;"SERVICO DE TATUAGEM";"R DUQUE DE CAXIAS, 1743/1"
"-30.0352352";"-51.2096357";"establishment";"R. Felipe Camarão, 626 - Bom Fim, Porto Alegre - RS, 90035-140, Brazil";331;"ESCRITORIO DE SERVICOS DE CONSULTORIA";"R FELIPE CAMARAO, 626/403"
"-30.0145594";"-51.143736";"street_address";"R. Gomes de Freitas, 491 - Jardim Itu-Sabará, Porto Alegre - RS, 91787-590, Brazil";332;"REPRESENTACAO COMERCIAL (INTERMEDIARIOS DE VENDAS DE MERCADORIAS A";"R GOMES DE FREITAS, 491/202"
"-30.080632";"-51.2373804";"street_address";"Av. Caí, 644 - Cristal, Porto Alegre - RS, 90810-120, Brazil";333;"ESCRITORIO DE SERVICOS JURIDICOS";"AV CAI, 644"
"-30.0218918";"-51.1835644";"street_address";"Av. Plínio Brasil Milano, 757 - Higienópolis, Porto Alegre - RS, 90520-002, Brazil";334;"SALAO DE BELEZA";"AV PLINIO BRASIL MILANO, 757/404"
"-30.04023";"-51.1637351";"street_address";"Av. Protásio Alves, 4775 - Alto Petrópolis, Porto Alegre - RS, Brazil";335;"MOTOFRETE";"AV PROTASIO ALVES, 4775"
"-30.031378";"-51.2258304";"street_address";"R. Vig. José Inácio, 630 - Centro Histórico, Porto Alegre - RS, 90020-110, Brazil";336;"IMOBILIARIA";"R VIGARIO JOSE IGNACIO, 630/402"
"-30.006166";"-51.093775";"street_address";"Av. Bernardino Silveira Amorim, 3751 - Rubem Berta, Porto Alegre - RS, 91170-680, Brazil";337;"REPRESENTACAO COMERCIAL (INTERMEDIARIOS DE VENDAS DE MERCADORIAS A";"AV BERNARDINO SILVEIRA DE AMORIM, 3751/2"
"-30.0295289";"-51.2285723";"street_address";"R. Uruguai, 299 - Centro Histórico, Porto Alegre - RS, Brazil";338;"ESCOLA PROFISSIONALIZANTE";"R URUGUAI, 299/701"
"-30.097227";"-51.230754";"street_address";"Av. da Cavalhada, 2305 - Cavalhada, Porto Alegre - RS, 91740-001, Brazil";339;"ESCOLA ESPECIAL";"AV CAVALHADA, 2305/202"
"-30.097227";"-51.230754";"street_address";"Av. da Cavalhada, 2305 - Cavalhada, Porto Alegre - RS, 91740-001, Brazil";340;"ESCOLA ESPECIAL";"AV CAVALHADA, 2305/307"
"-30.0228155";"-51.1925269";"street_address";"R. Felipe Neri, 312 - Auxiliadora, Porto Alegre - RS, 90440-150, Brazil";341;"ESCRITORIO DE SERVICOS JURIDICOS";"R FELIPE NERI, 312/403"
"-30.0362913";"-51.2344383";"route";"Rua Washington Luiz - Centro Histórico, Porto Alegre - RS, Brazil";342;"ESCRITORIO DE SERVICOS JURIDICOS";"R WASHINGTON LUIZ, 552/701"
"-30.0182326";"-51.1988231";"street_address";"Av. Cristóvão Colombo, 2149 - Floresta, Porto Alegre - RS, 90560-002, Brazil";343;"SALAO DE BELEZA";"AV CRISTOVAO COLOMBO, 2149/7"
"-29.9995497";"-51.1618924";"establishment";"Av. Sertório, 4222 - Jardim Sao Pedro, Porto Alegre - RS, 91040-970, Brazil";344;"AGENCIA DE LOCACAO DE VEICULOS";"AV SERTORIO, 3749"
"-30.0282176";"-51.2265508";"street_address";"Praça Quinze de Novembro, 66 - Centro Histórico, Porto Alegre - RS, 90020-061, Brazil";345;"ESCRITORIO DE SERVICOS JURIDICOS";"PCA QUINZE DE NOVEMBRO, 66/710"
"-30.0239695";"-51.2008983";"street_address";"R. Olávo Barreto Viana, 104 - Moinhos de Vento, Porto Alegre - RS, 90570-070, Brazil";346;"ESCRITORIO ADMINISTRATIVO (SEDE ADMINISTRATIVA DE EMPRESA)";"R OLAVO BARRETO VIANA, 104/204"
"-30.0452763";"-51.2294265";"establishment";"Av. Borges de Medeiros, 2105 - PR Belas, Porto Alegre - RS, Brazil";347;"SERVICO DE ASSESSORIA, CONSULTORIA, PESQUISA, ANA-LISE E PROMOCOES";"AV BORGES DE MEDEIROS, 2105/1409"
"-30.004252";"-51.1986801";"street_address";"Av. França, 813 - Navegantes, Porto Alegre - RS, 90230-220, Brazil";348;"REPRESENTACAO COMERCIAL (INTERMEDIARIOS DE VENDAS DE MERCADORIAS A";"AV FRANCA, 813"
"-30.0308436";"-51.2335975";"street_address";"R. Gen. João Manoel, 207 - Centro Histórico, Porto Alegre - RS, 90010-030, Brazil";349;"ESCRITORIO ADMINISTRATIVO (SEDE ADMINISTRATIVA DE EMPRESA)";"R GEN JOAO MANOEL, 207/1"
"-30.0484773";"-51.2177164";"street_address";"Av. Ipiranga, 1075 - Praia de Belas, Porto Alegre - RS, 90160-091, Brazil";350;"SERVICO DE SOFTWARE E HARDWARE";"AV IPIRANGA, 1075"
"-30.0240529";"-51.1839342";"street_address";"R. Campos Sáles, 157 - Auxiliadora, Porto Alegre - RS, Brazil";351;"EDITORACAO GRAFICA, EDICAO E IMPRESSAO DE OUTROS  PRODUTOS GRAFICO";"R CAMPOS SALES, 157/201"
"-30.0304902";"-51.2290621";"street_address";"R. Gen. Andrade Neves, 90 - Centro Histórico, Porto Alegre - RS, Brazil";352;"ESCRITORIO ADMINISTRATIVO (SEDE ADMINISTRATIVA DE EMPRESA)";"R GEN ANDRADE NEVES, 90/92"
"-30.0262973";"-51.2153672";"street_address";"Rua Garibaldi, 652 - Bom Fim, Porto Alegre - RS, 90035-051, Brazil";353;"ESCRITORIO DE IMPORTACAO E EXPORTACAO";"R GARIBALDI, 652/401"
"-30.0398693";"-51.1640573";"establishment";"R. Dr. Ernesto Ludwig, 25 - Chac das Pedras, Porto Alegre - RS, 91330-420, Brazil";354;"ESCRITORIO ADMINISTRATIVO (SEDE ADMINISTRATIVA DE EMPRESA)";"R DR ERNESTO LUDWIG, 25/304"
"-30.0282777";"-51.2164395";"street_address";"Av. Cristóvão Colombo, 71 - Floresta, Porto Alegre - RS, 90560-003, Brazil";355;"REPRESENTACAO COMERCIAL (INTERMEDIARIOS DE VENDAS DE MERCADORIAS A";"AV CRISTOVAO COLOMBO, 71"
"-30.0328503";"-51.1785966";"street_address";"Av. Carlos Gomes, 1340 - Auxiliadora, Porto Alegre - RS, 90480-001, Brazil";356;"SERVICO DE ASSESSORIA, CONSULTORIA, PESQUISA, ANA-LISE E PROMOCOES";"AV CARLOS GOMES, 1340/1"
"-30.0328503";"-51.1785966";"street_address";"Av. Carlos Gomes, 1340 - Auxiliadora, Porto Alegre - RS, 90480-001, Brazil";357;"ESCRITORIO ADMINISTRATIVO (SEDE ADMINISTRATIVA DE EMPRESA)";"AV CARLOS GOMES, 1340/901"
"-30.029678";"-51.2293383";"establishment";"R. dos Andradas, 1234 - Centro Histórico, Porto Alegre - RS, 90010-000, Brazil";358;"EMPRESA DE LIMPEZA E VIGILANCIA S/ARMAZENAMENDO DEPRODUTOS QUIMICO";"R ANDRADAS, 1137/1302"
"-30.0704082";"-51.2070569";"street_address";"R. São Joaquim, 26 - Glória, Porto Alegre - RS, Brazil";359;"ESCRITORIO DE ENGENHARIA";"R SAO JOAQUIM, 26"
"-30.0304629";"-51.2279618";"street_address";"Av. Borges de Medeiros, 453 - Centro Histórico, Porto Alegre - RS, 90020-021, Brazil";360;"ESCRITORIO DE COBRANCA E AJUSTE DE CONTAS";"AV BORGES DE MEDEIROS, 453/63"
"-30.0160409";"-51.1528811";"street_address";"Av. do Forte, 557 - Vila Ipiranga, Porto Alegre - RS, Brazil";361;"ESCRITORIO DE CORRETAGEM DE SEGUROS";"AV FORTE, 557/214"
"-30.0532927";"-51.2117328";"street_address";"R. Prof. Oscar Pereira, 262 - Azenha, Porto Alegre - RS, Brazil";362;"ESCRITORIO DE COBRANCA E AJUSTE DE CONTAS";"AV PROF OSCAR PEREIRA, 262/401"
"-30.006511";"-51.17628";"establishment";"R. Santa Catarina, 201 - Santa Maria Goretti, Porto Alegre - RS, 91030-330, Brazil";363;"OFICINA-SERRALHERIA";"R SANTA CATARINA, 309"
"-30.0247759";"-51.1854131";"street_address";"R. Pedro Chaves Barcelos, 312 - Auxiliadora, Porto Alegre - RS, 90450-010, Brazil";364;"SERVICO DE ASSESSORIA, CONSULTORIA, PESQUISA, ANA-LISE E PROMOCOES";"R PEDRO CHAVES BARCELOS, 312"
"-30.030454";"-51.223409";"doctor";"R. Gen. Vitorino, 330/401 - Centro Histórico, Porto Alegre - RS, 90020-170, Brazil";365;"ESCRITORIO DE SERVICOS JURIDICOS";"R GEN VITORINO, 53/74"
"-30.0408082";"-51.2022151";"street_address";"R. Dona Eugênia, 317 - Santa Cecilia, Porto Alegre - RS, 90630-150, Brazil";366;"ESCRITORIO DE PUBLICIDADE E PROPAGANDA";"R DONA EUGENIA, 317/201"
"-30.039452";"-51.221558";"street_address";"Rua Luiz Afonso, 276 - Cidade Baixa, Porto Alegre - RS, 90050-310, Brazil";367;"ESCOLA DE DANCA";"R LUIZ AFONSO, 276"
"-30.0294491";"-51.1816327";"street_address";"Av. Dr. Nilo Peçanha, 724 - Petrópolis, Porto Alegre - RS, 91330-002, Brazil";368;"ESCRITORIO ADMINISTRATIVO (SEDE ADMINISTRATIVA DE EMPRESA)";"AV DR NILO PECANHA, 724/202"
"-29.998212";"-51.149562";"street_address";"Av. Sertório, 5539 - Jardim Lindoia, Porto Alegre - RS, Brazil";369;"REPRESENTACAO COMERCIAL (INTERMEDIARIOS DE VENDAS DE MERCADORIAS A";"AV SERTORIO, 5539"
"-30.1145267";"-51.2262348";"street_address";"Av. da Cavalhada, 4357 - Cavalhada, Porto Alegre - RS, Brazil";370;"ESCOLA PREPARATORIA";"AV CAVALHADA, 4357"
"-30.05974";"-51.227503";"street_address";"R. José de Alencar, 414 - Menino Deus, Porto Alegre - RS, 90880-480, Brazil";371;"LOCACAO DE MAO-DE-OBRA";"R JOSE DE ALENCAR, 414/201"
"-30.0101716";"-51.1673011";"premise";"R. Brito Peixoto, 184 - Passo d'Areia, Porto Alegre - RS, 91030-400, Brazil";372;"ESCRITORIO DE ADMINISTRACAO (SERVIO DE ASSESSORIAADMINISTRATIVA)";"R BRITO PEIXOTO, 184"
"-30.1093872";"-51.2273961";"street_address";"Av. da Cavalhada, 3847 - Cavalhada, Porto Alegre - RS, 91740-001, Brazil";373;"CENTRAL DE SERVICOS DE APOIO AS EMPRESAS";"AV CAVALHADA, 3847/2"
"-30.0563324";"-51.1973212";"premise";"Av. Bento Gonçalves, 1642 - Partenon, Porto Alegre - RS, 90650-001, Brazil";374;"SERVICO DE TREINAMENTO E ADMINISTRACAO DE PESSOAL";"AV BENTO GONCALVES, 1642"
"-30.0069962";"-51.1890564";"premise";"Av. Benjamin Constant, 367 - São João, Porto Alegre - RS, 90550-002, Brazil";375;"SERVICO DE TREINAMENTO E ADMINISTRACAO DE PESSOAL";"AV BENJAMIN CONSTANT, 367"
"-30.0376637";"-51.185088";"street_address";"R. Carazinho, 652 - Petrópolis, Porto Alegre - RS, 90460-190, Brazil";376;"ESCRITORIO DE SERVICOS DE CONSULTORIA";"R CARAZINHO, 652/201"
"-30.04877";"-51.188611";"street_address";"R. Buenos Aires, 560 - Jardim Botânico, Porto Alegre - RS, 90670-130, Brazil";377;"ESCRITORIO DE ENGENHARIA";"R BUENOS AIRES, 560"
"-29.9983771";"-51.1923499";"establishment";"Rua 18 de Novembro, 443 - Navegantes, Porto Alegre - RS, 90240-040, Brazil";378;"ESCRITORIO DE IMPORTACAO E EXPORTACAO";"R DEZOITO DE NOVEMBRO, 443/18"
"-30.0632132";"-51.2117932";"street_address";"Av. Dr. Carlos Barbosa, 880 - Medianeira, Porto Alegre - RS, 90880-001, Brazil";379;"ESCRITORIO DE ADMINISTRACAO (SERVIO DE ASSESSORIAADMINISTRATIVA)";"AV DR CARLOS BARBOSA, 880/405"
"-30.0514216";"-51.2099103";"street_address";"Tv. Pedro Modesto Rampi, 18 - Azenha, Porto Alegre - RS, 90650-060, Brazil";380;"ESCRITORIO ADMINISTRATIVO (SEDE ADMINISTRATIVA DE EMPRESA)";"R PEDRO MODESTO RAMPI, 18/306"
"-30.0315282";"-51.225846";"street_address";"R. Riachuelo, 1558 - Centro Histórico, Porto Alegre - RS, 90010-273, Brazil";381;"EMPREITEIRA DA CONSTRUCAO CIVIL";"R RIACHUELO, 1558"
"-30.0302561";"-51.2038247";"street_address";"R. Mariante, 288 - Rio Branco, Porto Alegre - RS, 90430-180, Brazil";382;"ESCRITORIO DE ARQUITETURA";"R MARIANTE, 288/1401"
"-30.0436173";"-51.1803023";"premise";"Rua Maranguapé, 97 - Petrópolis, Porto Alegre - RS, 90690-380, Brazil";383;"ESCRITORIO DE ENGENHARIA";"R MARANGUAPE, 97"
"-29.999478";"-51.132936";"street_address";"Av. Assis Brasil, 5862 - Sarandi, Porto Alegre - RS, 91110-000, Brazil";384;"PROCESSAMENTO DE DADOS";"AV ASSIS BRASIL, 5862/2"
"-30.04027";"-51.1947458";"street_address";"Av. Protásio Alves, 1332 - Petrópolis, Porto Alegre - RS, 90460-010, Brazil";385;"INSTALACAO DE PORTAS, JANELAS, TETOS, DIVISORIAS EARMARIOS EMBUTID";"AV PROTASIO ALVES, 1332/4"
"-29.97945";"-51.175398";"street_address";"Av. Jaime Vignoli, 8 - Anchieta, Porto Alegre - RS, 90200-110, Brazil";386;"ESCRITORIO DE IMPORTACAO E EXPORTACAO";"AV JAIME VIGNOLI, 8"
"-30.0308209";"-51.2253319";"establishment";"Av. Sen. Salgado Filho, 230 - Centro Histórico, Porto Alegre - RS, Brazil";387;"ESCOLA PROFISSIONALIZANTE";"AV SENADOR SALGADO FILHO, 230"
"-30.0053043";"-51.1899259";"street_address";"R. Viléla Taváres, 155 - São João, Porto Alegre - RS, 90240-500, Brazil";388;"ESCRITORIO DE CORRETAGEM DE VEICULOS";"R VILELA TAVARES, 155/1"
"-30.1155071";"-51.2494094";"street_address";"Rua Padre João Batista Reus, 1331 - Vila Conceição, Porto Alegre - RS, Brazil";389;"ESCRITORIO DE PUBLICIDADE E PROPAGANDA";"R PADRE JOAO BATISTA REUS, 1331"
"-30.049779";"-51.2284706";"street_address";"Av. Praia de Belas, 1181 - Praia de Belas, Porto Alegre - RS, 90110-001, Brazil";390;"ACADEMIA DE ENSINO E/OU PRATICA DE GINASTICA";"AV PRAIA DE BELAS, 1181/3068"
"-29.99816";"-51.129292";"street_address";"R. Itapuí, 152 - Sarandi, Porto Alegre - RS, 91130-420, Brazil";391;"ESCRITORIO ADMINISTRATIVO (SEDE ADMINISTRATIVA DE EMPRESA)";"R ITAPUI, 152/4"
"-30.0382876";"-51.1761657";"premise";"Iguaçu 525/Centro Profissional Carlos Canozzi - Av. Iguaçu, 525 - Petrópolis, Porto Alegre - RS, 90470-430, Brazil";392;"SERVICO DE SOFTWARE E HARDWARE";"AV IGUASSU, 525/406"
"-30.0255929";"-51.2037954";"street_address";"R. Padre Chagas, 147 - Moinhos de Vento, Porto Alegre - RS, 90570-080, Brazil";393;"ESCRITORIO DE SERVICOS JURIDICOS";"R PADRE CHAGAS, 147/405"
"-30.0290599";"-51.2287662";"street_address";"R. Uruguai, 295 - Centro Histórico, Porto Alegre - RS, Brazil";394;"CORRESPONDENTE DE INSTITUICAO FINANCEIRA";"R URUGUAI, 295/52"
"-29.9987452";"-51.1296705";"premise";"R. Itaúna, 46 - Sarandi, Porto Alegre - RS, 91225-040, Brazil";395;"ESCRITORIO ADMINISTRATIVO (SEDE ADMINISTRATIVA DE EMPRESA)";"R ITAUNA, 46"
"-30.127086";"-51.235138";"street_address";"R. Conselheiro Xavier da Costa, 2190 - Ipanema, Porto Alegre - RS, 91760-030, Brazil";396;"ESCRITORIO DE CORRETAGEM DE SEGUROS";"R CONSELHEIRO XAVIER DA COSTA, 2190"
"-30.0262079";"-51.1462736";"street_address";"Av. Benno Mentz, 1712 - Vila Ipiranga, Porto Alegre - RS, 91370-020, Brazil";397;"ESCRITORIO DE ADMINISTRACAO (SERVIO DE ASSESSORIAADMINISTRATIVA)";"AV BENNO MENTZ, 1712"
"-30.0296148";"-51.2338563";"street_address";"R. Gen. João Manoel, 90 - Centro Histórico, Porto Alegre - RS, Brazil";398;"SERVICO DE SOFTWARE E HARDWARE";"R GEN JOAO MANOEL, 90"
"-30.0300834";"-51.2275687";"street_address";"Av. Borges de Medeiros, 410 - Centro Histórico, Porto Alegre - RS, 90020-023, Brazil";399;"EMPRESA DE LIMPEZA E VIGILANCIA";"AV BORGES DE MEDEIROS, 410/523"
"-30.0265332";"-51.1511123";"street_address";"Av. do Forte, 1789 - Vila Ipiranga, Porto Alegre - RS, 91360-001, Brazil";400;"CLINICA MEDICA SEM CALDEIRA";"AV FORTE, 1789"
"-30.017637";"-51.1525566";"premise";"Av. do Forte, 787 - Vila Ipiranga, Porto Alegre - RS, 91360-001, Brazil";401;"ESCRITORIO ADMINISTRATIVO (SEDE ADMINISTRATIVA DE EMPRESA)";"AV FORTE, 787"
"-30.0247943";"-51.1509561";"street_address";"Av. do Forte, 1600 - Vila Ipiranga, Porto Alegre - RS, Brazil";402;"ESCRITORIO DE CORRETAGEM DE IMOVEIS";"AV FORTE, 1600"
"-30.0270225";"-51.150984";"street_address";"Av. do Forte, 1837 - Vila Ipiranga, Porto Alegre - RS, Brazil";403;"ESCRITORIO DE CORRETAGEM DE SEGUROS";"AV FORTE, 1837"
"-30.05974";"-51.227503";"street_address";"R. José de Alencar, 414 - Menino Deus, Porto Alegre - RS, 90880-480, Brazil";404;"ESCRITORIO DE ENGENHARIA";"R JOSE DE ALENCAR, 414/201"
"-30.05974";"-51.227503";"street_address";"R. José de Alencar, 414 - Menino Deus, Porto Alegre - RS, 90880-480, Brazil";405;"SEDE DE EMPRESA DE CONSTRUCAO CIVIL";"R JOSE DE ALENCAR, 414/201"
"-30.0341534";"-51.2125749";"street_address";"Rua General João Telles, 524 - Bom Fim, Porto Alegre - RS, 90035-120, Brazil";406;"ESCRITORIO DE SERVICOS JURIDICOS";"R GEN JOAO TELLES, 524/904"
"-30.048881";"-51.206322";"street_address";"R. Domingos Crescêncio, 394 - Santana, Porto Alegre - RS, 90650-090, Brazil";407;"EMPREITEIRA DA CONSTRUCAO CIVIL";"R DOMINGOS CRESCENCIO, 394"
"-30.0139516";"-51.154476";"premise";"R. Dom Diogo de Souza, 380 - Cristo Redentor, Porto Alegre - RS, 91350-000, Brazil";408;"ACADEMIA DE ENSINO E/OU PRATICA DE GINASTICA";"R DOM DIOGO DE SOUZA, 380"
"-29.9849162";"-51.1185626";"street_address";"Av. Assis Brasil, 7925 - Cristo Redentor, Porto Alegre - RS, 91140-001, Brazil";409;"REPRESENTACAO COMERCIAL (INTERMEDIARIOS DE VENDAS DE MERCADORIAS A";"AV ASSIS BRASIL, 7925"
"-30.030454";"-51.223409";"doctor";"R. Gen. Vitorino, 330/401 - Centro Histórico, Porto Alegre - RS, 90020-170, Brazil";410;"ESCRITORIO DE CORRETAGEM DE SEGUROS";"R GEN VITORINO, 185"
"-30.0264238";"-51.222395";"establishment";"Praça Osvaldo Cruz, 15 - Centro Histórico, Porto Alegre - RS, 90010-130, Brazil";411;"REPRESENTACAO COMERCIAL (INTERMEDIARIOS DE VENDAS DE MERCADORIAS A";"PCA OSVALDO CRUZ, 15/911"
"-30.0338454";"-51.2044867";"street_address";"R. Cabral, 381 - Rio Branco, Porto Alegre - RS, 90420-121, Brazil";412;"SAPATARIA";"R CABRAL, 381"
"-30.0285247";"-51.2277714";"street_address";"Praça Quinze de Novembro, 21 - Centro Histórico, Porto Alegre - RS, 90020-080, Brazil";413;"CENTRAL DE SERVICOS DE APOIO AS EMPRESAS";"PCA QUINZE DE NOVEMBRO, 21/102"
"-30.0565248";"-51.1973049";"street_address";"Av. Bento Gonçalves, 1656 - Partenon, Porto Alegre - RS, 90650-001, Brazil";414;"ESCRITORIO DE CONTABILIDADE";"AV BENTO GONCALVES, 1656"
"-30.0565248";"-51.1973049";"street_address";"Av. Bento Gonçalves, 1656 - Partenon, Porto Alegre - RS, 90650-001, Brazil";415;"AGENCIA DE EMPREGO, SERVICO DE SELECAO,TREINAMENTOE ADMINISTRACAO";"AV BENTO GONCALVES, 1656"
"-30.0184314";"-51.1855714";"street_address";"R. Marquês do Pombal, 1824 - Moinhos de Vento, Porto Alegre - RS, 90450-120, Brazil";416;"ESCRITORIO DE FACTORING";"R MARQUES DO POMBAL, 1824/403"
"-30.1116124";"-51.2545569";"street_address";"R. Dr. Armando Barbedo, 480 - Tristeza, Porto Alegre - RS, 91920-520, Brazil";417;"ESCRITORIO DE SERVICOS DE ASSESSORIA";"R DR ARMANDO BARBEDO, 480/209"
"-30.007398";"-51.1884429";"street_address";"Av. Benjamin Constant, 268 - São João, Porto Alegre - RS, 90550-003, Brazil";418;"ESCRITORIO DE ARQUITETURA";"AV BENJAMIN CONSTANT, 268/301"
"-30.0309302";"-51.2282803";"street_address";"R. Gen. Andrade Neves, 159 - Centro Histórico, Porto Alegre - RS, Brazil";419;"SERVICO DE SOFTWARE E HARDWARE";"R GEN ANDRADE NEVES, 159/23"
"-30.0253955";"-51.2034903";"street_address";"R. Padre Chagas, 185 - Moinhos de Vento, Porto Alegre - RS, 90570-080, Brazil";420;"ESCRITORIO DE CORRETAGEM DE IMOVEIS";"R PADRE CHAGAS, 185/906"
"-30.0285101";"-51.2225078";"street_address";"R. Pinto Bandeira, 475 - Centro Histórico, Porto Alegre - RS, 90030-150, Brazil";421;"ESCRITORIO DE CORRETAGEM DE SEGUROS";"R PINTO BANDEIRA, 475/13"
"-30.0414407";"-51.1776019";"street_address";"Av. Protásio Alves, 3173 - Petrópolis, Porto Alegre - RS, 91360-001, Brazil";422;"ESCRITORIO DE VENDAS (PRODUTOS PROPRIOS SEM INTERMDIACAO DE TERCEI";"AV PROTASIO ALVES, 3173/203"
"-30.0173331";"-51.1906272";"street_address";"R. Germano Petersen Júnior, 101 - Higienópolis, Porto Alegre - RS, 90540-140, Brazil";423;"SERVICO DE ASSESSORIA, CONSULTORIA, PESQUISA, ANA-LISE E PROMOCOES";"R GERMANO PETERSEN JUNIOR, 101/210"
"-30.0296479";"-51.2250384";"beauty_salon";"R. dos Andradas, 1656 - 501 - Centro Histórico, Porto Alegre - RS, 90020-006, Brazil";424;"REPRESENTACAO COMERCIAL (INTERMEDIARIOS DE VENDAS DE MERCADORIAS A";"R ANDRADAS, 1001/8"
"-30.0169665";"-51.1991192";"premise";"Av. Chicago, 257 - Floresta, Porto Alegre - RS, 90240-010, Brazil";425;"ESCRITORIO ADMINISTRATIVO (SEDE ADMINISTRATIVA DE EMPRESA)";"AV CHICAGO, 257"
"-30.0102432";"-51.2030944";"street_address";"Av. São Pedro, 627 - São Geraldo, Porto Alegre - RS, Brazil";426;"CORRETORA";"AV SAO PEDRO, 627/201"
"-30.0247196";"-51.2035329";"street_address";"R. Luciana de Abreu, 337 - Moinhos de Vento, Porto Alegre - RS, 90570-060, Brazil";427;"CLINICA E POLICLINICA ODONTOLOGICA";"R LUCIANA DE ABREU, 337/301"
"-30.0513179";"-51.212524";"street_address";"R. Prof. Oscar Pereira, 46 - Azenha, Porto Alegre - RS, 90640-070, Brazil";428;"ESTUDIO FOTOGRAFICO";"AV PROF OSCAR PEREIRA, 46"
"-30.0279797";"-51.2244282";"street_address";"Rua Doutor Flores, 98 - Centro, Porto Alegre - RS, 90020-120, Brazil";429;"ESCRITORIO ADMINISTRATIVO (SEDE ADMINISTRATIVA DE EMPRESA)";"R DR FLORES, 98/81"
"-30.0435623";"-51.1808945";"street_address";"R. Lagoinha, 52 - Petrópolis, Porto Alegre - RS, 90690-360, Brazil";430;"ESTUDIO FOTOGRAFICO";"R LAGOINHA, 52"
"-30.0295145";"-51.2281306";"street_address";"Av. Borges de Medeiros, 343 - Centro, Porto Alegre - RS, 90020-022, Brazil";431;"ESTUDIO FOTOGRAFICO";"AV BORGES DE MEDEIROS, 343/24"
"-30.059392";"-51.1924817";"street_address";"Av. Bento Gonçalves, 2202 - Partenon, Porto Alegre - RS, 90650-001, Brazil";432;"ESTUDIO FOTOGRAFICO";"AV BENTO GONCALVES, 2202"
"-30.0284939";"-51.226494";"street_address";"Av. Otávio Rocha, 22 - Centro Histórico, Porto Alegre - RS, 90020-150, Brazil";433;"ESTUDIO FOTOGRAFICO";"AV OTAVIO ROCHA, 22/406"
"-30.050571";"-51.186784";"street_address";"R. Barão do Amazonas, 764 - Jardom Botanico, Porto Alegre - RS, 90670-001, Brazil";434;"OFICINA DE ASSISTENCIA TECNICA";"R BARAO DO AMAZONAS, 764"
"-29.9948948";"-51.1307859";"street_address";"R. Xavier de Carvalho, 32 - Sarandi, Porto Alegre - RS, 91110-440, Brazil";435;"OFICINA DE ASSISTENCIA TECNICA";"R XAVIER DE CARVALHO, 32/202"
"-30.0292744";"-51.2081417";"street_address";"R. Ramiro Barcelos, 1172 - Floresta, Porto Alegre - RS, 90035-004, Brazil";436;"CLINICA MEDICA SEM CALDEIRA";"R RAMIRO BARCELOS, 1172/220"
"-30.0538141";"-51.1967115";"street_address";"R. Monteiro Lobato, 275 - Partenon, Porto Alegre - RS, 90620-270, Brazil";437;"ESTUDIO FOTOGRAFICO";"R MONTEIRO LOBATO, 275"
"-30.014688";"-51.203283";"street_address";"R. Félix da Cunha, 199 - Floresta, Porto Alegre - RS, 90570-001, Brazil";438;"ESCRITORIO ADMINISTRATIVO (SEDE ADMINISTRATIVA DE EMPRESA)";"R FELIX DA CUNHA, 199"
"-30.002927";"-51.1338608";"street_address";"R. Zeferino Dias, 51 - Sarandi, Porto Alegre - RS, 91110-210, Brazil";439;"OFICINA DE REPARACAO DE APARELHOS ELETRONICOS";"R ZEFERINO DIAS, 51/203"
"-30.0317272";"-51.2347274";"establishment";"R. dos Andradas, 685 - Centro, Porto Alegre - RS, 90020-003, Brazil";440;"ESTUDIO FOTOGRAFICO";"R ANDRADAS, 1227"
"-30.029678";"-51.2293383";"establishment";"R. dos Andradas, 1234 - Centro Histórico, Porto Alegre - RS, 90010-000, Brazil";441;"ESCRITORIO DE IMPORTACAO E EXPORTACAO";"R ANDRADAS, 1560/9"
"-30.0278418";"-51.2203045";"street_address";"Av. Alberto Bins, 632 - Centro, Porto Alegre - RS, 90030-040, Brazil";442;"ESTUDIO FOTOGRAFICO";"AV ALBERTO BINS, 632"
"-30.0317272";"-51.2347274";"establishment";"R. dos Andradas, 685 - Centro, Porto Alegre - RS, 90020-003, Brazil";443;"OFICINA DE ASSISTENCIA TECNICA";"R ANDRADAS, 1568/205"
"-30.0481141";"-51.1867069";"premise";"R. Riveira, 616 - Petrópolis, Porto Alegre - RS, 90670-160, Brazil";444;"ACADEMIA DE ENSINO E/OU PRATICA DE GINASTICA";"R RIVEIRA, 616"
"-30.063508";"-51.1681691";"establishment";"R. Saldanha da Gama, 256 - Loja 256 - São José, Porto Alegre - RS, 91520-630, Brazil";445;"ESCRITORIO DE PROMOCOES";"R SALDANHA DA GAMA, 210"
"-30.0527845";"-51.1964775";"street_address";"R. Monteiro Lobato, 364 - Partenon, Porto Alegre - RS, 90620-270, Brazil";446;"ESCRITORIO DE PUBLICIDADE E PROPAGANDA";"R MONTEIRO LOBATO, 364/2"
"-30.03954";"-51.199756";"street_address";"Av. Protásio Alves, 857 - Santa Cecilia, Porto Alegre - RS, 90410-000, Brazil";447;"SALAO DE BELEZA";"AV PROTASIO ALVES, 857"
"-30.0395243";"-51.1999031";"street_address";"Av. Protásio Alves, 849 - Alto Petrópolis, Porto Alegre - RS, Brazil";448;"SALAO DE BELEZA";"AV PROTASIO ALVES, 849"
"-30.0083604";"-51.1771459";"establishment";"Av. Assis Brasil, 864 - Santa Maria Goretti, Porto Alegre - RS, 91010-000, Brazil";449;"ESCRITORIO DE PROMOCOES";"AV ASSIS BRASIL, 436/201"
"-30.0296819";"-51.2283121";"establishment";"R. dos Andradas, 1342 - Centro Histórico, Porto Alegre - RS, 90020-008, Brazil";450;"REPRESENTACAO COMERCIAL (INTERMEDIARIOS DE VENDAS DE MERCADORIAS A";"R ANDRADAS, 1342"
"-30.1039005";"-51.2356834";"street_address";"Av. Otto Niemeyer, 2357 - Tristeza, Porto Alegre - RS, Brazil";451;"OFICINA DE TROCA E COLOCACAO DE SURDINAS, MOLAS,  AMORTECEDORES E";"AV OTTO NIEMEYER, 2357"
"-30.0178748";"-51.1861521";"street_address";"R. Dom Pedro II, 1220 - São João, Porto Alegre - RS, 90550-141, Brazil";452;"SERVICO DE SOFTWARE E HARDWARE";"R DOM PEDRO II, 1220/209"
"-30.0369601";"-51.2075041";"street_address";"Av. Protásio Alves, 74 - Protásio Alves, Porto Alegre - RS, Brazil";453;"SERVICO DE TELEFONIA";"AV PROTASIO ALVES, 74/4"
"-30.0171682";"-51.1647383";"street_address";"R. Paulo Setúbal, 25 - Passo d'Areia, Porto Alegre - RS, 91340-100, Brazil";454;"SERVICO DE SOFTWARE E HARDWARE";"R PAULO SETUBAL, 25/204"
"-30.0198415";"-51.2063094";"street_address";"Av. Cristóvão Colombo, 1385 - Floresta, Porto Alegre - RS, 90560-001, Brazil";455;"OFICINA DE ASSISTENCIA TECNICA";"AV CRISTOVAO COLOMBO, 1385/103"
"-29.9914395";"-51.106189";"bus_station";"Sarandi, Porto Alegre - RS, 91160-025, Brazil";456;"OFICINA DE TROCA E COLOCACAO DE SURDINAS, MOLAS,  AMORTECEDORES E";"AV BERNARDINO SILVEIRA PASTORIZA, 270"
"-30.1003134";"-51.2310147";"street_address";"Av. da Cavalhada, 2752 - Cavalhada, Porto Alegre - RS, 91740-000, Brazil";457;"OFICINA DE ASSISTENCIA TECNICA";"AV CAVALHADA, 2752/1"
"-29.9982198";"-51.189013";"street_address";"Rua Edu Chaves, 159 - São João, Porto Alegre - RS, 90240-620, Brazil";458;"ESCRITORIO DE CORRETAGEM DE SEGUROS";"R EDU CHAVES, 159"
"-29.9982198";"-51.189013";"street_address";"Rua Edu Chaves, 159 - São João, Porto Alegre - RS, 90240-620, Brazil";459;"OFICINA MECANICA PARA AUTOMOVEIS";"R EDU CHAVES, 159"
"-29.9954154";"-51.2010497";"street_address";"R. Santo Guerra, 83 - Navegantes, Porto Alegre - RS, 90240-170, Brazil";460;"OFICINA DE ASSISTENCIA TECNICA";"R SANTO GUERRA, 83"
"-30.029327";"-51.1792299";"street_address";"Alameda Emílio de Menezes, 25 - Três Figueiras, Porto Alegre - RS, 91340-360, Brazil";461;"ESCRITORIO DE CORRETAGEM DE IMOVEIS";"AL EMILIO DE MENEZES, 25"
"-30.101251";"-51.250115";"street_address";"Av. Wenceslau Escobar, 1305 - Cristal, Porto Alegre - RS, 91900-000, Brazil";462;"IMOBILIARIA";"AV WENCESLAU ESCOBAR, 1305"
"-30.0293965";"-51.1797128";"street_address";"Av. Dr. Nilo Peçanha, 1215 - Petrópolis, Porto Alegre - RS, 90470-001, Brazil";463;"ESCRITORIO DE CORRETAGEM DE IMOVEIS";"AV DR NILO PECANHA, 1215/2"
"-30.0244063";"-51.2025234";"street_address";"R. Padre Chagas, 339 - Moinhos de Vento, Porto Alegre - RS, 90570-080, Brazil";464;"ESCRITORIO DE CORRETAGEM DE IMOVEIS";"R PADRE CHAGAS, 339"
"-30.0539742";"-51.2171415";"street_address";"R. Visc. do Herval, 1137 - Menino Deus, Porto Alegre - RS, 90130-151, Brazil";465;"ACADEMIA DE ENSINO E/OU PRATICA DE GINASTICA";"R VISCONDE DO HERVAL, 1137"
"-30.0497342";"-51.2133942";"street_address";"Av. da Azenha, 661 - Azenha, Porto Alegre - RS, 90160-001, Brazil";466;"GARAGEM E ESTACIONAMENTO PARA VEICULOS, EXCETO OS DE CARGA OU COLE";"AV AZENHA, 661"
"-30.0284088";"-51.1628733";"street_address";"Av. Dr. Nilo Peçanha, 2825 - Chácara das Pedras, Porto Alegre - RS, 91330-001, Brazil";467;"ESCRITORIO DE SERVICOS DE ASSESSORIA";"AV DR NILO PECANHA, 2825/808"
"-30.0326884";"-51.2088365";"street_address";"R. Ramiro Barcelos, 1553 - Bom Fim, Porto Alegre - RS, 90035-002, Brazil";468;"SALAO DE BELEZA";"R RAMIRO BARCELOS, 1553"
"-30.1035696";"-51.2364121";"street_address";"Av. Otto Niemeyer, 2314 - Tristeza, Porto Alegre - RS, 91910-001, Brazil";469;"REPRESENTACAO COMERCIAL (INTERMEDIARIOS DE VENDAS DE MERCADORIAS A";"AV OTTO NIEMEYER, 2314/206"
"-30.0097852";"-51.1519253";"street_address";"Av. Assis Brasil, 3532 - Jardim Lindoia, Porto Alegre - RS, Brazil";470;"EMPREITEIRA DA CONSTRUCAO CIVIL";"AV ASSIS BRASIL, 3532/1007"
"-30.0600478";"-51.2279669";"street_address";"R. José de Alencar, 377 - Menino Deus, Porto Alegre - RS, 90880-480, Brazil";471;"ESCRITORIO ADMINISTRATIVO (SEDE ADMINISTRATIVA DE EMPRESA)";"R JOSE DE ALENCAR, 377/5"
"-30.0315665";"-51.2295447";"street_address";"R. Riachuelo, 1208 - Centro Histórico, Porto Alegre - RS, Brazil";472;"GARAGEM E ESTACIONAMENTO PARA VEICULOS, EXCETO OS DE CARGA OU COLE";"R RIACHUELO, 1208"
"-30.0432868";"-51.1797879";"street_address";"Rua Maranguapé, 72 - Petrópolis, Porto Alegre - RS, 90690-380, Brazil";473;"EDITORACAO GRAFICA, EDICAO E IMPRESSAO DE OUTROS  PRODUTOS GRAFICO";"R MARANGUAPE, 72/2"
"-30.0042573";"-51.1691604";"route";"Tv. Afonso Mabilde - Santa Maria Goretti, Porto Alegre - RS, Brazil";474;"REPRESENTACAO COMERCIAL (INTERMEDIARIOS DE VENDAS DE MERCADORIAS A";"TRAV AFONSO MABILDE, 120"
"-30.0254236";"-51.1831659";"street_address";"Av. Carlos Gomes, 403 - Auxiliadora, Porto Alegre - RS, Brazil";475;"ESCRITORIO DE SERVICOS JURIDICOS";"AV CARLOS GOMES, 403/405"
"-30.021879";"-51.144853";"street_address";"R. Rio dos Frades, 73 - Vl Ipiranga, Porto Alegre - RS, 91380-260, Brazil";476;"REPRESENTACAO COMERCIAL (INTERMEDIARIOS DE VENDAS DE MERCADORIAS A";"R RIO DOS FRADES, 73"
"-30.0132664";"-51.1929588";"premise";"Rua 16 de Julho, 139 - São João, Porto Alegre - RS, 90550-020, Brazil";477;"ESCRITORIO DE ENGENHARIA";"R DEZESSEIS DE JULHO, 139"
"-30.0115609";"-51.1696253";"street_address";"Av. Assis Brasil, 1800 - Passo d'Areia, Porto Alegre - RS, 91010-005, Brazil";478;"ESCRITORIO DE SERVICOS JURIDICOS";"AV ASSIS BRASIL, 1800/506"
"-30.0864648";"-51.2153972";"street_address";"Av. Nonoai, 216 - Nonoai, Porto Alegre - RS, 91720-000, Brazil";479;"SALAO DE BELEZA PARA ANIMAIS";"AV NONOAI, 216"
"-30.210344";"-51.179847";"street_address";"Rua Jorge Mello Guimarães, 1142 - Belém Novo, Porto Alegre - RS, 91780-020, Brazil";480;"OFICINA DE REPARACAO DE BICICLETAS";"R JORGE MELLO GUIMARAES, 1142"
"-30.029678";"-51.2293383";"establishment";"R. dos Andradas, 1234 - Centro Histórico, Porto Alegre - RS, 90010-000, Brazil";481;"ESCRITORIO DE SERVICOS JURIDICOS";"R ANDRADAS, 1273/1304"
"-30.041457";"-51.1826848";"street_address";"Av. Taquara, 586 - Petrópolis, Porto Alegre - RS, 90460-210, Brazil";482;"SERVICO DE ASSESSORIA, CONSULTORIA, PESQUISA, ANA-LISE E PROMOCOES";"AV TAQUARA, 586/703"
"-30.152581";"-51.14892";"establishment";"R. Bernardo Tchernin, 155 - LOJA 22 - Restinga Nova, Porto Alegre - RS, 91790-180, Brazil";483;"SALAO DE BELEZA";"R BERNARDO TCHERNIN, 165/27"
"-30.014186";"-51.1975819";"street_address";"Av. Paraná, 2316 - Navegantes\São Geraldo, Porto Alegre - RS, 90240-602, Brazil";484;"REPRESENTACAO COMERCIAL (INTERMEDIARIOS DE VENDAS DE MERCADORIAS A";"AV PARANA, 2316/3"
"-30.030291";"-51.2302538";"establishment";"Recepção - R. dos Andradas, 1137 - Centro, Porto Alegre - RS, 90020-015, Brazil";485;"SALAO DE BELEZA";"R ANDRADAS, 1137"
"-30.0278384";"-51.2304199";"establishment";"R. Gen. Câmara, 60 - Centro Histórico, Porto Alegre - RS, 90010-230, Brazil";486;"ESCRITORIO DE SERVICOS JURIDICOS";"R GEN CAMARA, 230"
"-30.0303969";"-51.2355468";"street_address";"R. Gen. Bento Martins, 24 - Centro Histórico, Porto Alegre - RS, 90010-080, Brazil";487;"ESCRITORIO DE SERVICOS JURIDICOS";"R GEN BENTO MARTINS, 24/702"
"-30.0241804";"-51.2135261";"street_address";"R. Comendador Coruja, 270 - Floresta, Porto Alegre - RS, 90220-180, Brazil";488;"OFICINA DE REPARACAO DE APARELHOS ELETRONICOS";"R COMENDADOR CORUJA, 270"
"-30.1066297";"-51.2437424";"street_address";"Av. Otto Niemeyer, 1535 - Camaquã, Porto Alegre - RS, 91910-001, Brazil";489;"CLINICA VETERINARIA SEM ALOJAMENTO";"AV OTTO NIEMEYER, 1535"
"-30.012747";"-51.156985";"street_address";"Rua Fernando Cortez, 239 - Cristo Redentor, Porto Alegre - RS, 91350-270, Brazil";490;"INSTALACAO DE PORTAS, JANELAS, TETOS, DIVISORIAS EARMARIOS EMBUTID";"R FERNANDO CORTEZ, 239"
"-30.0417824";"-51.1838583";"street_address";"Av. Taquara, 438 - Petrópolis, Porto Alegre - RS, 90460-210, Brazil";491;"ESCRITORIO DE ENGENHARIA";"AV TAQUARA, 438/407"
"-30.0414594";"-51.1776507";"street_address";"Av. Protásio Alves, 3161 - Petrópolis, Porto Alegre - RS, Brazil";492;"ESTUDIO DE EDICAO E GRAVACAO DE FITAS DE VIDEO CASSETE E CD DE FES";"AV PROTASIO ALVES, 3161/604"
"-29.9850944";"-51.1936359";"street_address";"Av. A. J. Renner, 1454 - Farrapos, Porto Alegre - RS, 90250-000, Brazil";493;"REPRESENTACAO COMERCIAL (INTERMEDIARIOS DE VENDAS DE MERCADORIAS A";"AV A J RENNER, 1454"
"-30.0158347";"-51.2023239";"street_address";"Av. Pernambuco, 2609 - Navegantes, Porto Alegre - RS, 90240-003, Brazil";494;"AGENCIA DE SONORIZACAO";"AV PERNAMBUCO, 2609"
"-30.0133965";"-51.2046208";"street_address";"Presidente Rooselvet 1557 / 301 - Av. Pres. Franklin Roosevelt, 1557 - São Geraldo, Porto Alegre - RS, 90230-002, Brazil";495;"ESCRITORIO ADMINISTRATIVO (SEDE ADMINISTRATIVA DE EMPRESA)";"AV PRESIDENTE FRANKLIN ROOSEVELT, 1557/302"
"-30.0410252";"-51.2187289";"street_address";"R. Joaquim Nabuco, 15 - Cidade Baixa, Porto Alegre - RS, 90050-340, Brazil";496;"REPRESENTACAO COMERCIAL (INTERMEDIARIOS DE VENDAS DE MERCADORIAS A";"R JOAQUIM NABUCO, 15/403"
"-30.0303702";"-51.2305036";"establishment";"6 e 11 Andar - R. dos Andradas, 1121 - Centro, Porto Alegre - RS, 90020-015, Brazil";497;"ESCRITORIO DE CORRETAGEM DE SEGUROS";"R ANDRADAS, 955/1001"
"-30.0214112";"-51.1854606";"street_address";"Av. Augusto Meyer, 163 - Auxiliadora, Porto Alegre - RS, 90550-110, Brazil";498;"ESCOLA PREPARATORIA";"AV AUGUSTO MEYER, 163/805"
"-30.0221146";"-51.2023565";"establishment";"Praça Dr. Maurício Cardoso, 170 - Moinhos de Vento, Porto Alegre - RS, Brazil";499;"CLINICA DE FISIOTERAPIA SEM CALDEIRA";"PCA DR MAURICIO CARDOSO, 170/602"
"-30.0507292";"-51.2054072";"street_address";"R. Vicente da Fontoura, 875 - Santana, Porto Alegre - RS, 90640-001, Brazil";500;"ESCRITORIO DE CONTABILIDADE";"R VICENTE DA FONTOURA, 875"
"-30.102174";"-51.2320778";"street_address";"Av. Otto Niemeyer, 2974 - Camaquã, Porto Alegre - RS, 91910-001, Brazil";501;"SALAO DE BELEZA";"AV OTTO NIEMEYER, 2974/102"
"-30.0514729";"-51.2129891";"street_address";"Av. da Azenha, 848 - Azenha, Porto Alegre - RS, 90160-006, Brazil";502;"OFICINA DE ASSISTENCIA TECNICA";"AV AZENHA, 848/2"
"-30.0227483";"-51.1914629";"street_address";"R. Felipe Neri, 414 - Auxiliadora, Porto Alegre - RS, 90440-150, Brazil";503;"CONSULTORIO DE PSICOLOGIA";"R FELIPE NERI, 414/503"
"-30.0415894";"-51.1827761";"establishment";"Av. Taquara, 572 - Petrópolis, Porto Alegre - RS, 90460-210, Brazil";504;"CONSULTORIO ODONTOLOGICO";"AV TAQUARA, 572/203"
"-30.0552734";"-51.16382";"street_address";"Av. Ipiranga, 7450 - Praia de Belas, Porto Alegre - RS, Brazil";505;"ESCOLA DE LINGUAS";"AV IPIRANGA, 7450/908"
"-30.0362009";"-51.2081509";"street_address";"R. Ramiro Barcelos, 1954 - Floresta, Porto Alegre - RS, Brazil";506;"CONSULTORIO DE PSICOLOGIA";"R RAMIRO BARCELOS, 1954/404"
"-30.0236723";"-51.1951023";"street_address";"Av. Cel. Lucas de Oliveira, 132 - Petrópolis, Porto Alegre - RS, 90440-011, Brazil";507;"CONSULTORIO MEDICO";"AV CEL LUCAS DE OLIVEIRA, 132"
"-30.0602834";"-51.2228144";"establishment";"R. José de Alencar, 868 - Menino Deus, Porto Alegre - RS, 90880-480, Brazil";508;"CONSULTORIO MEDICO";"R JOSE DE ALENCAR, 868/1001"
"-30.013732";"-51.187305";"street_address";"R. Dom Pedro II, 106 - São João, Porto Alegre - RS, 90550-140, Brazil";509;"ESCRITORIO DE SERVICOS JURIDICOS";"R DOM PEDRO II, 1220/106"
"-30.0283147";"-51.2094086";"street_address";"R. André Puente, 441 - Independência, Porto Alegre - RS, 90035-150, Brazil";510;"ESCRITORIO DE SERVICOS JURIDICOS";"R ANDRE PUENTE, 441/404"
"-30.0434695";"-51.1895277";"street_address";"R. Prof. Langendonck, 57 - Petrópolis, Porto Alegre - RS, 90630-060, Brazil";511;"ESCRITORIO DE SERVICOS JURIDICOS";"R PROF LANGENDONCK, 57/601"
"-30.010382";"-51.2011623";"street_address";"Av. Pernambuco, 1996 - Navegantes, Porto Alegre - RS, 90240-003, Brazil";512;"ESCRITORIO DE COBRANCA E AJUSTE DE CONTAS";"AV PERNAMBUCO, 1996"
"-30.0478999";"-51.1922845";"street_address";"R. Reis Louzada, 166 - Petrópolis, Porto Alegre - RS, 90630-130, Brazil";513;"OFICINA DE LAVAGEM";"R REIS LOUZADA, 166"
"-30.0149639";"-51.1873127";"street_address";"R. Dom Pedro II, 891 - São João, Porto Alegre - RS, 90550-141, Brazil";514;"CONSULTORIO DE PSICOLOGIA";"R DOM PEDRO II, 891/602"
"-30.0295145";"-51.2281306";"street_address";"Av. Borges de Medeiros, 343 - Centro, Porto Alegre - RS, 90020-022, Brazil";515;"ESCRITORIO DE PLANOS DE SAUDE";"AV BORGES DE MEDEIROS, 343/60"
"-30.0290125";"-51.2031347";"street_address";"R. Dr. Florêncio Ygartua, 275 - Moinhos de Vento, Porto Alegre - RS, Brazil";516;"SALAO DE BELEZA";"R DR FLORENCIO YGARTUA, 275"
"-30.0244329";"-51.2053201";"street_address";"R. Barão de Santo Ângelo, 152 - Moinhos de Vento, Porto Alegre - RS, 90570-090, Brazil";517;"SALAO DE BELEZA";"R BARAO DE SANTO ANGELO, 152"
"-30.0321255";"-51.2326342";"street_address";"R. Riachuelo, 900 - Centro Histórico, Porto Alegre - RS, 90010-270, Brazil";518;"SALAO DE BELEZA";"R RIACHUELO, 900"
"-30.0408407";"-51.1708346";"street_address";"Av. Protásio Alves, 4065 - Três Figueiras, Porto Alegre - RS, 91310-002, Brazil";519;"SALAO DE BELEZA";"AV PROTASIO ALVES, 4065"
"-30.0640364";"-51.186323";"street_address";"R. Cel. Aparício Borges, 2686 - Glória, Porto Alegre - RS, 90680-570, Brazil";520;"CONSULTORIO DE NUTRICIONISTA";"AV CEL APARICIO BORGES, 2686"
"-30.0392861";"-51.1783719";"street_address";"Av. Pirapó, 197 - Petrópolis, Porto Alegre - RS, 90470-480, Brazil";521;"SALAO DE BELEZA";"AV PIRAPO, 197"
"-30.0317272";"-51.2347274";"establishment";"R. dos Andradas, 685 - Centro, Porto Alegre - RS, 90020-003, Brazil";522;"SALAO DE BELEZA";"R ANDRADAS, 820/1"
"-30.027061";"-51.195043";"street_address";"Av. Cel. Lucas de Oliveira, 505 - Petrópolis, Porto Alegre - RS, Brazil";523;"CONSULTORIO DE PSIQUIATRIA";"AV CEL LUCAS DE OLIVEIRA, 505/807"
"-30.1582592";"-51.1946";"route";"Av. Juca Batista, Porto Alegre - RS, Brazil";524;"SALAO DE BELEZA";"AV JUCA BATISTA, 925/108"
"-30.0317798";"-51.2121944";"street_address";"Rua General João Telles, 260 - Bom Fim, Porto Alegre - RS, 90035-120, Brazil";525;"SALAO DE BELEZA";"R GEN JOAO TELLES, 260"
"-30.030454";"-51.223409";"doctor";"R. Gen. Vitorino, 330/401 - Centro Histórico, Porto Alegre - RS, 90020-170, Brazil";526;"ESCRITORIO DE SERVICOS DE CONSULTORIA";"R GEN VITORINO, 14"
"-30.0235363";"-51.1906487";"street_address";"R. Silva Jardim, 169 - Auxiliadora, Porto Alegre - RS, 90450-070, Brazil";527;"SALAO DE BELEZA";"R SILVA JARDIM, 169"
"-30.0414594";"-51.1776507";"street_address";"Av. Protásio Alves, 3161 - Petrópolis, Porto Alegre - RS, Brazil";528;"CONSULTORIO DE FISIOTERAPIA";"AV PROTASIO ALVES, 3161/604"
"-30.0276893";"-51.1811527";"street_address";"Av. Carlos Gomes, 700 - Auxiliadora, Porto Alegre - RS, 90480-001, Brazil";529;"CONSULTORIO ODONTOLOGICO";"AV CARLOS GOMES, 700/308"
"-30.0443327";"-51.1896827";"street_address";"R. Prof. Langendonck, 143 - Petrópolis, Porto Alegre - RS, 90630-000, Brazil";530;"SALAO DE BELEZA";"R PROF LANGENDONCK, 143"
"-30.1472441";"-51.2099378";"street_address";"R. Cirino Prunes, 50 - Espírito Santo, Porto Alegre - RS, 91770-210, Brazil";531;"SALAO DE BELEZA";"R CIRINO PRUNES, 50"
"-30.1334345";"-51.2317151";"street_address";"Av. Tramandaí, 205 - Ipanema, Porto Alegre - RS, Brazil";532;"ESCRITORIO ADMINISTRATIVO (SEDE ADMINISTRATIVA DE EMPRESA)";"AV TRAMANDAI, 205/205"
