"lat";"long";"accuracy";"formatted_address";"index";"tipo";"default"
"-30.0275508";"-51.2293029";"street_address";"R. Uruguai, 91 - Centro HistÛrico, Porto Alegre - RS, 90010-140, Brazil";1;"REPRESENTACAO COMERCIAL (INTERMEDIARIOS DE VENDAS DE MERCADORIAS A";"R URUGUAI, 91/530"
"-30.068883";"-51.177719";"street_address";"R. Pedro Sir‚ngelo, 47 - Vila Joao Pessoa, Porto Alegre - RS, 91510-640, Brazil";2;"ESCRITORIO DE SERVICOS DE CONSULTORIA";"R PEDRO SIRANGELO, 47"
"-29.9919177";"-51.1161241";"street_address";"Beco JosÈ Paris, 580 - Sarandi, Porto Alegre - RS, 91140-310, Brazil";3;"MOTEL";"BC JOSE PARIS, 580"
"-30.0419669";"-51.217976";"street_address";"Av. Ven‚ncio Aires, 210 - Cidade Baixa, Porto Alegre - RS, 90040-190, Brazil";4;"LOCACAO DE FITAS DE VIDEO";"AV VENANCIO AIRES, 210"
"-30.0386718";"-51.1759137";"street_address";"Av. Prot·sio Alves, 3504 - Alto PetrÛpolis, Porto Alegre - RS, Brazil";5;"ESCRITORIO DE CORRETAGEM DE IMOVEIS";"AV PROTASIO ALVES, 3504/607"
"-30.0593602";"-51.1918963";"street_address";"R. Bar„o do Amazonas, 1837 - Partenon, Porto Alegre - RS, 90670-005, Brazil";6;"IMOBILIARIA";"R BARAO DO AMAZONAS, 1837"
"-30.0298722";"-51.2256283";"establishment";"R. dos Andradas, 1593 - Centro HistÛrico, Porto Alegre - RS, 90010-140, Brazil";7;"GARAGEM E ESTACIONAMENTO PARA VEICULOS, EXCETO OS DE CARGA OU COLE";"R ANDRADAS, 751"
"-30.0839187";"-51.19563";"street_address";"R. Prof. Oscar Pereira, 3991 - GlÛria, Porto Alegre - RS, Brazil";8;"MOTEL";"AV PROF OSCAR PEREIRA, 3991"
"-30.0389952";"-51.2118746";"street_address";"R. ViÍira de Castro, 150 - Farroupilha, Porto Alegre - RS, 90040-320, Brazil";9;"ESCRITORIO DE IMPORTACAO E EXPORTACAO";"R VIEIRA DE CASTRO, 150/201"
"-30.0386777";"-51.1767495";"street_address";"Av. IguaÁu, 451 - PetrÛpolis, Porto Alegre - RS, 90470-430, Brazil";10;"ESCRITORIO ADMINISTRATIVO (SEDE ADMINISTRATIVA DE EMPRESA)";"AV IGUASSU, 451/302"
"-30.0260097";"-51.1827894";"street_address";"Av. Carlos Gomes, 437 - Auxiliadora, Porto Alegre - RS, 90480-003, Brazil";11;"GARAGEM E ESTACIONAMENTO PARA VEICULOS, EXCETO OS DE CARGA OU COLE";"AV CARLOS GOMES, 437"
"-29.9866298";"-51.1807824";"street_address";"Av. dos Estados, 1353 - S„o Jo„o, Porto Alegre - RS, 90200-001, Brazil";12;"ESCRITORIO DE ADMINISTRACAO (SERVIçO DE ASSESSORIAADMINISTRATIVA)";"AV ESTADOS, 1353"
"-30.02717";"-51.229729";"establishment";"Tv Francisco - Tv. Franscisco de Leonardo Truda, 40 - 12∞ Andar - Centro HistÛrico, Porto Alegre - RS, 90010-904, Brazil";13;"GARAGEM E ESTACIONAMENTO PARA VEICULOS, EXCETO OS DE CARGA OU COLE";"TRAV FRANCISCO DE LEONARDO TRUDA, 59/300"
"-30.0352553";"-51.2111729";"street_address";"Rua Fernandes Vieira, 637 - Bom Fim, Porto Alegre - RS, 90035-091, Brazil";14;"ESCRITORIO DE PUBLICIDADE E PROPAGANDA";"R FERNANDES VIEIRA, 637/407"
"-30.1349452";"-51.2309295";"street_address";"R. Leblon, 157 - Ipanema, Porto Alegre - RS, 91760-510, Brazil";15;"EDITORACAO GRAFICA, EDICAO E IMPRESSAO DE OUTROS  PRODUTOS GRAFICO";"R LEBLON, 157"
"-30.0260588";"-51.2269598";"bus_station";"Centro HistÛrico, Porto Alegre - RS, 90010-000, Brazil";16;"SERVICO DE ASSESSORIA, CONSULTORIA, PESQUISA, ANA-LISE E PROMOCOES";"LG VISCONDE DO CAIRU, 12/601"
"-30.0298722";"-51.2256283";"establishment";"R. dos Andradas, 1593 - Centro HistÛrico, Porto Alegre - RS, 90010-140, Brazil";17;"GARAGEM E ESTACIONAMENTO PARA VEICULOS, EXCETO OS DE CARGA OU COLE";"R ANDRADAS, 751"
"-30.0290046";"-51.2262223";"street_address";"R. Vig. JosÈ In·cio, 371 - Centro HistÛrico, Porto Alegre - RS, 90020-100, Brazil";18;"CONFECCAO SOB MEDIDA DE ARTIGOS DO VESTUARIO";"R VIGARIO JOSE IGNACIO, 371/722"
"-30.0189378";"-51.1443163";"street_address";"R. Prof. JosÈ Maria Rodrigues, 231 - Vila Ipiranga, Porto Alegre - RS, 91380-240, Brazil";19;"ESCRITORIO DE IMPORTACAO E EXPORTACAO";"R PROF JOSE MARIA RODRIGUES, 231"
"-30.0503235";"-51.2217076";"street_address";"Av. Get˙lio Vargas, 658 - Menino Deus, Porto Alegre - RS, Brazil";20;"GARAGEM E ESTACIONAMENTO PARA VEICULOS, EXCETO OS DE CARGA OU COLE";"AV GETULIO VARGAS, 658"
"-30.02181";"-51.200068";"establishment";"R. Dr. TimÛteo, 739 - Moinhos de Vento, Porto Alegre - RS, 90570-041, Brazil";21;"ESCRITORIO DE IMPORTACAO E EXPORTACAO";"R DR TIMOTEO, 557"
"-30.0433675";"-51.2165995";"street_address";"R. Gen. Lima e Silva, 1312 - Centro HistÛrico, Porto Alegre - RS, 90050-101, Brazil";22;"SERVICO DE SOFTWARE E HARDWARE";"R GEN LIMA E SILVA, 1312"
"-30.0281898";"-51.1993289";"street_address";"R. Mostardeiro, 780 - IndependÍncia, Porto Alegre - RS, 90430-001, Brazil";23;"CLINICA MEDICA SEM CALDEIRA";"R MOSTARDEIRO, 780/801"
"-30.0299927";"-51.2343966";"street_address";"R. Siqueira Campos, 727 - Centro HistÛrico, Porto Alegre - RS, Brazil";24;"GARAGEM E ESTACIONAMENTO PARA VEICULOS, EXCETO OS DE CARGA OU COLE";"R SIQUEIRA CAMPOS, 727"
"-30.0274194";"-51.2208443";"street_address";"R. Cel. Vicente, 430 - Centro, Porto Alegre - RS, 90030-041, Brazil";25;"GARAGEM E ESTACIONAMENTO PARA VEICULOS, EXCETO OS DE CARGA OU COLE";"R CEL VICENTE, 430"
"-30.0269994";"-51.1821923";"street_address";"Av. Carlos Gomes, 565 - Bela Vista, Porto Alegre - RS, 90480-003, Brazil";26;"GARAGEM E ESTACIONAMENTO PARA VEICULOS, EXCETO OS DE CARGA OU COLE";"AV CARLOS GOMES, 565"
"-30.0127229";"-51.1688306";"street_address";"Rua Bezerra de Menezes, 71 - Passo d'Areia, Porto Alegre - RS, 91350-130, Brazil";27;"ESCRITORIO ADMINISTRATIVO (SEDE ADMINISTRATIVA DE EMPRESA)";"R BEZERRA DE MENEZES, 71/402"
"-30.0707183";"-51.1978185";"street_address";"R. Paulino Azurenha, 1280 - Partenon, Porto Alegre - RS, 90680-240, Brazil";28;"REPRESENTACAO COMERCIAL (INTERMEDIARIOS DE VENDAS DE MERCADORIAS A";"R PAULINO AZURENHA, 1280"
"-30.056777";"-51.1678329";"establishment";"Av. Ceres, 160 - Partenon, Porto Alegre - RS, 90000-000, Brazil";29;"AGENCIA DE VIAGENS E TURISMO";"AV CERES, 160"
"-30.0678027";"-51.1617993";"establishment";"R. Vinte e Seis de Dezembro, 782 - S„o JosÈ, Porto Alegre - RS, 91520-590, Brazil";30;"OFICINA-SERRALHERIA";"R NOVE DE JUNHO, 470"
"-30.029976";"-51.204865";"street_address";"Rua Dona Laura, 87 - Rio Branco, Porto Alegre - RS, 90430-091, Brazil";31;"ESCRITORIO DE ADMINISTRACAO (SERVIçO DE ASSESSORIAADMINISTRATIVA)";"R DONA LAURA, 87/505"
"-30.0284088";"-51.1628733";"street_address";"Av. Dr. Nilo PeÁanha, 2825 - Ch·cara das Pedras, Porto Alegre - RS, 91330-001, Brazil";32;"ESCRITORIO ADMINISTRATIVO (SEDE ADMINISTRATIVA DE EMPRESA)";"AV DR NILO PECANHA, 2825/306"
"-30.0290492";"-51.2182083";"street_address";"Av. IndependÍncia, 330 - IndependÍncia, Porto Alegre - RS, 90035-072, Brazil";33;"ESCRITORIO ADMINISTRATIVO (SEDE ADMINISTRATIVA DE EMPRESA)";"AV INDEPENDENCIA, 330/13"
"-30.0306216";"-51.2291883";"street_address";"R. Gen. Andrade Neves, 71 - Centro, Porto Alegre - RS, 90010-210, Brazil";34;"GARAGEM E ESTACIONAMENTO PARA VEICULOS, EXCETO OS DE CARGA OU COLE";"R GEN ANDRADE NEVES, 71"
"-30.0156613";"-51.2030738";"street_address";"R. FÈlix da Cunha, 311 - Floresta, Porto Alegre - RS, 90570-001, Brazil";35;"ESCRITORIO ADMINISTRATIVO (SEDE ADMINISTRATIVA DE EMPRESA)";"R FELIX DA CUNHA, 311"
"-30.0180991";"-51.2048456";"street_address";"Av. CristÛv„o Colombo, 1636 - Floresta, Porto Alegre - RS, 90560-002, Brazil";36;"PROCESSAMENTO DE DADOS";"AV CRISTOVAO COLOMBO, 1636/402"
"-30.0397967";"-51.2088365";"premise";"Av. JerÙnimo de Ornelas, 670 - Santana, Porto Alegre - RS, 90040-341, Brazil";37;"ESCRITORIO DE ADMINISTRACAO (SERVIçO DE ASSESSORIAADMINISTRATIVA)";"AV JERONIMO DE ORNELAS, 670"
"-30.0180991";"-51.2048456";"street_address";"Av. CristÛv„o Colombo, 1636 - Floresta, Porto Alegre - RS, 90560-002, Brazil";38;"SERVICO DE ASSESSORIA, CONSULTORIA, PESQUISA, ANA-LISE E PROMOCOES";"AV CRISTOVAO COLOMBO, 1636/402"
"-30.105609";"-51.224858";"street_address";"Av. JosÈ CorrÍa da Silva, 228 - Cavalhada, Porto Alegre - RS, 91740-380, Brazil";39;"OFICINA DE ASSISTENCIA TECNICA";"AV JOSE CORREA DA SILVA, 228/1"
"-30.0294093";"-51.1907255";"street_address";"R. Pedro Ivo, 362 - Mont'Serrat, Porto Alegre - RS, 90450-210, Brazil";40;"OFICINA DE REPARACAO DE APARELHOS ELETRONICOS";"R PEDRO IVO, 362/1"
"-30.0280815";"-51.1809227";"street_address";"Alameda Coelho Neto, 40 - Boa Vista, Porto Alegre - RS, 91340-340, Brazil";41;"ESCRITORIO ADMINISTRATIVO (SEDE ADMINISTRATIVA DE EMPRESA)";"AL COELHO NETO, 40/303"
"-30.140805";"-51.22497";"street_address";"R. Pasteur, 230 - Ipanema, Porto Alegre - RS, 91760-620, Brazil";42;"ESCRITORIO ADMINISTRATIVO (SEDE ADMINISTRATIVA DE EMPRESA)";"R PASTEUR, 230"
"-30.049042";"-51.164934";"street_address";"R. Prof. Pedro Santa Helena, 720 - Jardim do Salso, Porto Alegre - RS, 91410-150, Brazil";43;"LOCACAO DE SALAS OU SALOES PARA EVENTOS, FESTAS E SIMILARES";"R PROF PEDRO SANTA HELENA, 720"
"-30.0366965";"-51.1717128";"premise";"Rua Luiz Voelcker, 260 - TrÍs Figueiras, Porto Alegre - RS, 91330-190, Brazil";44;"LOCACAO DE SALAS OU SALOES PARA EVENTOS, FESTAS E SIMILARES";"R LUIZ VOELCKER, 260"
"-30.0389983";"-51.2263514";"street_address";"Tv. do Carmo, 152 - Cidade Baixa, Porto Alegre - RS, 90050-210, Brazil";45;"ESCRITORIO DE CORRETAGEM DE SEGUROS";"TRAV CARMO, 152/403"
"-30.0389266";"-51.1962103";"street_address";"R. Vicente da Fontoura, 2630 - Rio Branco, Porto Alegre - RS, 90640-001, Brazil";46;"ESCRITORIO DE SERVICOS JURIDICOS";"R VICENTE DA FONTOURA, 2630/404"
"-30.0348513";"-51.2107969";"street_address";"Rua Fernandes Vieira, 618 - Bom Fim, Porto Alegre - RS, 90035-090, Brazil";47;"SERVICO DE ASSESSORIA, CONSULTORIA, PESQUISA, ANA-LISE E PROMOCOES";"R FERNANDES VIEIRA, 618/4"
"-30.0605979";"-51.2195827";"street_address";"R. JosÈ de Alencar, 1188 - Menino Deus, Porto Alegre - RS, 90880-480, Brazil";48;"ESCRITORIO DE SERVICOS DE CONSULTORIA";"R JOSE DE ALENCAR, 1188/502"
"-30.0283205";"-51.1992102";"street_address";"R. Mostardeiro, 800 - Moinhos de Vento, Porto Alegre - RS, 90430-001, Brazil";49;"ESCRITORIO DE ADMINISTRACAO (SERVIçO DE ASSESSORIAADMINISTRATIVA)";"R MOSTARDEIRO, 800/603"
"-30.0318362";"-51.1794137";"street_address";"Av. Carlos Gomes, 1200 - Auxiliadora, Porto Alegre - RS, 90480-001, Brazil";50;"ESCRITORIO ADMINISTRATIVO (SEDE ADMINISTRATIVA DE EMPRESA)";"AV CARLOS GOMES, 1200/802"
"-30.0289543";"-51.2289348";"street_address";"R. Uruguai, 287 - Centro HistÛrico, Porto Alegre - RS, Brazil";51;"ESCRITORIO DE CORRETAGEM DE SEGUROS";"R URUGUAI, 287/21"
"-29.9893395";"-51.1899379";"street_address";"Av. Amynthas Jacques de Moraes, 20 - Humait·, Porto Alegre - RS, 90245-050, Brazil";52;"ESCRITORIO ADMINISTRATIVO (SEDE ADMINISTRATIVA DE EMPRESA)";"AV AMYNTHAS JACQUES DE MORAES, 20"
"-30.0359832";"-51.1319833";"route";"Rua Francisca Betts - Alto PetrÛpolis, Porto Alegre - RS, 91260-150, Brazil";53;"ESCRITORIO DE INCORPORACOES E LOTEAMENTOS";"R FRANCISCA BETTS, 35"
"-30.0283826";"-51.2261235";"street_address";"Av. Ot·vio Rocha, 54 - Centro HistÛrico, Porto Alegre - RS, 90020-150, Brazil";54;"AGENCIA DE VIAGENS E TURISMO";"AV OTAVIO ROCHA, 54"
"-30.028833";"-51.164405";"street_address";"Rua Comendador Creidy, 315 - Ch·cara das Pedras, Porto Alegre - RS, 91330-310, Brazil";55;"REPRESENTACAO COMERCIAL (INTERMEDIARIOS DE VENDAS DE MERCADORIAS A";"R COMENDADOR CREIDY, 315"
"-30.0266818";"-51.1860603";"street_address";"R. Comendador Rheingantz, 538 - Auxiliadora, Porto Alegre - RS, 90450-020, Brazil";56;"TELE-ENTREGA - NAO PAGA";"R COMENDADOR RHEINGANTZ, 538"
"-30.027128";"-51.2007469";"establishment";"Moinhos de Vento Park - R. Comendador Caminha, s/n - Moinhos de Vento, Porto Alegre - RS, 90430-030, Brazil";57;"TELE-ENTREGA - NAO PAGA";"R COMENDADOR CAMINHA, 324"
"-30.0087711";"-51.2060956";"street_address";"R. Santos Dumont, 1500 - Floresta, Porto Alegre - RS, 90230-241, Brazil";58;"ESCRITORIO DE CONTABILIDADE";"R SANTOS DUMONT, 1500/703"
"-30.0229632";"-51.200765";"doctor";"R. Tobias da Silva, 99 - Moinhos de Vento, Porto Alegre - RS, 90570-020, Brazil";59;"AGENCIA DE VIAGENS E TURISMO";"R TOBIAS DA SILVA, 258"
"-30.013305";"-51.192761";"street_address";"Rua 16 de Julho, 157 - S„o Jo„o, Porto Alegre - RS, 90550-020, Brazil";60;"ESCRITORIO DE ENGENHARIA";"R DEZESSEIS DE JULHO, 157"
"-30.0383832";"-51.2243435";"street_address";"R. Sarmento Leite, 1098 - Centro HistÛrico, Porto Alegre - RS, 90050-170, Brazil";61;"SEDE DE EMPRESA DE CONSTRUCAO CIVIL";"R SARMENTO LEITE, 1098/302"
"-30.0153203";"-51.1325671";"car_repair";"R. Paulo Blaschke, 510 - Jardim Itu-Sabar·, Porto Alegre - RS, 91340-140, Brazil";62;"REPRESENTACAO COMERCIAL (INTERMEDIARIOS DE VENDAS DE MERCADORIAS A";"R PAULO BLASCHKE, 505"
"-30.0327739";"-51.2177984";"establishment";"Av. Osvaldo Aranha, 440 - Bom Fim, Porto Alegre - RS, Brazil";63;"CLINICA E POLICLINICA ODONTOLOGICA SEM CALDEIRA";"AV OSVALDO ARANHA, 440/703"
"-30.030454";"-51.223409";"doctor";"R. Gen. Vitorino, 330/401 - Centro HistÛrico, Porto Alegre - RS, 90020-170, Brazil";64;"CONSULTORIO MEDICO";"R GEN VITORINO, 53/171"
"-30.0404635";"-51.2167192";"street_address";"Av. Jo„o Pessoa, 1040 - Farroupilha, Porto Alegre - RS, 90040-001, Brazil";65;"OFICINA DE REPARACAO DE MOVEIS DE ESCRITORIO";"AV JOAO PESSOA, 1040"
"-30.0323426";"-51.1789653";"street_address";"Av. Carlos Gomes, 1286 - Auxiliadora, Porto Alegre - RS, 90480-001, Brazil";66;"ESCRITORIO ADMINISTRATIVO (SEDE ADMINISTRATIVA DE EMPRESA)";"AV CARLOS GOMES, 1286/203"
"-30.0097852";"-51.1519253";"street_address";"Av. Assis Brasil, 3532 - Jardim Lindoia, Porto Alegre - RS, Brazil";67;"AGENCIA DE LOCACAO DE AUTOMOVEIS";"AV ASSIS BRASIL, 3532/312"
"-30.0460231";"-51.2234399";"street_address";"Rua Mucio Teixeira, 164 - Menino Deus, Porto Alegre - RS, 90050-360, Brazil";68;"FOTOCOPIAS, COPIAS HELIOGRAFICAS E PLASTIFICACAO";"R MUCIO TEIXEIRA, 164/7"
"-30.0060083";"-51.2045082";"street_address";"Av. Maranh„o, 18 - S„o Geraldo, Porto Alegre - RS, 90230-040, Brazil";69;"HOTEIS";"AV MARANHAO, 18"
"-30.0217249";"-51.1828869";"street_address";"Av. PlÌnio Brasil Milano, 805 - HigienÛpolis, Porto Alegre - RS, 90520-002, Brazil";70;"ESCRITORIO DE CORRETAGEM DE SEGUROS";"AV PLINIO BRASIL MILANO, 805/302"
"-30.1362283";"-51.2226679";"street_address";"Av. Juca Batista, 231 - Cavalhada, Porto Alegre - RS, Brazil";71;"REPRESENTACAO COMERCIAL (INTERMEDIARIOS DE VENDAS DE MERCADORIAS A";"AV JUCA BATISTA, 231/301"
"-30.0457055";"-51.2284675";"street_address";"R. Dra. Rita Lobato, 191 - Praia de Belas, Porto Alegre - RS, 90110-040, Brazil";72;"REPRESENTACAO COMERCIAL (INTERMEDIARIOS DE VENDAS DE MERCADORIAS A";"R DRA RITA LOBATO, 191/304"
"-30.1089798";"-51.2501328";"street_address";"Av. Otto Niemeyer, 855 - Tristeza, Porto Alegre - RS, 91910-001, Brazil";73;"SERVICO DE ENGENHARIA, ARQUITETURA, URBANISMO, PAISAGISMO, AGRONOM";"AV OTTO NIEMEYER, 855"
"-30.0132217";"-51.1949483";"street_address";"Av. S„o Pedro, 1469 - S„o Geraldo, Porto Alegre - RS, 90230-122, Brazil";74;"TELE-ENTREGA - NAO PAGA";"AV SAO PEDRO, 1469"
"-30.0388658";"-51.2239192";"street_address";"R. da Rep˙blica, 435 - Cidade Baixa, Porto Alegre - RS, 90050-320, Brazil";75;"ESCRITORIO DE SERVICOS JURIDICOS";"R REPUBLICA, 435/202"
"-30.017982";"-51.1911853";"street_address";"Av. CristÛv„o Colombo, 2937 - Floresta, Porto Alegre - RS, Brazil";76;"ESCRITORIO DE SERVICOS JURIDICOS";"AV CRISTOVAO COLOMBO, 2937/306"
"-30.2138782";"-51.1777106";"premise";"R. Ol·vio JosÈ de Souza, 40 - BelÈm Novo, Porto Alegre - RS, 91780-470, Brazil";77;"OFICINA-SERRALHERIA";"R OLAVIO JOSE DE SOUZA, 40"
"-30.135256";"-51.2276315";"street_address";"Av. TramandaÌ, 622 - Ipanema, Porto Alegre - RS, 91760-050, Brazil";78;"REPRESENTACAO COMERCIAL (INTERMEDIARIOS DE VENDAS DE MERCADORIAS A";"AV TRAMANDAI, 622"
"-30.0338326";"-51.1777811";"street_address";"Av. Carlos Gomes, 1492 - Auxiliadora, Porto Alegre - RS, 90480-001, Brazil";79;"AGENCIA DE VIAGENS E TURISMO";"AV CARLOS GOMES, 1492/1711"
"-30.0101116";"-51.1539477";"street_address";"Av. Assis Brasil, 3316 - Jardim Lindoia, Porto Alegre - RS, 91010-004, Brazil";80;"ESCRITORIO DE CORRETAGEM DE IMOVEIS";"AV ASSIS BRASIL, 3316/601"
"-30.0234486";"-51.2014347";"establishment";"R. Ol·vo Barreto Viana, 18 - Moinhos de Vento, Porto Alegre - RS, 90570-070, Brazil";81;"HOTEIS";"R OLAVO BARRETO VIANA, 18"
"-30.0234486";"-51.2014347";"establishment";"R. Ol·vo Barreto Viana, 18 - Moinhos de Vento, Porto Alegre - RS, 90570-070, Brazil";82;"GARAGEM E ESTACIONAMENTO PARA VEICULOS, EXCETO OS DE CARGA OU COLE";"R OLAVO BARRETO VIANA, 18"
"-30.0102472";"-51.2033514";"street_address";"Av. S„o Pedro, 601 - S„o Geraldo, Porto Alegre - RS, 90230-120, Brazil";83;"ESCRITORIO DE CONTABILIDADE";"AV SAO PEDRO, 601"
"-30.027061";"-51.195043";"street_address";"Av. Cel. Lucas de Oliveira, 505 - PetrÛpolis, Porto Alegre - RS, Brazil";84;"CLINICA MEDICA SEM CALDEIRA";"AV CEL LUCAS DE OLIVEIRA, 505/303"
"-30.0417447";"-51.1973723";"street_address";"R. Dona EugÍnia, 791 - Santa Cecilia, Porto Alegre - RS, 90630-150, Brazil";85;"CONSULTORIO VETERINARIO";"R DONA EUGENIA, 791"
"-30.0389753";"-51.1630035";"street_address";"R. Matias JosÈ Bins, 1268 - Vila Jardim, Porto Alegre - RS, 91330-291, Brazil";86;"LABORATORIO DE ANALISES CLINICAS";"R MATIAS JOSE BINS, 1268"
"-30.0578057";"-51.2205979";"street_address";"R. Saldanha Marinho, 196 - Menino Deus, Porto Alegre - RS, Brazil";87;"SALAO DE BELEZA PARA ANIMAIS";"R SALDANHA MARINHO, 196"
"-30.059314";"-51.1790525";"street_address";"Av. Ipiranga, 6111 - Jardim Carvalho, Porto Alegre - RS, 90160-092, Brazil";88;"REPARACAO, INSTALACAO E MANUTENCAO DE EQUIPAMENTOSDE SEGURANCA E A";"AV IPIRANGA, 6111"
"-30.02181";"-51.200068";"establishment";"R. Dr. TimÛteo, 739 - Moinhos de Vento, Porto Alegre - RS, 90570-041, Brazil";89;"GARAGEM E ESTACIONAMENTO PARA VEICULOS, EXCETO OS DE CARGA OU COLE";"R DR TIMOTEO, 862"
"-30.060686";"-51.2262379";"street_address";"R. Dona Augusta, 60 - Menino Deus, Porto Alegre - RS, 90850-130, Brazil";90;"INSTITUICAO DE EDUCACAO INFANTIL (CRECHE)";"R DONA AUGUSTA, 60"
"-30.0429952";"-51.1815587";"street_address";"Av. Prot·sio Alves, 2754 - PetrÛpolis, Porto Alegre - RS, 90410-001, Brazil";91;"LABORATORIO DE ANALISES CLINICAS";"AV PROTASIO ALVES, 2754"
"-30.0367935";"-51.223586";"street_address";"R. Gen. Lima e Silva, 335 - Centro HistÛrico, Porto Alegre - RS, 90050-101, Brazil";92;"SALAO DE BELEZA";"R GEN LIMA E SILVA, 335"
"-30.0352843";"-51.2252382";"street_address";"R. Gen. Lima e Silva, 118 - Centro HistÛrico, Porto Alegre - RS, Brazil";93;"SALAO DE BELEZA";"R GEN LIMA E SILVA, 118/1"
"-30.0260309";"-51.1931529";"premise";"Av. Mariland, 1270 - S„o Jo„o, Porto Alegre - RS, 90440-190, Brazil";94;"SALAO DE BELEZA";"AV MARILAND, 1270"
"-30.0290601";"-51.2036229";"street_address";"R. Mostardeiro, 333 - Rio Branco, Porto Alegre - RS, Brazil";95;"CONSULTORIO DE PSICOLOGIA";"R MOSTARDEIRO, 333/613"
"-30.034802";"-51.2340127";"street_address";"R. Cel. Fernando Machado, 380 - Centro HistÛrico, Porto Alegre - RS, 90010-320, Brazil";96;"SALAO DE BELEZA";"R CEL FERNANDO MACHADO, 380"
"-30.018311";"-51.2027531";"street_address";"Av. CristÛv„o Colombo, 1789 - Floresta, Porto Alegre - RS, 90560-004, Brazil";97;"CONSULTORIO ODONTOLOGICO";"AV CRISTOVAO COLOMBO, 1789/403"
"-30.0570644";"-51.2250044";"premise";"Rua Mucio Teixeira, 1492 - Menino Deus, Porto Alegre - RS, 90150-090, Brazil";98;"CONSULTORIO DE FISIOTERAPIA";"R MUCIO TEIXEIRA, 1492"
"-30.1040411";"-51.2297057";"street_address";"Av. da Cavalhada, 3164 - Cavalhada, Porto Alegre - RS, 91740-000, Brazil";99;"SALAO DE BELEZA";"AV CAVALHADA, 3164/101"
"-30.017053";"-51.202469";"street_address";"R. FÈlix da Cunha, 460 - Floresta, Porto Alegre - RS, 90570-000, Brazil";100;"SERVICO DE MASSAGEM (MASSAGISTAS, MASSAGEM ESTETI-CA, TERAPEUTICA";"R FELIX DA CUNHA, 460"
"-30.0107744";"-51.200961";"street_address";"Av. S„o Pedro, 844 - S„o Geraldo, Porto Alegre - RS, 90230-122, Brazil";101;"CENTRAL DE SERVICOS DE APOIO AS EMPRESAS";"AV SAO PEDRO, 844/503"
"-30.1077306";"-51.2535685";"street_address";"Av. Wenceslau Escobar, 2200 - Vila ConceiÁ„o, Porto Alegre - RS, 91900-001, Brazil";102;"SALAO DE BELEZA";"AV WENCESLAU ESCOBAR, 2200"
"-30.0429608";"-51.1833262";"street_address";"Av. CaÁapava, 271 - PetrÛpolis, Porto Alegre - RS, 90460-130, Brazil";103;"SALAO DE BELEZA";"AV CACAPAVA, 271"
"-30.0401326";"-51.2154611";"street_address";"Travessa da Paz, 55 - Farroupilha, Porto Alegre - RS, 90040-110, Brazil";104;"SALAO DE BELEZA PARA ANIMAIS";"TRAV PAZ, 55"
"-30.0269994";"-51.1821923";"street_address";"Av. Carlos Gomes, 565 - Bela Vista, Porto Alegre - RS, 90480-003, Brazil";105;"SALAO DE BELEZA";"AV CARLOS GOMES, 565"
"-30.0434121";"-51.1820029";"street_address";"Av. Prot·sio Alves, 2711 - PetrÛpolis, Porto Alegre - RS, 90410-001, Brazil";106;"SALAO DE BELEZA";"AV PROTASIO ALVES, 2711"
"-30.0328584";"-51.1779499";"street_address";"Av. Soledade, 569 - PetrÛpolis, Porto Alegre - RS, Brazil";107;"CONSULTORIO MEDICO";"AV SOLEDADE, 569/903"
"-30.0853432";"-51.2461497";"street_address";"Av. Di·rio de NotÌcias, 400 - Cristal, Porto Alegre - RS, 90810-080, Brazil";108;"CONSULTORIO DE FISIOTERAPIA";"AV DIARIO DE NOTICIAS, 400"
"-30.04117";"-51.212668";"street_address";"R. Santana, 292 - Farroupilha, Porto Alegre - RS, 90040-370, Brazil";109;"CONSULTORIO DE PSICOLOGIA";"R SANTANA, 292/209"
"-30.0290601";"-51.2036229";"street_address";"R. Mostardeiro, 333 - Rio Branco, Porto Alegre - RS, Brazil";110;"CONSULTORIO MEDICO";"R MOSTARDEIRO, 333/507"
"-30.0292021";"-51.2040557";"street_address";"R. Mariante, 180 - Rio Branco, Porto Alegre - RS, 90430-180, Brazil";111;"CONSULTORIO MEDICO";"R MARIANTE, 180/202"
"-30.0625255";"-51.1767357";"street_address";"Av. Bento GonÁalves, 3949 - Partenon, Porto Alegre - RS, 90650-002, Brazil";112;"SALAO DE BELEZA";"AV BENTO GONCALVES, 3949"
"-30.1085525";"-51.2504804";"street_address";"Av. Otto Niemeyer, 856 - Tristeza, Porto Alegre - RS, 91910-001, Brazil";113;"SALAO DE BELEZA";"AV OTTO NIEMEYER, 856"
"-30.017723";"-51.1991705";"street_address";"Av. CristÛv„o Colombo, 2168 - Floresta, Porto Alegre - RS, 90560-004, Brazil";114;"CONSULTORIO ODONTOLOGICO";"AV CRISTOVAO COLOMBO, 2168/401"
"-30.0318362";"-51.1794137";"street_address";"Av. Carlos Gomes, 1200 - Auxiliadora, Porto Alegre - RS, 90480-001, Brazil";115;"CONSULTORIO ODONTOLOGICO";"AV CARLOS GOMES, 1200/804"
"-30.0370431";"-51.1742195";"street_address";"Av. Carlos Gomes, 1998 - Auxiliadora, Porto Alegre - RS, 90480-003, Brazil";116;"CONSULTORIO MEDICO";"AV CARLOS GOMES, 1998/802"
"-30.0552796";"-51.1733766";"street_address";"Av. Ipiranga, 6690 - Jardim Bot‚nico, Porto Alegre - RS, Brazil";117;"CONSULTORIO MEDICO";"AV IPIRANGA, 6690/806"
"-30.0223194";"-51.2007992";"establishment";"R. Tobias da Silva, 120 - Conjunto 603 - Moinhos de Vento, Porto Alegre - RS, 90570-020, Brazil";118;"CONSULTORIO ODONTOLOGICO";"R TOBIAS DA SILVA, 137/204"
"-30.0264238";"-51.222395";"establishment";"PraÁa Osvaldo Cruz, 15 - Centro HistÛrico, Porto Alegre - RS, 90010-130, Brazil";119;"ESCRITORIO DE SERVICOS JURIDICOS";"PCA OSVALDO CRUZ, 15/2109"
"-30.034123";"-51.1809867";"premise";"Av. Jo„o Obino, 345 - PetrÛpolis, Porto Alegre - RS, 90470-150, Brazil";120;"CONSULTORIO MEDICO";"AV JOAO OBINO, 345"
"-30.0299736";"-51.2291843";"beauty_salon";"R. dos Andradas, 1237 - Centro, Porto Alegre - RS, 90020-009, Brazil";121;"SALAO DE BELEZA";"R ANDRADAS, 1237/41"
"-29.9967714";"-51.106477";"street_address";"R. Abelino Nicolau de Almeida, 47 - Rubem Berta, Porto Alegre - RS, Brazil";122;"TELE-ENTREGAS";"R ABELINO NICOLAU DE ALMEIDA, 47"
"-30.0392861";"-51.1783719";"street_address";"Av. PirapÛ, 197 - PetrÛpolis, Porto Alegre - RS, 90470-480, Brazil";123;"SALAO DE BELEZA";"AV PIRAPO, 197"
"-30.0442016";"-51.1866022";"establishment";"R. ¡lvares Machado, 44 - PetrÛpolis, Porto Alegre - RS, Brazil";124;"CONSULTORIO MEDICO";"R ALVARES MACHADO, 44/308"
"-30.0250095";"-51.1622202";"street_address";"Av. Jo„o Wallig, 1800 - Passo d'Areia, Porto Alegre - RS, Brazil";125;"SALAO DE BELEZA";"AV JOAO WALLIG, 1800/47"
"-30.0291962";"-51.208667";"establishment";"Av. IndependÍncia, 1211 - Moinho de Vento, Porto Alegre - RS, 90035-077, Brazil";126;"SALAO DE BELEZA";"AV INDEPENDENCIA, 1211/29"
"-29.996046";"-51.129026";"street_address";"Av. Salvador Le„o, 127 - Sarandi, Porto Alegre - RS, 91130-700, Brazil";127;"EDITORACAO GRAFICA, EDICAO E IMPRESSAO DE OUTROS  PRODUTOS GRAFICO";"AV SALVADOR LEAO, 127"
"-30.0276893";"-51.1811527";"street_address";"Av. Carlos Gomes, 700 - Auxiliadora, Porto Alegre - RS, 90480-001, Brazil";128;"SERVICO DE TREINAMENTO E ADMINISTRACAO DE PESSOAL";"AV CARLOS GOMES, 700/1109"
"-30.0307109";"-51.2267736";"street_address";"Av. Sen. Salgado Filho, 86 - Centro HistÛrico, Porto Alegre - RS, 90010-221, Brazil";129;"SALAO DE BELEZA";"AV SENADOR SALGADO FILHO, 86"
"-30.0602834";"-51.2228144";"establishment";"R. JosÈ de Alencar, 868 - Menino Deus, Porto Alegre - RS, 90880-480, Brazil";130;"CONSULTORIO MEDICO";"R JOSE DE ALENCAR, 868/1001"
"-30.032753";"-51.1667017";"street_address";"Rua Gustavo Schmidt, 580 - TrÍs Figueiras, Porto Alegre - RS, 91330-360, Brazil";131;"CONSULTORIO MEDICO";"R GUSTAVO SCHMIDT, 580"
"-30.0346623";"-51.2119403";"street_address";"Av. Osvaldo Aranha, 1022 - Bom Fim, Porto Alegre - RS, Brazil";132;"CONSULTORIO MEDICO";"AV OSVALDO ARANHA, 1022/713"
"-30.106415";"-51.238055";"street_address";"R. Camaqu„, 812 - Camaqu„, Porto Alegre - RS, 91910-630, Brazil";133;"SALAO DE BELEZA";"R CAMAQUA, 812/1"
"-30.0306786";"-51.2267215";"street_address";"Av. Sen. Salgado Filho, 94 - Centro, Porto Alegre - RS, 90010-220, Brazil";134;"ESCRITORIO DE SERVICOS JURIDICOS";"AV SENADOR SALGADO FILHO, 94/501"
"-29.98351";"-51.1940153";"street_address";"R. AdÈlino Machado de Souza, 626 - Farrapos, Porto Alegre - RS, 90245-020, Brazil";135;"SALAO DE BELEZA";"R ADELINO MACHADO DE SOUZA, 626"
"-30.0290046";"-51.2262223";"street_address";"R. Vig. JosÈ In·cio, 371 - Centro HistÛrico, Porto Alegre - RS, 90020-100, Brazil";136;"SALAO DE BELEZA";"R VIGARIO JOSE IGNACIO, 371/101"
"-30.107408";"-51.2221782";"street_address";"Av. Vicente Monteggia, 1421 - Cavalhada, Porto Alegre - RS, 91740-290, Brazil";137;"SALAO DE BELEZA";"AV VICENTE MONTEGGIA, 1421"
"-30.0317272";"-51.2347274";"establishment";"R. dos Andradas, 685 - Centro, Porto Alegre - RS, 90020-003, Brazil";138;"SERVICO DE MASSAGEM (MASSAGISTAS, MASSAGEM ESTETI-CA, TERAPEUTICA";"R ANDRADAS, 1001/107"
"-30.024388";"-51.1790749";"street_address";"R. Anita Garibaldi, 1681 - Mont'Serrat, Porto Alegre - RS, 90450-001, Brazil";139;"SALAO DE BELEZA";"R ANITA GARIBALDI, 1681"
"-30.0245049";"-51.1805781";"street_address";"R. Anita Garibaldi, 1540 - Mont'Serrat, Porto Alegre - RS, 90480-200, Brazil";140;"SALAO DE BELEZA";"R ANITA GARIBALDI, 1540"
"-30.0362009";"-51.2081509";"street_address";"R. Ramiro Barcelos, 1954 - Floresta, Porto Alegre - RS, Brazil";141;"CONSULTORIO DE PSICOLOGIA";"R RAMIRO BARCELOS, 1954/408"
"-30.043669";"-51.1819267";"street_address";"Rua Caju, 28 - PetrÛpolis, Porto Alegre - RS, 90690-310, Brazil";142;"CONSULTORIO DE PSIQUIATRIA";"R CAJU, 28/1009"
"-30.0263033";"-51.2139185";"street_address";"Av. CristÛv„o Colombo, 394 - Floresta, Porto Alegre - RS, 90560-000, Brazil";143;"SALAO DE BELEZA";"AV CRISTOVAO COLOMBO, 394/1"
"-30.1104092";"-51.2294062";"street_address";"Estr. Vila Maria, 224 - Cavalhada, Porto Alegre - RS, 91920-370, Brazil";144;"SALAO DE BELEZA";"ESTR VILA MARIA, 224"
"-30.0317272";"-51.2347274";"establishment";"R. dos Andradas, 685 - Centro, Porto Alegre - RS, 90020-003, Brazil";145;"ESCRITORIO DE COBRANCA E AJUSTE DE CONTAS";"R ANDRADAS, 1001/902"
"-30.0412251";"-51.1974438";"street_address";"R. Santa CecÌlia, 1673 - Santana, Porto Alegre - RS, 90420-040, Brazil";146;"CONSULTORIO DE PSICOLOGIA";"R SANTA CECILIA, 1673/203"
"-30.0524133";"-51.2013691";"street_address";"R. S„o LuÌs, 1103 - Santana, Porto Alegre - RS, Brazil";147;"SALAO DE BELEZA";"R SAO LUIZ, 1103"
"-30.2100111";"-51.1817629";"premise";"R. Dr. CecÌlio Monza, 10921 - BelÈm Novo, Porto Alegre - RS, 91780-060, Brazil";148;"SALAO DE BELEZA";"R DR CECILIO MONZA, 10921/201"
"-30.0369741";"-51.1805022";"street_address";"Av. Lajeado, 991 - PetrÛpolis, Porto Alegre - RS, 90460-110, Brazil";149;"SALAO DE BELEZA";"AV LAGEADO, 991"
"-30.059477";"-51.2277088";"street_address";"R. JosÈ de Alencar, 386 - Menino Deus, Porto Alegre - RS, 90880-480, Brazil";150;"SALAO DE BELEZA";"R JOSE DE ALENCAR, 386/2"
"-29.9947405";"-51.1301741";"route";"Av. Assis Brasil, Porto Alegre - RS, Brazil";151;"REPRESENTACAO COMERCIAL (INTERMEDIARIOS DE VENDAS DE MERCADORIAS A";"AV ASSIS BRASIL, 2474/507"
"-30.025572";"-51.202528";"establishment";"R. Luciana de Abreu, 471 - sala 307 - Moinhos de Vento, Porto Alegre - RS, 90570-060, Brazil";152;"SALAO DE BELEZA";"R LUCIANA DE ABREU, 473"
"-30.0298722";"-51.2256283";"establishment";"R. dos Andradas, 1593 - Centro HistÛrico, Porto Alegre - RS, 90010-140, Brazil";153;"SALAO DE BELEZA";"R ANDRADAS, 529"
"-30.0411749";"-51.1541126";"establishment";"Av. Saturnino de Brito, 30 - Alto PetrÛpolis, Porto Alegre - RS, Brazil";154;"SERVICO DE MASSAGEM (MASSAGISTAS, MASSAGEM ESTETI-CA, TERAPEUTICA";"AV SATURNINO DE BRITO, 30/305"
"-30.055925";"-51.22498";"street_address";"Rua Mucio Teixeira, 1384 - Menino Deus, Porto Alegre - RS, 90150-090, Brazil";155;"SALAO DE BELEZA";"R MUCIO TEIXEIRA, 1384"
"-30.112745";"-51.25549";"street_address";"Av. Wenceslau Escobar, 2801 - Tristeza, Porto Alegre - RS, 91900-000, Brazil";156;"SALAO DE BELEZA";"AV WENCESLAU ESCOBAR, 2801"
"-30.0290926";"-51.2209474";"street_address";"R. Cel. Vicente, 605 - Centro HistÛrico, Porto Alegre - RS, 90030-041, Brazil";157;"SALAO DE BELEZA";"R CEL VICENTE, 605"
"-30.0421126";"-51.218504";"street_address";"Av. Ven‚ncio Aires, 160 - Cidade Baixa, Porto Alegre - RS, 90040-191, Brazil";158;"CONSULTORIO MEDICO";"AV VENANCIO AIRES, 160/303"
"-30.0486946";"-51.2126603";"street_address";"Rua Dr. Ramiro D'¡vila, 20 - Azenha, Porto Alegre - RS, Brazil";159;"CONSULTORIO MEDICO";"R DR RAMIRO D'AVILA, 20/404"
"-30.0842141";"-51.2466154";"premise";"Av. Di·rio de NotÌcias, 200 - Cristal, Porto Alegre - RS, 90810-080, Brazil";160;"CONSULTORIO MEDICO";"AV DIARIO DE NOTICIAS, 200"
"-30.0404811";"-51.1590276";"street_address";"Av. Gen. Barreto Viana, 23 - Ch·cara das Pedras, Porto Alegre - RS, 91330-630, Brazil";161;"SALAO DE BELEZA";"AV GEN BARRETO VIANA, 23"
"-30.0292784";"-51.2266842";"street_address";"R. Mal. Floriano Peixoto, 72 - Centro HistÛrico, Porto Alegre - RS, 90020-061, Brazil";162;"CONSULTORIO DE FISIOTERAPIA";"R MARECHAL FLORIANO PEIXOTO, 72/23"
"-30.0185175";"-51.2040033";"street_address";"Av. CristÛv„o Colombo, 1675 - Floresta, Porto Alegre - RS, 90560-004, Brazil";163;"SERVICO DE MASSAGEM (MASSAGISTAS, MASSAGEM ESTETI-CA, TERAPEUTICA";"AV CRISTOVAO COLOMBO, 1675"
"-30.0552796";"-51.1733766";"street_address";"Av. Ipiranga, 6690 - Jardim Bot‚nico, Porto Alegre - RS, Brazil";164;"CONSULTORIO MEDICO";"AV IPIRANGA, 6690/810"
"-30.0240272";"-51.2018431";"street_address";"R. Padre Chagas, 415 - Moinhos de Vento, Porto Alegre - RS, 90570-080, Brazil";165;"CONSULTORIO MEDICO";"R PADRE CHAGAS, 415/803"
"-30.0971353";"-51.2366984";"premise";"R. Cel. TimÛteo, 121 - Camaqu„, Porto Alegre - RS, 91910-680, Brazil";166;"CONSULTORIO VETERINARIO";"R CEL TIMOTEO, 121"
"-30.0971353";"-51.2366984";"premise";"R. Cel. TimÛteo, 121 - Camaqu„, Porto Alegre - RS, 91910-680, Brazil";167;"CONSULTORIO VETERINARIO";"R CEL TIMOTEO, 121"
"-30.0220512";"-51.1900285";"street_address";"R. Germano Petersen J˙nior, 629 - HigienÛpolis, Porto Alegre - RS, 90540-140, Brazil";168;"CONSULTORIO MEDICO";"R GERMANO PETERSEN JUNIOR, 629"
"-30.0403114";"-51.2118076";"street_address";"R. Olavo Bilac, 805 - Azenha, Porto Alegre - RS, 90040-310, Brazil";169;"CONSULTORIO MEDICO";"R OLAVO BILAC, 805/33"
"-30.0250095";"-51.1622202";"street_address";"Av. Jo„o Wallig, 1800 - Passo d'Areia, Porto Alegre - RS, Brazil";170;"SALAO DE BELEZA";"AV JOAO WALLIG, 1800/1263"
"-30.0259435";"-51.2042914";"beauty_salon";"R. Padre Chagas, 75 - Moinhos de Vento, Porto Alegre - RS, 90570-080, Brazil";171;"SALAO DE BELEZA";"R PADRE CHAGAS, 75"
"-30.0292409";"-51.2258159";"street_address";"R. Vig. JosÈ In·cio, 399 - Centro HistÛrico, Porto Alegre - RS, 90020-110, Brazil";172;"CONSULTORIO DE FISIOTERAPIA";"R VIGARIO JOSE IGNACIO, 399/406"
"-30.0302561";"-51.2038247";"street_address";"R. Mariante, 288 - Rio Branco, Porto Alegre - RS, 90430-180, Brazil";173;"CONSULTORIO MEDICO";"R MARIANTE, 288/706"
"-30.0315075";"-51.227155";"street_address";"R. Riachuelo, 1450 - Centro HistÛrico, Porto Alegre - RS, 90010-273, Brazil";174;"ESCRITORIO ADMINISTRATIVO (SEDE ADMINISTRATIVA DE EMPRESA)";"R RIACHUELO, 1450/44"
"-30.0550771";"-51.2153198";"street_address";"R. Botafogo, 1430 - Menino Deus, Porto Alegre - RS, 90150-051, Brazil";175;"OFICINA DE ASSISTENCIA TECNICA";"R BOTAFOGO, 1430"
"-30.0394297";"-51.2237626";"street_address";"R. JosÈ do PatrocÌnio, 489 - Cidade Baixa, Porto Alegre - RS, 90050-001, Brazil";176;"LOCACAO DE FITAS DE VIDEO";"R JOSE DO PATROCINIO, 489"
"-30.0033061";"-51.0939543";"street_address";"Rua Tarcila Mor·es Dutra, 302 - Rubem Berta, Porto Alegre - RS, 91170-170, Brazil";177;"SALAO DE BELEZA";"R TARCILA MORAES DUTRA, 302"
"-30.0407523";"-51.1599659";"street_address";"Av. Prot·sio Alves, 5161 - Alto PetrÛpolis, Porto Alegre - RS, Brazil";178;"EDITORACAO GRAFICA, EDICAO E IMPRESSAO DE OUTROS  PRODUTOS GRAFICO";"AV PROTASIO ALVES, 5161/204"
"-30.0250268";"-51.2032163";"street_address";"R. Padre Chagas, 247 - Moinhos de Vento, Porto Alegre - RS, 90570-080, Brazil";179;"CONSULTORIO MEDICO";"R PADRE CHAGAS, 247/403"
"-30.0220611";"-51.191774";"street_address";"R. 24 de Outubro, 1681 - Auxiliadora, Porto Alegre - RS, Brazil";180;"CONSULTORIO DE PSICOLOGIA";"R VINTE QUATRO DE OUTUBRO, 1681/204"
"-30.021833";"-51.1625768";"street_address";"Av. T˙lio de Rose, 80 - Passo d'Areia, Porto Alegre - RS, Brazil";181;"SALAO DE BELEZA";"AV TULIO DE ROSE, 80/323"
"-30.0647574";"-51.2064625";"street_address";"R. Osc·r Schneider, 558 - Medianeira, Porto Alegre - RS, 90880-410, Brazil";182;"OFICINA DE LAVAGEM";"R OSCAR SCHNEIDER, 558"
"-30.0525488";"-51.2224894";"street_address";"Av. Get˙lio Vargas, 901 - Menino Deus, Porto Alegre - RS, 90150-001, Brazil";183;"CONSULTORIO MEDICO";"AV GETULIO VARGAS, 901/1303"
"-30.029055";"-51.2055621";"street_address";"R. Mostardeiro, 157 - IndependÍncia, Porto Alegre - RS, Brazil";184;"CONSULTORIO MEDICO";"R MOSTARDEIRO, 157/1207"
"-30.084181";"-51.2242163";"street_address";"R. Dona OtÌlia, 3871 - Nonoai, Porto Alegre - RS, Brazil";185;"CONSULTORIO ODONTOLOGICO";"R DONA OTILIA, 3871/5"
"-30.0293433";"-51.202027";"street_address";"Rua Dona Laura, 354 - Rio Branco, Porto Alegre - RS, 90430-090, Brazil";186;"CONSULTORIO MEDICO";"R DONA LAURA, 354/401"
"-30.0261953";"-51.2013983";"street_address";"R. Comendador Caminha, 312 - Moinhos de Vento, Porto Alegre - RS, 90430-030, Brazil";187;"CONSULTORIO DE TERAPIAS ALTERNATIVAS";"R COMENDADOR CAMINHA, 312/605"
"-30.0292485";"-51.2206912";"street_address";"Av. IndependÍncia, 102 - Centro, Porto Alegre - RS, 90035-070, Brazil";188;"SALAO DE BELEZA";"AV INDEPENDENCIA, 102"
"-30.0290046";"-51.2262223";"street_address";"R. Vig. JosÈ In·cio, 371 - Centro HistÛrico, Porto Alegre - RS, 90020-100, Brazil";189;"ESCRITORIO DE SERVICOS JURIDICOS";"R VIGARIO JOSE IGNACIO, 371/304"
"-30.0105925";"-51.1935456";"street_address";"R. Ernesto Fontoura, 1479 - S„o Geraldo, Porto Alegre - RS, 90230-091, Brazil";190;"PROCESSAMENTO DE DADOS";"R ERNESTO FONTOURA, 1479/403"
"-30.007399";"-51.1884824";"street_address";"Av. Benjamin Constant, 260 - S„o Jo„o, Porto Alegre - RS, 90550-003, Brazil";191;"SALAO DE BELEZA";"AV BENJAMIN CONSTANT, 260"
"-30.0307628";"-51.1968848";"street_address";"R. Quintino Bocai˙va, 1410 - Floresta, Porto Alegre - RS, Brazil";192;"CONSULTORIO DE PSICOLOGIA";"R QUINTINO BOCAIUVA, 1410"
"-30.0304216";"-51.2288667";"street_address";"R. Gen. Andrade Neves, 100 - Centro HistÛrico, Porto Alegre - RS, Brazil";193;"CONSULTORIO DE TERAPIAS ALTERNATIVAS";"R GEN ANDRADE NEVES, 100/1005"
"-30.0291143";"-51.2170119";"street_address";"Av. IndependÍncia, 434 - IndependÍncia, Porto Alegre - RS, 90035-071, Brazil";194;"SALAO DE BELEZA";"AV INDEPENDENCIA, 434"
"-30.0171854";"-51.1814395";"street_address";"Av. CristÛv„o Colombo, 3829 - HigienÛpolis, Porto Alegre - RS, 90560-002, Brazil";195;"CLINICA VETERINARIA SEM ALOJAMENTO";"AV CRISTOVAO COLOMBO, 3829"
"-29.9810345";"-51.1300975";"street_address";"Av. Souza Melo, 538 - Sarandi, Porto Alegre - RS, 91120-600, Brazil";196;"TELE-ENTREGA - NAO PAGA";"AV SOUZA MELO, 538"
"-30.0277852";"-51.2300915";"street_address";"R. Siqueira Campos, 1184 - Centro, Porto Alegre - RS, 90010-001, Brazil";197;"ESCRITORIO DE PROMOCOES";"R SIQUEIRA CAMPOS, 1184/512"
"-30.0273615";"-51.2294131";"establishment";"R. Uruguai, 45 - Centro HistÛrico, Porto Alegre - RS, 90010-000, Brazil";198;"ESCRITORIO DE SERVICOS JURIDICOS";"R URUGUAI, 335/53"
"-30.1084817";"-51.2552864";"premise";"R. Pedro de Oliveira Bitencourt, 64 - Tristeza, Porto Alegre - RS, 91900-230, Brazil";199;"CLINICA ESTETICA";"R PEDRO DE OLIVEIRA BITTENCOURT, 64"
"-30.044069";"-51.169521";"street_address";"R. S„o Sim„o, 328 - Bom Jesus, Porto Alegre - RS, 91420-560, Brazil";200;"ESCRITORIO DE VENDAS (PRODUTOS PROPRIOS SEM INTERMDIACAO DE TERCEI";"R SAO SIMAO, 328"
"-30.0262208";"-51.212016";"street_address";"Av. CristÛv„o Colombo, 545 - Floresta, Porto Alegre - RS, 90560-003, Brazil";201;"SALAO DE BELEZA";"AV CRISTOVAO COLOMBO, 545/2019"
"-30.0104202";"-51.1712812";"establishment";"R. Sport Club S„o JosÈ, 67 - Passo d'Areia, Porto Alegre - RS, Brazil";202;"CONSULTORIO DE PSICOLOGIA";"R SPORT CLUB SAO JOSE, 67/301"
"-30.029678";"-51.2293383";"establishment";"R. dos Andradas, 1234 - Centro HistÛrico, Porto Alegre - RS, 90010-000, Brazil";203;"ESCRITORIO DE ADMINISTRACAO (SERVIçO DE ASSESSORIAADMINISTRATIVA)";"R ANDRADAS, 1464/143"
"-30.041457";"-51.1826848";"street_address";"Av. Taquara, 586 - PetrÛpolis, Porto Alegre - RS, 90460-210, Brazil";204;"CONSULTORIO DE PSICOLOGIA";"AV TAQUARA, 586/501"
"-30.0289161";"-51.2040906";"street_address";"R. Mostardeiro, 291 - IndependÍncia, Porto Alegre - RS, Brazil";205;"CONSULTORIO DE PSICOLOGIA";"R MOSTARDEIRO, 291/206"
"-30.0428302";"-51.1860464";"street_address";"Av. Taquara, 193 - PetrÛpolis, Porto Alegre - RS, 90460-210, Brazil";206;"CONSULTORIO MEDICO";"AV TAQUARA, 193/202"
"-30.0502058";"-51.2155479";"street_address";"R. MarcÌlio Dias, 1358 - Menino Deus, Porto Alegre - RS, 90130-000, Brazil";207;"OFICINA DE REPARACAO E MANUTENCAO DE ELETRODOMES- TICOS";"R MARCILIO DIAS, 1358"
"-30.0296223";"-51.2269603";"street_address";"R. Mal. Floriano Peixoto, 91 - Centro HistÛrico, Porto Alegre - RS, 90020-061, Brazil";208;"CONSULTORIO ODONTOLOGICO";"R MARECHAL FLORIANO PEIXOTO, 91/608"
"-30.0593418";"-51.2270363";"street_address";"R. ItororÛ, 211 - Menino Deus, Porto Alegre - RS, 90110-290, Brazil";209;"CONSULTORIO MEDICO";"R ITORORO, 211/507"
"-30.0292928";"-51.1999314";"street_address";"Rua Dona Laura, 556 - Rio Branco, Porto Alegre - RS, 90430-091, Brazil";210;"CLINICA DE FISIOTERAPIA";"R DONA LAURA, 556"
"-30.0241288";"-51.1866251";"street_address";"Rua Eudoro Berlink, 1083 - Auxiliadora, Porto Alegre - RS, 90450-030, Brazil";211;"SALAO DE BELEZA";"R EUDORO BERLINK, 1083"
"-30.0852056";"-51.2456904";"street_address";"Av. Di·rio de NotÌcias, 300 - Cristal, Porto Alegre - RS, Brazil";212;"SALAO DE BELEZA";"AV DIARIO DE NOTICIAS, 300/1049"
"-30.042744";"-51.187157";"street_address";"Av. Taquara, 110 - PetrÛpolis, Porto Alegre - RS, 90460-210, Brazil";213;"PROFISSIONAL LIBERAL,TECNICO E UNIVERSITARIO";"AV TAQUARA, 110/204"
"-30.0395303";"-51.2200976";"street_address";"R. Gen. Lima e Silva, 777 - Centro HistÛrico, Porto Alegre - RS, 90050-120, Brazil";214;"SALAO DE BELEZA";"R GEN LIMA E SILVA, 777/2"
"-30.0820332";"-51.2288857";"street_address";"R. Cruzeiro do Sul, 2440 - Santa Tereza, Porto Alegre - RS, Brazil";215;"SALAO DE BELEZA";"R CRUZEIRO DO SUL, 2440/16"
"-30.0206568";"-51.1638219";"street_address";"Av. Jo„o Wallig, 904 - Passo d'Areia, Porto Alegre - RS, 91340-001, Brazil";216;"SALAO DE BELEZA";"AV JOAO WALLIG, 904/202"
"-29.9947405";"-51.1301741";"route";"Av. Assis Brasil, Porto Alegre - RS, Brazil";217;"CONSULTORIO ODONTOLOGICO";"AV ASSIS BRASIL, 2474/513"
"-30.0301236";"-51.1858233";"street_address";"R. Comendador Rheingantz, 880 - Mont'Serrat, Porto Alegre - RS, 90450-020, Brazil";218;"PERSONAL TRAINER";"R COMENDADOR RHEINGANTZ, 880"
"-29.9881651";"-51.108577";"route";"R. JosÈ Ferreira Jardim - Sarandi, Porto Alegre - RS, Brazil";219;"SALAO DE BELEZA";"R JOSE FERREIRA JARDIM, 297"
"-30.0240579";"-51.1982308";"doctor";"R. Quintino Bocai˙va, 673 - Floresta, Porto Alegre - RS, 90440-050, Brazil";220;"CONSULTORIO MEDICO";"R QUINTINO BOCAIUVA, 673"
"-30.0272442";"-51.1976164";"street_address";"R. Quintino Bocai˙va, 1035 - Floresta, Porto Alegre - RS, 90440-051, Brazil";221;"CONSULTORIO MEDICO";"R QUINTINO BOCAIUVA, 1035/201"
"-30.0254236";"-51.1831659";"street_address";"Av. Carlos Gomes, 403 - Auxiliadora, Porto Alegre - RS, Brazil";222;"CONSULTORIO MEDICO";"AV CARLOS GOMES, 403/608"
"-30.0229514";"-51.1919375";"street_address";"R. Felipe Neri, 366 - Auxiliadora, Porto Alegre - RS, 90440-150, Brazil";223;"CONSULTORIO DE PSICOLOGIA";"R FELIPE NERI, 366/403"
"-30.026502";"-51.220022";"street_address";"R. Volunt·rios da P·tria, 650 - Centro HistÛrico, Porto Alegre - RS, 90030-001, Brazil";224;"OFICINA DE REPARACAO DE APARELHOS ELETRONICOS";"R VOLUNTARIOS DA PATRIA, 650/22"
"-30.0289933";"-51.2031926";"street_address";"R. Dr. FlorÍncio Ygartua, 271 - Moinhos de Vento, Porto Alegre - RS, Brazil";225;"CONSULTORIO DE FISIOTERAPIA";"R DR FLORENCIO YGARTUA, 271/401"
"-30.0262208";"-51.212016";"street_address";"Av. CristÛv„o Colombo, 545 - Floresta, Porto Alegre - RS, 90560-003, Brazil";226;"SALAO DE BELEZA";"AV CRISTOVAO COLOMBO, 545/1053"
"-30.0289199";"-51.2256121";"street_address";"R. Vig. JosÈ In·cio, 368 - Centro HistÛrico, Porto Alegre - RS, 90020-110, Brazil";227;"CONSULTORIO MEDICO";"R VIGARIO JOSE IGNACIO, 368/201"
"-30.028389";"-51.2062381";"street_address";"R. 24 de Outubro, 111 - IndependÍncia, Porto Alegre - RS, 90510-002, Brazil";228;"CONSULTORIO MEDICO";"R VINTE QUATRO DE OUTUBRO, 111/805"
"-30.0341534";"-51.2125749";"street_address";"Rua General Jo„o Telles, 524 - Bom Fim, Porto Alegre - RS, 90035-120, Brazil";229;"CONSULTORIO MEDICO";"R GEN JOAO TELLES, 524/408"
"-30.0290601";"-51.2036229";"street_address";"R. Mostardeiro, 333 - Rio Branco, Porto Alegre - RS, Brazil";230;"CONSULTORIO DE PSICOLOGIA";"R MOSTARDEIRO, 333/616"
"-30.042386";"-51.2172925";"street_address";"R. Gen. Lima e Silva, 1184 - Centro HistÛrico, Porto Alegre - RS, 90050-101, Brazil";231;"CONSULTORIO DE PSICOLOGIA";"R GEN LIMA E SILVA, 1184/202"
"-30.02736";"-51.203174";"establishment";"R. Dr. FlorÍncio Ygartua, 65 - Loja 22 - Moinhos de Vento, Porto Alegre - RS, 90430-010, Brazil";232;"SERVICO DE MASSAGEM (MASSAGISTAS, MASSAGEM ESTETI-CA, TERAPEUTICA";"R DR FLORENCIO YGARTUA, 65/9"
"-29.996645";"-51.125826";"street_address";"R. AbaetÈ, 420 - Sarandi, Porto Alegre - RS, 91130-490, Brazil";233;"SALAO DE BELEZA";"R ABAETE, 420"
"-29.994614";"-51.131489";"street_address";"R. Xavier de Carvalho, 118 - Sarandi, Porto Alegre - RS, 91110-440, Brazil";234;"SALAO DE BELEZA";"R XAVIER DE CARVALHO, 118"
"-30.0400657";"-51.2207358";"street_address";"R. Alberto TÙrres, 97 - Cidade Baixa, Porto Alegre - RS, 90050-080, Brazil";235;"ESCRITORIO DE SERVICOS DE CONSULTORIA";"R ALBERTO TORRES, 97"
"-30.0369741";"-51.1805022";"street_address";"Av. Lajeado, 991 - PetrÛpolis, Porto Alegre - RS, 90460-110, Brazil";236;"SALAO DE BELEZA";"AV LAGEADO, 991"
"-30.0121865";"-51.1673994";"street_address";"Av. Assis Brasil, 2005 - Passo d'Areia, Porto Alegre - RS, Brazil";237;"OFICINA DE REPARACAO DE JOIAS E RELOGIOS";"AV ASSIS BRASIL, 2005/11"
"-30.0192607";"-51.1817378";"street_address";"R. Cel. FeijÛ, 1159 - S„o Jo„o, Porto Alegre - RS, 90520-060, Brazil";238;"SALAO DE BELEZA";"R CEL FEIJO, 1159"
"-30.0170703";"-51.1230433";"route";"Tv. Chateaubriand - Passo das Pedras, Porto Alegre - RS, Brazil";239;"SERVICO DE TELE-RECADOS";"TRAV CHATEAUBRIAND, 119"
"-30.0290601";"-51.2036229";"street_address";"R. Mostardeiro, 333 - Rio Branco, Porto Alegre - RS, Brazil";240;"CONSULTORIO MEDICO";"R MOSTARDEIRO, 333/214"
"-30.0255639";"-51.2083465";"street_address";"R. Ramiro Barcelos, 910 - Floresta, Porto Alegre - RS, Brazil";241;"CONSULTORIO MEDICO";"R RAMIRO BARCELOS, 910/1002"
"-30.029678";"-51.2293383";"establishment";"R. dos Andradas, 1234 - Centro HistÛrico, Porto Alegre - RS, 90010-000, Brazil";242;"CONSULTORIO ODONTOLOGICO";"R ANDRADAS, 1519/84"
"-30.0299416";"-51.1916001";"premise";"R. Dr. Freire Alem„o, 889 - Mont'Serrat, Porto Alegre - RS, 90450-060, Brazil";243;"SALAO DE BELEZA";"R DR FREIRE ALEMAO, 889"
"-30.0312179";"-51.2111037";"street_address";"Rua Fernandes Vieira, 203 - Bom Fim, Porto Alegre - RS, 90035-091, Brazil";244;"CONSULTORIO MEDICO";"R FERNANDES VIEIRA, 203/304"
"-30.1358033";"-51.2163396";"route";"Av. Saul Nonnenmacher - Campo Novo, Porto Alegre - RS, Brazil";245;"CONSULTORIO DE FISIOTERAPIA";"AV SAUL NONNENMACHER, 137"
"-30.0367118";"-51.2039623";"street_address";"R. Mariante, 994 - Prot·sio Alves, Porto Alegre - RS, Brazil";246;"ESTUDIO FOTOGRAFICO";"R MARIANTE, 994"
"-29.99585";"-51.127189";"street_address";"R. AbaetÈ, 268 - Sarandi, Porto Alegre - RS, 91130-490, Brazil";247;"SALAO DE BELEZA PARA ANIMAIS";"R ABAETE, 268"
"-30.0232957";"-51.1610041";"street_address";"R. AntÙnio Carlos Berta, 475 - Passo d'Areia, Porto Alegre - RS, 91340-020, Brazil";248;"CONSULTORIO MEDICO";"R ANTONIO CARLOS BERTA, 475/1006"
"-30.0288918";"-51.2252394";"premise";"Av. Ot·vio Rocha, 135 - Centro, Porto Alegre - RS, 90020-150, Brazil";249;"SALAO DE BELEZA";"AV OTAVIO ROCHA, 135"
"-30.0237186";"-51.2005551";"street_address";"R. 24 de Outubro, 838 - Moinhos de Vento, Porto Alegre - RS, 90510-001, Brazil";250;"CONSULTORIO DE PSICOLOGIA";"R VINTE QUATRO DE OUTUBRO, 838/401"
"-30.0273286";"-51.203707";"street_address";"R. 24 de Outubro, 395 - Moinhos de Vento, Porto Alegre - RS, Brazil";251;"SERVICO DE PODOLOGIA";"R VINTE QUATRO DE OUTUBRO, 395/31"
"-30.0062468";"-51.1842183";"street_address";"Av. Assis Brasil, 164 - S„o Jo„o, Porto Alegre - RS, 91010-001, Brazil";252;"SALAO DE BELEZA";"AV ASSIS BRASIL, 164/76"
"-30.0295056";"-51.2114247";"street_address";"Av. IndependÍncia, 965 - IndependÍncia, Porto Alegre - RS, 90035-076, Brazil";253;"SALAO DE BELEZA";"AV INDEPENDENCIA, 965/301"
"-30.0357532";"-51.2085213";"street_address";"R. Ramiro Barcelos, 1893 - Rio Branco, Porto Alegre - RS, 90035-191, Brazil";254;"SALAO DE BELEZA";"R RAMIRO BARCELOS, 1893"
"-30.0260994";"-51.1970951";"beauty_salon";"52 R. Ten. Cel. FabrÌcio Pilar - Moinhos de Vento, Porto Alegre - RS, 90450-040, Brazil";255;"SALAO DE BELEZA";"R TEN CEL FABRICIO PILAR, 52"
"-30.0251994";"-51.2148422";"street_address";"R. Ernesto Alves, 223 - Floresta, Porto Alegre - RS, 90220-190, Brazil";256;"ESCOLA ESPECIAL";"R ERNESTO ALVES, 223"
"-30.0239651";"-51.1969999";"street_address";"R. Cel. Bordini, 689 - Auxiliadora, Porto Alegre - RS, 90440-001, Brazil";257;"CONSULTORIO DE PSICOLOGIA";"R CEL BORDINI, 689/703"
"-30.0526472";"-51.2181069";"street_address";"Av. Erico VerÌssimo, 826 - Menino Deus, Porto Alegre - RS, 90160-180, Brazil";258;"CONSULTORIO ODONTOLOGICO";"AV ERICO VERISSIMO, 826/3"
"-30.0250095";"-51.1622202";"street_address";"Av. Jo„o Wallig, 1800 - Passo d'Areia, Porto Alegre - RS, Brazil";259;"CONSULTORIO MEDICO";"AV JOAO WALLIG, 1800"
"-30.0852056";"-51.2456904";"street_address";"Av. Di·rio de NotÌcias, 300 - Cristal, Porto Alegre - RS, Brazil";260;"SALAO DE BELEZA";"AV DIARIO DE NOTICIAS, 300/1049"
"-30.1098684";"-51.244182";"premise";"R. Dr. Pereira Neto, 823 - Tristeza, Porto Alegre - RS, 91920-530, Brazil";261;"MOTOFRETE";"R DR PEREIRA NETO, 823"
"-30.022095";"-51.1900742";"street_address";"Av. PlÌnio Brasil Milano, 80 - Auxiliadora, Porto Alegre - RS, 90510-000, Brazil";262;"CONSULTORIO MEDICO";"AV PLINIO BRASIL MILANO, 80"
"-30.028389";"-51.2062381";"street_address";"R. 24 de Outubro, 111 - IndependÍncia, Porto Alegre - RS, 90510-002, Brazil";263;"CONSULTORIO ODONTOLOGICO";"R VINTE QUATRO DE OUTUBRO, 111/906"
"-30.0296223";"-51.2269603";"street_address";"R. Mal. Floriano Peixoto, 91 - Centro HistÛrico, Porto Alegre - RS, 90020-061, Brazil";264;"CONSULTORIO ODONTOLOGICO";"R MARECHAL FLORIANO PEIXOTO, 91/210"
"-30.005794";"-51.193535";"street_address";"Av. FranÁa, 1339 - Navegantes, Porto Alegre - RS, 90230-220, Brazil";265;"OFICINA DE TROCA E COLOCACAO DE SURDINAS, MOLAS,  AMORTECEDORES E";"AV FRANCA, 1339"
"-30.0290125";"-51.2031347";"street_address";"R. Dr. FlorÍncio Ygartua, 275 - Moinhos de Vento, Porto Alegre - RS, Brazil";266;"SALAO DE BELEZA";"R DR FLORENCIO YGARTUA, 275"
"-30.0273286";"-51.203707";"street_address";"R. 24 de Outubro, 395 - Moinhos de Vento, Porto Alegre - RS, Brazil";267;"SALAO DE BELEZA";"R VINTE QUATRO DE OUTUBRO, 395/39"
"-30.0207609";"-51.1914053";"street_address";"R. Auxiliadora, 161 - Auxiliadora, Porto Alegre - RS, 90540-120, Brazil";268;"CONSULTORIO ODONTOLOGICO";"R AUXILIADORA, 161"
"-30.0550755";"-51.1868768";"street_address";"Av. Ipiranga, 5200 - Jardim Bot‚nico, Porto Alegre - RS, 90160-001, Brazil";269;"SALAO DE BELEZA";"AV IPIRANGA, 5200/36"
"-30.0114901";"-51.1693265";"street_address";"Av. Assis Brasil, 1826 - Passo d'Areia, Porto Alegre - RS, 91010-001, Brazil";270;"SALAO DE BELEZA";"AV ASSIS BRASIL, 1826/408"
"-30.0226702";"-51.1845632";"street_address";"Av. Carlos Gomes, 53 - Auxiliadora, Porto Alegre - RS, 90480-003, Brazil";271;"CONSULTORIO ODONTOLOGICO";"AV CARLOS GOMES, 53/405"
"-30.0299736";"-51.2291843";"beauty_salon";"R. dos Andradas, 1237 - Centro, Porto Alegre - RS, 90020-009, Brazil";272;"SALAO DE BELEZA";"R ANDRADAS, 1237/41"
"-30.0250036";"-51.2034815";"cafe";"R. Padre Chagas, 220 - Moinhos de Vento, Porto Alegre - RS, 90570-080, Brazil";273;"CONSULTORIO DE PSICOLOGIA";"R PADRE CHAGAS, 185/1004"
"-30.0278891";"-51.1663412";"street_address";"Av. Dr. Nilo PeÁanha, 2590 - Boa Vista, Porto Alegre - RS, 91330-000, Brazil";274;"SALAO DE BELEZA";"AV DR NILO PECANHA, 2590"
"-30.0458439";"-51.213433";"street_address";"Av. Jo„o Pessoa, 1831 - Azenha, Porto Alegre - RS, Brazil";275;"SALAO DE BELEZA";"AV JOAO PESSOA, 1831/215"
"-30.0231753";"-51.1911419";"street_address";"R. Felipe Neri, 447 - Auxiliadora, Porto Alegre - RS, 90440-150, Brazil";276;"CONSULTORIO DE PSICOLOGIA";"R FELIPE NERI, 447/406"
"-30.048814";"-51.208663";"street_address";"Av. Princesa Isabel, 395 - Santana, Porto Alegre - RS, 90620-001, Brazil";277;"CONSULTORIO DE PSICOLOGIA";"AV PRINCESA ISABEL, 395"
"-30.0263411";"-51.2222615";"establishment";"PraÁa Osvaldo Cruz, 15 - conj. 2806 - Centro HistÛrico, Porto Alegre - RS, 90245-470, Brazil";278;"ESCRITORIO DE CORRETAGEM DE SEGUROS";"PCA OSVALDO CRUZ, 10"
"-30.20986";"-51.195243";"street_address";"R. Alfredo In·cio da Silveira, 338 - BelÈm Novo, Porto Alegre - RS, 91780-140, Brazil";279;"AGENCIA DE LOCACAO DE VEICULOS";"R ALFREDO INACIO DA SILVEIRA, 338"
"-30.1361116";"-51.2227945";"street_address";"Av. Juca Batista, 211 - Cavalhada, Porto Alegre - RS, Brazil";280;"CONSULTORIO VETERINARIO SEM ALOJAMENTO";"AV JUCA BATISTA, 211"
"-30.0288528";"-51.2243987";"street_address";"Rua Doutor Flores, 190 - Centro HistÛrico, Porto Alegre - RS, 90020-121, Brazil";281;"SALAO DE BELEZA";"R DR FLORES, 190/25"
"-30.0071062";"-51.148432";"premise";"R. Bogot·, 345 - Jardim Lindoia, Porto Alegre - RS, Brazil";282;"SALAO DE BELEZA";"AV BOGOTA, 345"
"-30.0292896";"-51.2198054";"street_address";"Av. IndependÍncia, 172 - IndependÍncia, Porto Alegre - RS, 90035-072, Brazil";283;"CONSULTORIO DE PSICOLOGIA";"AV INDEPENDENCIA, 172/403"
"-30.0250268";"-51.2032163";"street_address";"R. Padre Chagas, 247 - Moinhos de Vento, Porto Alegre - RS, 90570-080, Brazil";284;"CONSULTORIO MEDICO";"R PADRE CHAGAS, 247/403"
"-30.0574986";"-51.2292701";"street_address";"Av. Praia de Belas, 2124 - Praia de Belas, Porto Alegre - RS, Brazil";285;"CONSULTORIO MEDICO";"AV PRAIA DE BELAS, 2124/905"
"-30.0291962";"-51.208667";"establishment";"Av. IndependÍncia, 1211 - Moinho de Vento, Porto Alegre - RS, 90035-077, Brazil";286;"SALAO DE BELEZA";"AV INDEPENDENCIA, 1211"
"-30.1167461";"-51.2538344";"premise";"Av. Wenceslau Escobar, 3239 - Cristal, Porto Alegre - RS, Brazil";287;"CONSULTORIO MEDICO";"AV WENCESLAU ESCOBAR, 3239"
"-30.029271";"-51.201509";"street_address";"Rua Dona Laura, 414 - Rio Branco, Porto Alegre - RS, 90430-090, Brazil";288;"CONSULTORIO MEDICO";"R DONA LAURA, 414/702"
"-30.029534";"-51.2265639";"street_address";"R. Mal. Floriano Peixoto, 94 - Centro, Porto Alegre - RS, 90020-060, Brazil";289;"OFICINA DE ASSISTENCIA TECNICA";"R MARECHAL FLORIANO PEIXOTO, 94/3"
"-30.0408024";"-51.2093364";"street_address";"R. Jacinto Gomes, 363 - Santana, Porto Alegre - RS, 90040-270, Brazil";290;"CONSULTORIO DE FISIOTERAPIA";"R JACINTO GOMES, 363/1"
"-30.107527";"-51.2464829";"street_address";"Av. Otto Niemeyer, 1251 - Tristeza, Porto Alegre - RS, 91910-001, Brazil";291;"SALAO DE BELEZA";"AV OTTO NIEMEYER, 1251/1"
"-30.0550755";"-51.1868768";"street_address";"Av. Ipiranga, 5200 - Jardim Bot‚nico, Porto Alegre - RS, 90160-001, Brazil";292;"SALAO DE BELEZA";"AV IPIRANGA, 5200/302"
"-30.0365776";"-51.2104361";"street_address";"Av. JosÈ Bonif·cio, 731 - Farroupilha, Porto Alegre - RS, Brazil";293;"SERVICO DE TATUAGEM";"AV JOSE BONIFACIO, 731/2"
"-30.025024";"-51.2019617";"street_address";"R. 24 de Outubro, 650 - IndependÍncia, Porto Alegre - RS, 90510-001, Brazil";294;"CONSULTORIO MEDICO";"R VINTE QUATRO DE OUTUBRO, 650/204"
"-30.0362009";"-51.2081509";"street_address";"R. Ramiro Barcelos, 1954 - Floresta, Porto Alegre - RS, Brazil";295;"CONSULTORIO ODONTOLOGICO";"R RAMIRO BARCELOS, 1954/306"
"-30.0432471";"-51.2195669";"street_address";"Av. Ven‚ncio Aires, 11 - Cidade Baixa, Porto Alegre - RS, 90040-191, Brazil";296;"SALAO DE BELEZA";"AV VENANCIO AIRES, 11"
"-30.0599281";"-51.2180704";"street_address";"R. JosÈ de Alencar, 1352 - Menino Deus, Porto Alegre - RS, 90880-480, Brazil";297;"SALAO DE BELEZA";"R JOSE DE ALENCAR, 1352/1"
"-30.0290601";"-51.2036229";"street_address";"R. Mostardeiro, 333 - Rio Branco, Porto Alegre - RS, Brazil";298;"CONSULTORIO MEDICO";"R MOSTARDEIRO, 333/205"
"-30.0454136";"-51.1951613";"premise";"Av. Cel. Lucas de Oliveira, 2558 - PetrÛpolis, Porto Alegre - RS, 90460-000, Brazil";299;"LOCACAO DE MAO-DE-OBRA";"AV CEL LUCAS DE OLIVEIRA, 2558"
"-30.104752";"-51.230055";"street_address";"Av. da Cavalhada, 3241 - Cavalhada, Porto Alegre - RS, 91740-001, Brazil";300;"SALAO DE BELEZA";"AV CAVALHADA, 3241"
"-30.155152";"-51.1396852";"street_address";"Estrada Jo„o AntÙnio da Silveira, 1911 - Restinga, Porto Alegre - RS, 91790-400, Brazil";301;"PERSONAL TRAINER";"ESTR JOAO ANTONIO SILVEIRA, 1911/202"
"-30.0293446";"-51.2073656";"street_address";"R. Mostardeiro, 5 - IndependÍncia, Porto Alegre - RS, Brazil";302;"CONSULTORIO MEDICO";"R MOSTARDEIRO, 5/709"
"-30.042744";"-51.187157";"street_address";"Av. Taquara, 110 - PetrÛpolis, Porto Alegre - RS, 90460-210, Brazil";303;"CONSULTORIO DE PSICOLOGIA";"AV TAQUARA, 110/403"
"-30.0223194";"-51.2007992";"establishment";"R. Tobias da Silva, 120 - Conjunto 603 - Moinhos de Vento, Porto Alegre - RS, 90570-020, Brazil";304;"CONSULTORIO DE PSICOLOGIA";"R TOBIAS DA SILVA, 99/503"
"-30.0436098";"-51.1830765";"establishment";"Av. Prot·sio Alves, 2599 - PetrÛpolis, Porto Alegre - RS, 90410-003, Brazil";305;"CONSULTORIO MEDICO";"AV PROTASIO ALVES, 2599/402"
"-30.0552796";"-51.1733766";"street_address";"Av. Ipiranga, 6690 - Jardim Bot‚nico, Porto Alegre - RS, Brazil";306;"CONSULTORIO MEDICO";"AV IPIRANGA, 6690/807"
"-30.0181371";"-51.2057811";"street_address";"R. Alm. Barroso, 735 - Floresta, Porto Alegre - RS, 90220-021, Brazil";307;"CONSULTORIO ODONTOLOGICO";"R ALMIRANTE BARROSO, 735/606"
"-29.9773154";"-51.185899";"street_address";"Av. ClÛvis Paim Grivot, 257 - Humait·, Porto Alegre - RS, 90250-020, Brazil";308;"CONSULTORIO ODONTOLOGICO";"AV CLOVIS PAIM GRIVOT, 257"
"-30.0358476";"-51.2271056";"street_address";"R. Cel. GenuÌno, 220 - Centro, Porto Alegre - RS, 90010-350, Brazil";309;"SALAO DE BELEZA";"R CEL GENUINO, 220"
"-30.0470731";"-51.1834337";"street_address";"R. Felizardo Furtado, 348 - PetrÛpolis, Porto Alegre - RS, 90450-190, Brazil";310;"SALAO DE BELEZA PARA ANIMAIS";"R FELIZARDO FURTADO, 348/5"
"-30.0133899";"-51.1709172";"street_address";"Av. PlÌnio Brasil Milano, 2343 - Passo d'Areia, Porto Alegre - RS, 90520-003, Brazil";311;"SALAO DE BELEZA";"AV PLINIO BRASIL MILANO, 2343/1"
"-30.0385838";"-51.1855628";"premise";"Av. Alegrete, 460 - PetrÛpolis, Porto Alegre - RS, 90460-100, Brazil";312;"SALAO DE BELEZA";"AV ALEGRETE, 460"
"-30.0300264";"-51.2231452";"street_address";"PraÁa Dom Feliciano, 36 - Centro HistÛrico, Porto Alegre - RS, Brazil";313;"SALAO DE BELEZA";"PCA DOM FELICIANO, 36"
"-30.1087939";"-51.2413027";"street_address";"Rua Victor Silva, 229 - Camaqu„, Porto Alegre - RS, 91910-171, Brazil";314;"OFICINA DE ASSISTENCIA TECNICA";"R VICTOR SILVA, 229/5"
"-30.0155606";"-51.187996";"street_address";"R. Carlos Von Koseritz, 925 - HigienÛpolis, Porto Alegre - RS, 90540-030, Brazil";315;"SALAO DE BELEZA";"R CARLOS VON KOSERITZ, 925"
"-30.0288694";"-51.2248999";"establishment";"Rua Doutor Flores, 383 - Centro HistÛrico, Porto Alegre - RS, 90020-123, Brazil";316;"SALAO DE BELEZA";"R DR FLORES, 383/802"
"-30.0488703";"-51.1968283";"street_address";"Av. Ipiranga, 3369 - Partenon, Porto Alegre - RS, 90610-001, Brazil";317;"LOCACAO DE FITAS DE VIDEO";"AV IPIRANGA, 3369/14"
"-30.029976";"-51.204865";"street_address";"Rua Dona Laura, 87 - Rio Branco, Porto Alegre - RS, 90430-091, Brazil";318;"CONSULTORIO ODONTOLOGICO";"R DONA LAURA, 87/301"
"-30.0250095";"-51.1622202";"street_address";"Av. Jo„o Wallig, 1800 - Passo d'Areia, Porto Alegre - RS, Brazil";319;"INSTRUTOR DE IOGA";"AV JOAO WALLIG, 1800/3001"
"-30.0289933";"-51.2031926";"street_address";"R. Dr. FlorÍncio Ygartua, 271 - Moinhos de Vento, Porto Alegre - RS, Brazil";320;"CONSULTORIO DE PSICOLOGIA";"R DR FLORENCIO YGARTUA, 271/710"
"-30.1054011";"-51.2401334";"street_address";"Av. Otto Niemeyer, 1911 - Tristeza, Porto Alegre - RS, 91910-001, Brazil";321;"OFICINA DE REPARACAO DE APARELHOS ELETRONICOS";"AV OTTO NIEMEYER, 1911/7"
"-30.0262208";"-51.212016";"street_address";"Av. CristÛv„o Colombo, 545 - Floresta, Porto Alegre - RS, 90560-003, Brazil";322;"SALAO DE BELEZA";"AV CRISTOVAO COLOMBO, 545/1053"
"-30.05661";"-51.190371";"street_address";"R. Bar„o do Amazonas, 1489 - Paternon, Porto Alegre - RS, 90670-005, Brazil";323;"SALAO DE BELEZA";"R BARAO DO AMAZONAS, 1489"
"-30.0253655";"-51.2171422";"street_address";"Rua Garibaldi, 445 - Bom Fim, Porto Alegre - RS, 90035-052, Brazil";324;"SALAO DE BELEZA";"R GARIBALDI, 445/5"
"-30.0233155";"-51.2012992";"clothing_store";"Rua Olavo Barreto Viana, 36 - 3∫ andar - Moinhos de Vento, Porto Alegre - RS, 90570-070, Brazil";325;"SALAO DE BELEZA";"R OLAVO BARRETO VIANA, 36"
"-30.0548116";"-51.2234737";"street_address";"Av. Get˙lio Vargas, 1157 - Menino Deus, Porto Alegre - RS, 90150-005, Brazil";326;"CONSULTORIO ODONTOLOGICO";"AV GETULIO VARGAS, 1157/910"
"-30.0379842";"-51.2112037";"street_address";"Av. Ven‚ncio Aires, 970 - Cidade Baixa, Porto Alegre - RS, 90040-191, Brazil";327;"CONSULTORIO DE PSIQUIATRIA";"AV VENANCIO AIRES, 970/2"
"-30.0552796";"-51.1733766";"street_address";"Av. Ipiranga, 6690 - Jardim Bot‚nico, Porto Alegre - RS, Brazil";328;"CONSULTORIO MEDICO";"AV IPIRANGA, 6690/715"
"-30.0293447";"-51.2224893";"street_address";"PraÁa Dom Feliciano, 78 - Centro HistÛrico, Porto Alegre - RS, 90020-160, Brazil";329;"LABORATORIO DE ANALISES CLINICAS";"PCA DOM FELICIANO, 78/1106"
"-30.0253955";"-51.2034903";"street_address";"R. Padre Chagas, 185 - Moinhos de Vento, Porto Alegre - RS, 90570-080, Brazil";330;"CONSULTORIO ODONTOLOGICO";"R PADRE CHAGAS, 185/808"
"-30.0430195";"-51.1908002";"street_address";"R. Faria Santos, 47 - PetrÛpolis, Porto Alegre - RS, 90670-150, Brazil";331;"CONSULTORIO DE PSICOLOGIA";"R FARIA SANTOS, 47/203"
"-30.02181";"-51.200068";"establishment";"R. Dr. TimÛteo, 739 - Moinhos de Vento, Porto Alegre - RS, 90570-041, Brazil";332;"PROFISSIONAL LIBERAL,TECNICO E UNIVERSITARIO";"R DR TIMOTEO, 727/305"
"-30.0303671";"-51.2298222";"street_address";"R. Gen. Andrade Neves, 20 - Centro HistÛrico, Porto Alegre - RS, Brazil";333;"FOTOCOPIAS, COPIAS HELIOGRAFICAS E PLASTIFICACAO";"R GEN ANDRADE NEVES, 20"
"-30.0228734";"-51.1123996";"route";"R. Ten. Alberto Mendes J˙nior - Rubem Berta, Porto Alegre - RS, Brazil";334;"REPRESENTACAO COMERCIAL (INTERMEDIARIOS DE VENDAS DE MERCADORIAS A";"R TEN ALBERTO MENDES JUNIOR, 120"
"-30.0392359";"-51.1591055";"street_address";"R. Jo„o Paetzel, 1163 - Ch·cara das Pedras, Porto Alegre - RS, 91330-390, Brazil";335;"SERVICO DE MASSAGEM (MASSAGISTAS, MASSAGEM ESTETI-CA, TERAPEUTICA";"R JOAO PAETZEL, 1163/3"
"-30.0258519";"-51.2259188";"street_address";"R. Vig. JosÈ In·cio, 30 - Centro HistÛrico, Porto Alegre - RS, 90020-100, Brazil";336;"ESCOLA DE LINGUAS";"R VIGARIO JOSE IGNACIO, 30/32"
"-29.9947405";"-51.1301741";"route";"Av. Assis Brasil, Porto Alegre - RS, Brazil";337;"SERVICO DE TATUAGEM";"AV ASSIS BRASIL, 2464/306"
"-30.0593049";"-51.2290634";"street_address";"R. JosÈ de Alencar, 286 - Menino Deus, Porto Alegre - RS, 90880-481, Brazil";338;"PROCESSAMENTO DE DADOS";"R JOSE DE ALENCAR, 286"
"-30.014817";"-51.110114";"street_address";"Av. Irene Ruperti, 5 - Rubem Berta, Porto Alegre - RS, 91180-620, Brazil";339;"ESCRITORIO DE CORRETAGEM DE IMOVEIS";"AV IRENE RUPERTI, 5"
"-30.0318973";"-51.1436043";"route";"R. Guadalajara - Jardim Itu-Sabar·, Porto Alegre - RS, Brazil";340;"ESCRITORIO DE ENGENHARIA";"R GUADALAJARA, 205"
"-30.0417824";"-51.1838583";"street_address";"Av. Taquara, 438 - PetrÛpolis, Porto Alegre - RS, 90460-210, Brazil";341;"ESCRITORIO DE CONTABILIDADE E AUDITORIA";"AV TAQUARA, 438/503"
"-30.0120946";"-51.2027904";"street_address";"Av. Berlim, 38 - S„o Geraldo, Porto Alegre - RS, 90240-580, Brazil";342;"ESCRITORIO DE PARTICIPACAO EM OUTRAS EMPRESAS     MEDIANTE COMPRA/";"AV BERLIM, 38/302"
"-30.0306447";"-51.1821444";"street_address";"R. Regente, 245 - PetrÛpolis, Porto Alegre - RS, 90470-170, Brazil";343;"ESCRITORIO DE ARQUITETURA";"R REGENTE, 245/902"
"-30.0362913";"-51.2344383";"route";"Rua Washington Luiz - Centro HistÛrico, Porto Alegre - RS, Brazil";344;"ESCRITORIO DE SERVICOS JURIDICOS";"R WASHINGTON LUIZ, 862/502"
"-30.0365734";"-51.2043316";"street_address";"R. Mariante, 967 - Rio Branco, Porto Alegre - RS, 90430-181, Brazil";345;"TELE-ENTREGA - NAO PAGA";"R MARIANTE, 967"
"-30.029678";"-51.2293383";"establishment";"R. dos Andradas, 1234 - Centro HistÛrico, Porto Alegre - RS, 90010-000, Brazil";346;"ESCRITORIO ADMINISTRATIVO (SEDE ADMINISTRATIVA DE EMPRESA)";"R ANDRADAS, 1234/1309"
"-30.0031914";"-51.0941697";"street_address";"R. Carmelita Grippi, 400 - Rubem Berta, Porto Alegre - RS, 91170-070, Brazil";347;"OFICINA DE ASSISTENCIA TECNICA";"R CARMELITA GRIPPI, 400"
"-30.0295449";"-51.2281321";"premise";"Av. Borges de Medeiros, 343 - Centro, Porto Alegre - RS, 90020-022, Brazil";348;"ESCRITORIO DE SERVICOS DE TRADUCAO";"AV BORGES DE MEDEIROS, 343"
"-30.0637085";"-51.2293553";"street_address";"R. Silveiro, 437 - Menino Deus, Porto Alegre - RS, Brazil";349;"CONSULTORIO DE TERAPIAS ALTERNATIVAS";"R SILVEIRO, 437/202"
"-30.081698";"-51.211588";"street_address";"Av. TeresÛpolis, 3302 - TeresÛpolis, Porto Alegre - RS, 90870-000, Brazil";350;"SALAO DE BELEZA";"AV TERESOPOLIS, 3302"
"-30.059182";"-51.1656408";"street_address";"R. Albion, 310 - Partenon, Porto Alegre - RS, 91530-010, Brazil";351;"SALAO DE BELEZA";"R ALBION, 310"
"-30.1098974";"-51.2552335";"street_address";"R. Pedro de Oliveira Bitencourt, 215 - Tristeza, Porto Alegre - RS, 91900-230, Brazil";352;"CONSULTORIO DE FISIOTERAPIA";"R PEDRO DE OLIVEIRA BITTENCOURT, 215"
"-30.030454";"-51.223409";"doctor";"R. Gen. Vitorino, 330/401 - Centro HistÛrico, Porto Alegre - RS, 90020-170, Brazil";353;"CONSULTORIO DE FONOAUDIOLOGIA";"R GEN VITORINO, 330/301"
"-30.1138692";"-51.2547096";"street_address";"R. Afonso ¡lvares, 172 - Tristeza, Porto Alegre - RS, Brazil";354;"CONSULTORIO DE FONOAUDIOLOGIA";"R AFONSO ALVARES, 172"
"-30.0168668";"-51.1483553";"street_address";"R. TunÌsia, 61 - Vila Ipiranga, Porto Alegre - RS, 91370-290, Brazil";355;"REPRESENTACAO COMERCIAL (INTERMEDIARIOS DE VENDAS DE MERCADORIAS A";"R TUNISIA, 61"
"-30.0563643";"-51.1687662";"street_address";"R. Prof. Cristiano Fischer, 1950 - Partenon, Porto Alegre - RS, 91410-001, Brazil";356;"SALAO DE BELEZA";"R PROF CRISTIANO FISCHER, 1950/1"
"-30.0643035";"-51.1720215";"establishment";"Vila Jo„o Pessoa, Porto Alegre - RS, 90650-001, Brazil";357;"SALAO DE BELEZA";"R MARECHAL MALLET, 10"
"-30.0244318";"-51.1900166";"street_address";"R. Silva Jardim, 254 - Auxiliadora, Porto Alegre - RS, 90450-070, Brazil";358;"ESCRITORIO DE ARQUITETURA";"R SILVA JARDIM, 254/306"
"-30.0439649";"-51.1852352";"street_address";"Av. Prot·sio Alves, 2381 - Alto PetrÛpolis, Porto Alegre - RS, Brazil";359;"SALAO DE BELEZA";"AV PROTASIO ALVES, 2381"
"-30.0255716";"-51.202528";"establishment";"R. Luciana de Abreu, 471 - Moinhos de Vento, Porto Alegre - RS, 90570-060, Brazil";360;"CONSULTORIO MEDICO";"R LUCIANA DE ABREU, 267/407"
"-30.029271";"-51.201509";"street_address";"Rua Dona Laura, 414 - Rio Branco, Porto Alegre - RS, 90430-090, Brazil";361;"CONSULTORIO DE FONOAUDIOLOGIA";"R DONA LAURA, 414/207"
"-30.0174358";"-51.1639909";"street_address";"Av. Jo„o Wallig, 660 - Passo d'Areia, Porto Alegre - RS, Brazil";362;"CONSULTORIO MEDICO";"AV JOAO WALLIG, 660/810"
"-30.0217049";"-51.196938";"street_address";"R. Cel. Bordini, 414 - Auxiliadora, Porto Alegre - RS, 90440-003, Brazil";363;"CONSULTORIO MEDICO";"R CEL BORDINI, 414/2"
"-30.0266114";"-51.2047646";"bar";"R. Fernando Gomes, 140 - Moinhos de Vento, Porto Alegre - RS, 90510-010, Brazil";364;"ESCRITORIO DE ARQUITETURA";"R FERNANDO GOMES, 128"
"-30.0288077";"-51.2248336";"premise";"Av. Ot·vio Rocha, 179 - Centro HistÛrico, Porto Alegre - RS, 90020-012, Brazil";365;"SALAO DE BELEZA";"AV OTAVIO ROCHA, 179"
"-30.0061051";"-51.149943";"premise";"Av. Montreal, 407 - Jardim Lindoia, Porto Alegre - RS, 91050-310, Brazil";366;"CONSULTORIO DE FISIOTERAPIA";"AV MONTREAL, 407"
"-30.0211078";"-51.1936194";"street_address";"Av. Mariland, 720 - Auxiliadora, Porto Alegre - RS, Brazil";367;"CONSULTORIO DE NUTRICIONISTA";"AV MARILAND, 720/303"
"-30.0358476";"-51.2271056";"street_address";"R. Cel. GenuÌno, 220 - Centro, Porto Alegre - RS, 90010-350, Brazil";368;"SALAO DE BELEZA";"R CEL GENUINO, 220"
"-30.0736024";"-51.20853";"premise";"Av. TeresÛpolis, 2266 - TeresÛpolis, Porto Alegre - RS, Brazil";369;"OFICINA DE REPARACAO DE ARTIGOS DIVERSOS NAO ESPE-CIFICADOS";"AV TERESOPOLIS, 2266"
"-30.0326852";"-51.2286432";"street_address";"R. JerÙnimo Coelho, 85 - Centro HistÛrico, Porto Alegre - RS, 90010-240, Brazil";370;"ESCOLA DE MUSICA";"R JERONIMO COELHO, 85/407"
"-30.0223194";"-51.2007992";"establishment";"R. Tobias da Silva, 120 - Conjunto 603 - Moinhos de Vento, Porto Alegre - RS, 90570-020, Brazil";371;"CONSULTORIO DE PSICOLOGIA";"R TOBIAS DA SILVA, 137/404"
"-30.042736";"-51.170602";"street_address";"R. S„o Mateus, 192 - Bom Jesus, Porto Alegre - RS, 91410-030, Brazil";372;"CONSULTORIO ODONTOLOGICO";"R SAO MATEUS, 192"
"-30.1582592";"-51.1946";"route";"Av. Juca Batista, Porto Alegre - RS, Brazil";373;"ESCRITORIO ADMINISTRATIVO (SEDE ADMINISTRATIVA DE EMPRESA)";"AV JUCA BATISTA, 1170"
"-30.0014505";"-51.2011049";"street_address";"R. Dr. Jo„o In·cio, 520 - Navegantes, Porto Alegre - RS, 90230-180, Brazil";374;"EDITORACAO GRAFICA, EDICAO E IMPRESSAO DE OUTROS  PRODUTOS GRAFICO";"R DR JOAO INACIO, 520"
"-30.029678";"-51.2293383";"establishment";"R. dos Andradas, 1234 - Centro HistÛrico, Porto Alegre - RS, 90010-000, Brazil";375;"CONSULTORIO ODONTOLOGICO";"R ANDRADAS, 1137/1520"
"-30.0250036";"-51.2034815";"cafe";"R. Padre Chagas, 220 - Moinhos de Vento, Porto Alegre - RS, 90570-080, Brazil";376;"SALAO DE BELEZA";"R PADRE CHAGAS, 327/11"
"-30.112745";"-51.25549";"street_address";"Av. Wenceslau Escobar, 2801 - Tristeza, Porto Alegre - RS, 91900-000, Brazil";377;"SALAO DE BELEZA";"AV WENCESLAU ESCOBAR, 2801"
"-30.0392734";"-51.2009007";"street_address";"Av. Prot·sio Alves, 753 - Rio Branco, Porto Alegre - RS, 90410-004, Brazil";378;"SALAO DE BELEZA";"AV PROTASIO ALVES, 753"
"-30.0351566";"-51.2085095";"street_address";"R. Ramiro Barcelos, 1819 - Floresta, Porto Alegre - RS, Brazil";379;"SALAO DE BELEZA";"R RAMIRO BARCELOS, 1819/203"
"-30.0250095";"-51.1622202";"street_address";"Av. Jo„o Wallig, 1800 - Passo d'Areia, Porto Alegre - RS, Brazil";380;"SALAO DE BELEZA";"AV JOAO WALLIG, 1800/1102"
"-30.0555089";"-51.2234714";"street_address";"R. Comendador Rodolfo Gomes, 703 - Menino Deus, Porto Alegre - RS, 90150-101, Brazil";381;"ESCOLA PREPARATORIA";"R COMENDADOR RODOLFO GOMES, 703"
"-30.1334345";"-51.2317151";"street_address";"Av. TramandaÌ, 205 - Ipanema, Porto Alegre - RS, Brazil";382;"CONSULTORIO ODONTOLOGICO";"AV TRAMANDAI, 205/204"
"-30.0602363";"-51.2294788";"street_address";"R. Antenor Lemos, 57 - Menino Deus, Porto Alegre - RS, 90850-100, Brazil";383;"CONSULTORIO ODONTOLOGICO";"R ANTENOR LEMOS, 57/408"
"-30.085817";"-51.2460326";"subpremise";"Av. Di·rio de NotÌcias, 300 - 1058 - Cristal, Porto Alegre - RS, 90810-080, Brazil";384;"SALAO DE BELEZA";"AV DIARIO DE NOTICIAS, 300/1058"
"-30.012807";"-51.165697";"street_address";"R. Itapeva, 110 - Passo d'Areia, Porto Alegre - RS, 91350-080, Brazil";385;"CONSULTORIO DE FISIOTERAPIA";"R ITAPEVA, 110/301"
"-30.0131622";"-51.1648084";"street_address";"Av. Jo„o Wallig, 160 - Passo d'Areia, Porto Alegre - RS, 91340-001, Brazil";386;"CONSULTORIO DE FISIOTERAPIA";"AV JOAO WALLIG, 160"
"-30.0046327";"-51.2061532";"street_address";"Av. P·tria, 150 - S„o Geraldo, Porto Alegre - RS, 90230-070, Brazil";387;"ESCRITORIO DE PAISAGISMO";"AV PATRIA, 150"
"-30.0321669";"-51.2327348";"street_address";"R. Riachuelo, 878 - Centro HistÛrico, Porto Alegre - RS, 90010-270, Brazil";388;"ESCOLA DE DANCA";"R RIACHUELO, 878"
"-30.0349516";"-51.2297392";"street_address";"R. Cel. Fernando Machado, 782 - Centro, Porto Alegre - RS, 90010-370, Brazil";389;"SALAO DE BELEZA";"R CEL FERNANDO MACHADO, 782"
"-30.0293446";"-51.2073656";"street_address";"R. Mostardeiro, 5 - IndependÍncia, Porto Alegre - RS, Brazil";390;"CONSULTORIO DE PSICOLOGIA";"R MOSTARDEIRO, 5/504"
"-30.0388941";"-51.1946884";"street_address";"Av. Cel. Lucas de Oliveira, 1841 - PetrÛpolis, Porto Alegre - RS, Brazil";391;"CONSULTORIO DE PSICOPEDAGOGIA";"AV CEL LUCAS DE OLIVEIRA, 1841/304"
"-30.0269463";"-51.1919083";"street_address";"R. Anita Garibaldi, 410 - Mont'Serrat, Porto Alegre - RS, 90480-200, Brazil";392;"CONSULTORIO DE TERAPIAS ALTERNATIVAS";"R ANITA GARIBALDI, 410/201"
"-30.0432868";"-51.1797879";"street_address";"Rua MaranguapÈ, 72 - PetrÛpolis, Porto Alegre - RS, 90690-380, Brazil";393;"CONSULTORIO MEDICO";"R MARANGUAPE, 72/304"
"-30.1134531";"-51.2545392";"street_address";"Av. Wenceslau Escobar, 2898 - Tristeza, Porto Alegre - RS, Brazil";394;"SALAO DE BELEZA";"AV WENCESLAU ESCOBAR, 2898/6"
"-30.0628224";"-51.1743614";"street_address";"R. Juarez T·vora, 70 - Vila Joao Pessoa, Porto Alegre - RS, 91520-600, Brazil";395;"CONSULTORIO ODONTOLOGICO";"R JUAREZ TAVORA, 70"
"-30.0418556";"-51.2156516";"street_address";"Av. Jo„o Pessoa, 1228 - Farroupilha, Porto Alegre - RS, 90040-001, Brazil";396;"CONSULTORIO ODONTOLOGICO";"AV JOAO PESSOA, 1228"
"-30.0402278";"-51.1716098";"street_address";"R. Prof. Cristiano Fischer, 34 - PetrÛpolis, Porto Alegre - RS, Brazil";397;"CONSULTORIO MEDICO";"R PROF CRISTIANO FISCHER, 34/3"
"-30.0503664";"-51.2255019";"establishment";"Av. Bastian, 230 - M Deus, Porto Alegre - RS, 90130-020, Brazil";398;"ESCRITORIO DE SERVICOS JURIDICOS";"AV BASTIAN, 230/702"
"-30.0394966";"-51.2249836";"street_address";"R. da Rep˙blica, 567 - Cidade Baixa, Porto Alegre - RS, 90050-321, Brazil";399;"ESCOLA DE LINGUAS";"R REPUBLICA, 567/105"
"-30.0648443";"-51.170726";"street_address";"R. Dona Firmina, 339 - S„o JosÈ, Porto Alegre - RS, 91520-210, Brazil";400;"PROFISSIONAL AUTONOMO";"R DONA FIRMINA, 339"
"-30.0082627";"-51.1845463";"street_address";"Av. Assis Brasil, 115 - S„o Jo„o, Porto Alegre - RS, 90520-100, Brazil";401;"ESCRITORIO DE PUBLICIDADE E PROPAGANDA";"AV ASSIS BRASIL, 115/216"
"-30.0330518";"-51.2029882";"street_address";"R. Vasco da Gama, 901 - Rio Branco, Porto Alegre - RS, 90420-111, Brazil";402;"SALAO DE BELEZA";"R VASCO DA GAMA, 901"
"-30.0343654";"-51.1768842";"establishment";"Av. Luiz Manoel Gonzaga, 351 - PetrÛpolis, Porto Alegre - RS, 90470-280, Brazil";403;"CONSULTORIO MEDICO";"AV LUIZ MANOEL GONZAGA, 351/408"
"-30.1167461";"-51.2538344";"premise";"Av. Wenceslau Escobar, 3239 - Cristal, Porto Alegre - RS, Brazil";404;"CONSULTORIO MEDICO";"AV WENCESLAU ESCOBAR, 3239"
"-30.020353";"-51.198534";"establishment";"R. Quintino Bocai˙va, 267 - Moinhos de Vento, Porto Alegre - RS, 90440-050, Brazil";405;"ESCOLA ESPECIAL";"R QUINTINO BOCAIUVA, 906"
"-30.0293446";"-51.2073656";"street_address";"R. Mostardeiro, 5 - IndependÍncia, Porto Alegre - RS, Brazil";406;"CONSULTORIO ODONTOLOGICO";"R MOSTARDEIRO, 5/509"
"-30.0178748";"-51.1861521";"street_address";"R. Dom Pedro II, 1220 - S„o Jo„o, Porto Alegre - RS, 90550-141, Brazil";407;"CONSULTORIO MEDICO";"R DOM PEDRO II, 1220/207"
"-30.0441295";"-51.1895752";"street_address";"R. Prof. Langendonck, 117 - PetrÛpolis, Porto Alegre - RS, 90630-060, Brazil";408;"CONSULTORIO DE FISIOTERAPIA";"R PROF LANGENDONCK, 117"
"-30.029271";"-51.201509";"street_address";"Rua Dona Laura, 414 - Rio Branco, Porto Alegre - RS, 90430-090, Brazil";409;"EDITORACAO GRAFICA, EDICAO E IMPRESSAO DE OUTROS  PRODUTOS GRAFICO";"R DONA LAURA, 414/703"
"-30.0412251";"-51.1974438";"street_address";"R. Santa CecÌlia, 1673 - Santana, Porto Alegre - RS, 90420-040, Brazil";410;"CONSULTORIO DE FISIOTERAPIA";"R SANTA CECILIA, 1673/502"
"-30.0551418";"-51.1637686";"street_address";"Av. Ipiranga, 7464 - Jardim do Salso, Porto Alegre - RS, Brazil";411;"CONSULTORIO DE FISIOTERAPIA";"AV IPIRANGA, 7464/707"
"-30.0343654";"-51.1768842";"establishment";"Av. Luiz Manoel Gonzaga, 351 - PetrÛpolis, Porto Alegre - RS, 90470-280, Brazil";412;"CONSULTORIO MEDICO";"AV LUIZ MANOEL GONZAGA, 351/701"
"-30.0199137";"-51.1963664";"street_address";"R. MarquÍs do Pombal, 783 - Moinhos de Vento, Porto Alegre - RS, Brazil";413;"CONSULTORIO MEDICO";"R MARQUES DO POMBAL, 783/201"
"-30.022883";"-51.19152";"street_address";"R. Felipe Neri, 406 - Auxiliadora, Porto Alegre - RS, 90440-150, Brazil";414;"CONSULTORIO DE FONOAUDIOLOGIA";"R FELIPE NERI, 406/303"
"-30.029678";"-51.2293383";"establishment";"R. dos Andradas, 1234 - Centro HistÛrico, Porto Alegre - RS, 90010-000, Brazil";415;"CONSULTORIO DE PSICOLOGIA";"R ANDRADAS, 1137/1409"
"-30.1138692";"-51.2547096";"street_address";"R. Afonso ¡lvares, 172 - Tristeza, Porto Alegre - RS, Brazil";416;"CONSULTORIO DE PSICOLOGIA";"R AFONSO ALVARES, 172"
"-30.0281898";"-51.1993289";"street_address";"R. Mostardeiro, 780 - IndependÍncia, Porto Alegre - RS, 90430-001, Brazil";417;"CONSULTORIO MEDICO";"R MOSTARDEIRO, 780/305"
"-30.0306302";"-51.2236249";"street_address";"Rua Professor Annes Dias, 112 - Centro HistÛrico, Porto Alegre - RS, 90020-090, Brazil";418;"CONSULTORIO MEDICO";"R PROF ANNES DIAS, 112/92"
"-30.0407496";"-51.2128772";"street_address";"R. Santana, 242 - Farroupilha, Porto Alegre - RS, 90040-372, Brazil";419;"SALAO DE BELEZA";"R SANTANA, 242"
"-30.1041385";"-51.2298375";"street_address";"Av. da Cavalhada, 3168 - Cavalhada, Porto Alegre - RS, 91740-001, Brazil";420;"SALAO DE BELEZA";"AV CAVALHADA, 3168/101"
"-30.0319958";"-51.2093862";"street_address";"R. Vasco da Gama, 279 - Bom Fim, Porto Alegre - RS, 90420-111, Brazil";421;"TELE-ENTREGA - NAO PAGA";"R VASCO DA GAMA, 279"
"-30.0400552";"-51.2091124";"street_address";"Av. JerÙnimo de Ornelas, 644 - Santana, Porto Alegre - RS, 90040-341, Brazil";422;"SALAO DE BELEZA";"AV JERONIMO DE ORNELAS, 644"
"-30.0428302";"-51.1860464";"street_address";"Av. Taquara, 193 - PetrÛpolis, Porto Alegre - RS, 90460-210, Brazil";423;"CONSULTORIO DE FISIOTERAPIA";"AV TAQUARA, 193/205"
"-30.0306761";"-51.2257031";"street_address";"R. Vig. JosÈ In·cio, 566 - Centro HistÛrico, Porto Alegre - RS, 90020-100, Brazil";424;"CONSULTORIO DE NUTRICIONISTA";"R VIGARIO JOSE IGNACIO, 566/1108"
"-30.052537";"-51.222015";"street_address";"Av. Get˙lio Vargas, 896 - Menino Deus, Porto Alegre - RS, 90150-002, Brazil";425;"SALAO DE BELEZA";"AV GETULIO VARGAS, 896"
"-30.0387426";"-51.1722696";"street_address";"R. Carlos Huber, 44 - TrÍs Figueiras, Porto Alegre - RS, 91330-150, Brazil";426;"CONSULTORIO MEDICO";"R CARLOS HUBER, 44"
"-30.0296098";"-51.2008578";"street_address";"Rua Dona Laura, 471 - Rio Branco, Porto Alegre - RS, 90430-091, Brazil";427;"CONSULTORIO ODONTOLOGICO";"R DONA LAURA, 471/501"
"-30.1138692";"-51.2547096";"street_address";"R. Afonso ¡lvares, 172 - Tristeza, Porto Alegre - RS, Brazil";428;"CONSULTORIO DE FISIOTERAPIA";"R AFONSO ALVARES, 172"
"-30.030605";"-51.2249156";"street_address";"Rua Doutor Flores, 381 - Centro HistÛrico, Porto Alegre - RS, 90020-121, Brazil";429;"SALAO DE BELEZA";"R DR FLORES, 381"
"-30.0287907";"-51.2248315";"street_address";"Av. Ot·vio Rocha, 179 - Centro HistÛrico, Porto Alegre - RS, 90020-012, Brazil";430;"SALAO DE BELEZA";"AV OTAVIO ROCHA, 179/11"
"-30.0298722";"-51.2256283";"establishment";"R. dos Andradas, 1593 - Centro HistÛrico, Porto Alegre - RS, 90010-140, Brazil";431;"SALAO DE BELEZA";"R ANDRADAS, 1454"
"-30.0096943";"-51.1584283";"establishment";"Rua Domingos Rubbo, 135 - Cristo Redentor, Porto Alegre - RS, 91040-000, Brazil";432;"CONSULTORIO DE FISIOTERAPIA";"R DOMINGOS RUBBO, 396"
"-30.019574";"-51.202325";"street_address";"R. FÈlix da Cunha, 751 - Floresta, Porto Alegre - RS, 90570-001, Brazil";433;"CONSULTORIO DE PSICOPEDAGOGIA";"R FELIX DA CUNHA, 751/102"
"-30.0210885";"-51.1961054";"premise";"R. Xavier Ferreira, 161 - Auxiliadora, Porto Alegre - RS, 90540-160, Brazil";434;"CONSULTORIO DE PSICOPEDAGOGIA";"R XAVIER FERREIRA, 161"
"-30.029375";"-51.20832";"street_address";"R. Ramiro Barcelos, 1188 - IndependÍncia, Porto Alegre - RS, 90035-002, Brazil";435;"SALAO DE BELEZA";"R RAMIRO BARCELOS, 1188/111"
"-30.0543541";"-51.2146522";"street_address";"Av. da Azenha, 1195 - Azenha, Porto Alegre - RS, 90160-003, Brazil";436;"EDITORACAO GRAFICA, EDICAO E IMPRESSAO DE OUTROS  PRODUTOS GRAFICO";"AV AZENHA, 1195/20"
"-30.0795724";"-51.2090472";"street_address";"Av. TeresÛpolis, 2956 - TeresÛpolis, Porto Alegre - RS, 90870-000, Brazil";437;"CONSULTORIO DE FISIOTERAPIA";"AV TERESOPOLIS, 2956/311"
"-30.0133899";"-51.1709172";"street_address";"Av. PlÌnio Brasil Milano, 2343 - Passo d'Areia, Porto Alegre - RS, 90520-003, Brazil";438;"SALAO DE BELEZA";"AV PLINIO BRASIL MILANO, 2343/1"
"-29.9947405";"-51.1301741";"route";"Av. Assis Brasil, Porto Alegre - RS, Brazil";439;"ESCRITORIO DE SERVICOS DE ASSESSORIA";"AV ASSIS BRASIL, 2474/208"
"-30.0298759";"-51.2019477";"street_address";"Av. Goethe, 71 - Rio Branco, Porto Alegre - RS, 90430-100, Brazil";440;"CONSULTORIO DE PSICOLOGIA";"AV GOETHE, 71/506"
"-30.0369741";"-51.1805022";"street_address";"Av. Lajeado, 991 - PetrÛpolis, Porto Alegre - RS, 90460-110, Brazil";441;"SALAO DE BELEZA";"AV LAGEADO, 991"
"-30.058258";"-51.2292359";"doctor";"R. Costa, 30 - Menino Deus, Porto Alegre - RS, 90110-270, Brazil";442;"CONSULTORIO MEDICO";"R COSTA, 30/607"
"-30.0401";"-51.165935";"street_address";"Av. Teixeira Mendes, 31 - Ch·cara das Pedras, Porto Alegre - RS, 91330-390, Brazil";443;"SALAO DE BELEZA";"AV TEIXEIRA MENDES, 31"
"-30.0208378";"-51.2023072";"doctor";"R. FÈlix da Cunha, 889 - Floresta, Porto Alegre - RS, 90570-001, Brazil";444;"SALAO DE BELEZA";"R FELIX DA CUNHA, 1215"
"-30.0036916";"-51.2011322";"premise";"Av. Pres. Franklin Roosevelt, 430 - Navegantes, Porto Alegre - RS, 90230-002, Brazil";445;"SALAO DE BELEZA";"AV PRESIDENTE FRANKLIN ROOSEVELT, 430"
"-30.0291962";"-51.208667";"establishment";"Av. IndependÍncia, 1211 - Moinho de Vento, Porto Alegre - RS, 90035-077, Brazil";446;"CONSULTORIO ODONTOLOGICO";"AV INDEPENDENCIA, 1211/210"
"-30.0550755";"-51.1868768";"street_address";"Av. Ipiranga, 5200 - Jardim Bot‚nico, Porto Alegre - RS, 90160-001, Brazil";447;"CENTRAL DE SERVICOS DE APOIO AS EMPRESAS";"AV IPIRANGA, 5200/207"
"-30.0237186";"-51.2005551";"street_address";"R. 24 de Outubro, 838 - Moinhos de Vento, Porto Alegre - RS, 90510-001, Brazil";448;"CONSULTORIO DE NUTRICIONISTA";"R VINTE QUATRO DE OUTUBRO, 838/710"
"-30.042442";"-51.184575";"street_address";"Av. Taquara, 353 - PetrÛpolis, Porto Alegre - RS, 90460-210, Brazil";449;"CONSULTORIO DE PSICOLOGIA";"AV TAQUARA, 353/303"
"-30.0993761";"-51.2453352";"street_address";"R. Cel. AristÌdes, 180 - Camaqu„, Porto Alegre - RS, Brazil";450;"ESCRITORIO DE CONTABILIDADE";"R CEL ARISTIDES, 180"
"-30.040826";"-51.1782791";"street_address";"Av. IguaÁu, 197 - PetrÛpolis, Porto Alegre - RS, 90470-430, Brazil";451;"CONSULTORIO MEDICO";"AV IGUASSU, 197/501"
"-30.0208631";"-51.1832478";"street_address";"PraÁa Alberto Ramos, 812 - HigienÛpolis, Porto Alegre - RS, 90520-050, Brazil";452;"ESCRITORIO DE SERVICOS JURIDICOS";"PCA ALBERTO RAMOS, 812/707"
"-30.0060549";"-51.1960646";"premise";"Av. Cair˙, 1127 - Navegantes, Porto Alegre - RS, 90230-031, Brazil";453;"OFICINA ELETRICA PARA AUTOMOVEIS";"R CAIRU, 1127"
"-29.9867277";"-51.1077218";"route";"R. Ariosto ViÍira Rodrigues - Sarandi, Porto Alegre - RS, Brazil";454;"ATELIER DE COSTURA,BORDADO E TRICOT";"R ARIOSTO VIEIRA RODRIGUES, 257"
"-30.0155737";"-51.1715279";"street_address";"Av. PlÌnio Brasil Milano, 2177 - HigienÛpolis, Porto Alegre - RS, 90520-002, Brazil";455;"PROFISSIONAL AUTONOMO";"AV PLINIO BRASIL MILANO, 2177/120"
"-30.0049669";"-51.1547647";"street_address";"R. Ouro Preto, 189 - Jardim Floresta, Porto Alegre - RS, 91040-610, Brazil";456;"ESCRITORIO DE CONTABILIDADE";"R OURO PRETO, 189/2"
"-30.0303773";"-51.201425";"street_address";"R. Schiller, 28 - Rio Branco, Porto Alegre - RS, 90430-150, Brazil";457;"CONSULTORIO MEDICO";"R SCHILLER, 28"
"-30.0379842";"-51.2112037";"street_address";"Av. Ven‚ncio Aires, 970 - Cidade Baixa, Porto Alegre - RS, 90040-191, Brazil";458;"CONSULTORIO DE TERAPIAS ALTERNATIVAS";"AV VENANCIO AIRES, 970"
"-30.0187949";"-51.2003009";"street_address";"R. Dr. TimÛteo, 413 - Floresta, Porto Alegre - RS, 90570-041, Brazil";459;"PROFISSIONAL AUTONOMO";"R DR TIMOTEO, 413/22"
"-29.993534";"-51.134926";"street_address";"R. Moreira da Silva, 125 - Sarandi, Porto Alegre - RS, 91110-360, Brazil";460;"PROFISSIONAL AUTONOMO";"R MOREIRA DA SILVA, 125"
"-30.1085525";"-51.2504804";"street_address";"Av. Otto Niemeyer, 856 - Tristeza, Porto Alegre - RS, 91910-001, Brazil";461;"SALAO DE BELEZA";"AV OTTO NIEMEYER, 856"
"-30.0044939";"-51.178602";"establishment";"Av. Gen. EmÌlio L˙cio Esteves, 489 - Santa Maria Goretti, Porto Alegre - RS, 91030-250, Brazil";462;"SALAO DE BELEZA";"AV GEN EMILIO LUCIO ESTEVES, 139"
"-30.0046688";"-51.1603755";"street_address";"R. Edmundo Bastian, 738 - C Redentor, Porto Alegre - RS, 91040-050, Brazil";463;"SALAO DE BELEZA";"R EDMUNDO BASTIAN, 738"
"-30.0288108";"-51.2255579";"street_address";"Av. Ot·vio Rocha, 115 - Centro HistÛrico, Porto Alegre - RS, 90020-151, Brazil";464;"ESCRITORIO DE SERVICOS DE REPRODUCAO E DOCUMENTA- CAO";"AV OTAVIO ROCHA, 115/904"
"-30.0288336";"-51.2027461";"street_address";"R. Dr. FlorÍncio Ygartua, 270 - Moinhos de Vento, Porto Alegre - RS, 90430-010, Brazil";465;"CLINICA MEDICA SEM CALDEIRA";"R DR FLORENCIO YGARTUA, 270/704"
"-30.0195737";"-51.1652833";"street_address";"R. Gen. Pedro Bitencourt, 115 - Passo d'Areia, Porto Alegre - RS, 91340-050, Brazil";466;"AGENCIA DE LOCACAO DE MOVEIS, LOUCAS E SEMELHANTES";"R GEN PEDRO BITTENCOURT, 115"
"-30.0261271";"-51.137689";"route";"Rua Zeev Jabotinsky - Jardim Itu-Sabar·, Porto Alegre - RS, 91220-510, Brazil";467;"SERVICO DE SOFTWARE E HARDWARE";"R ZEEV JABOTINSKI, 96"
"-30.040254";"-51.211304";"street_address";"R. ViÍira de Castro, 285 - Santana, Porto Alegre - RS, 90040-320, Brazil";468;"CONSULTORIO MEDICO";"R VIEIRA DE CASTRO, 285/201"
"-30.0117535";"-51.2071316";"premise";"R. Santos Dumont, 1088 - Floresta, Porto Alegre - RS, 90230-241, Brazil";469;"EDITORACAO GRAFICA, EDICAO E IMPRESSAO DE OUTROS  PRODUTOS GRAFICO";"R SANTOS DUMONT, 1088"
"-30.0056659";"-51.1819468";"establishment";"R. S„o Nicolau, 354 - Santa Maria Goretti, Porto Alegre - RS, 91770-440, Brazil";470;"TELE-ENTREGAS";"R SAO NICOLAU, 354"
"-30.0328584";"-51.1779499";"street_address";"Av. Soledade, 569 - PetrÛpolis, Porto Alegre - RS, Brazil";471;"CONSULTORIO MEDICO";"AV SOLEDADE, 569/12"
"-30.0326662";"-51.1781803";"street_address";"Av. Soledade, 565 - PetrÛpolis, Porto Alegre - RS, Brazil";472;"CONSULTORIO MEDICO";"AV SOLEDADE, 565"
"-30.048814";"-51.208663";"street_address";"Av. Princesa Isabel, 395 - Santana, Porto Alegre - RS, 90620-001, Brazil";473;"CONSULTORIO MEDICO";"AV PRINCESA ISABEL, 395"
"-30.0421948";"-51.146689";"route";"Av. Prot·sio Alves, Porto Alegre - RS, Brazil";474;"PROFISSIONAL LIBERAL,TECNICO E UNIVERSITARIO";"AV PROTASIO ALVES, 7555/102"
"-30.009975";"-51.166661";"street_address";"Av. Carneiro da Fontoura, 226 - Jd Sao Pedro, Porto Alegre - RS, 91040-170, Brazil";475;"PROFISSIONAL AUTONOMO";"AV CARNEIRO DA FONTOURA, 226/202"
"-30.029678";"-51.2293383";"establishment";"R. dos Andradas, 1234 - Centro HistÛrico, Porto Alegre - RS, 90010-000, Brazil";476;"CONSULTORIO MEDICO";"R ANDRADAS, 1137/510"
"-30.0366243";"-51.1732039";"street_address";"R. Eng. Ildefonso Simıes Lopes, 45 - TrÍs Figueiras, Porto Alegre - RS, 91330-180, Brazil";477;"SALAO DE BELEZA";"R ENG ILDEFONSO SIMOES LOPES, 45"
"-30.0208378";"-51.2023072";"doctor";"R. FÈlix da Cunha, 889 - Floresta, Porto Alegre - RS, 90570-001, Brazil";478;"SALAO DE BELEZA";"R FELIX DA CUNHA, 869"
"-30.0264238";"-51.222395";"establishment";"PraÁa Osvaldo Cruz, 15 - Centro HistÛrico, Porto Alegre - RS, 90010-130, Brazil";479;"ESCRITORIO DE CORRETAGEM DE IMOVEIS";"PCA OSVALDO CRUZ, 15/2404"
"-30.0237186";"-51.2005551";"street_address";"R. 24 de Outubro, 838 - Moinhos de Vento, Porto Alegre - RS, 90510-001, Brazil";480;"ESCRITORIO DE CONTABILIDADE";"R VINTE QUATRO DE OUTUBRO, 838/601"
"-30.035392";"-51.199453";"street_address";"R. CÙnego Viana, 146 - Rio Branco, Porto Alegre - RS, 90420-170, Brazil";481;"CONSULTORIO MEDICO";"R CONEGO VIANA, 146"
"-29.9935685";"-51.1285563";"street_address";"Av. Assis Brasil, 6605 - Passo d'Areia, Porto Alegre - RS, 91010-004, Brazil";482;"SALAO DE BELEZA";"AV ASSIS BRASIL, 6605/206"
"-30.0173759";"-51.2065231";"street_address";"R. Alm. Barroso, 616 - Floresta, Porto Alegre - RS, 90220-020, Brazil";483;"ESCRITORIO DE SERVICOS JURIDICOS";"R ALMIRANTE BARROSO, 616"
"-30.0096122";"-51.1928038";"street_address";"Av. Benjamin Constant, 883 - S„o Jo„o, Porto Alegre - RS, Brazil";484;"BORRACHARIA/VULCANIZADORA";"AV BENJAMIN CONSTANT, 883"
"-30.1494852";"-51.2212547";"street_address";"R. dos Guananas, 284 - EspÌrito Santo, Porto Alegre - RS, 91770-360, Brazil";485;"REPRESENTACAO COMERCIAL (INTERMEDIARIOS DE VENDAS DE MERCADORIAS A";"R GUANANAS, 284"
"-30.0294968";"-51.2097009";"street_address";"R. Felipe Camar„o, 22 - Rio Branco, Porto Alegre - RS, 90035-140, Brazil";486;"CONSULTORIO MEDICO";"R FELIPE CAMARAO, 22/1"
"-30.0172";"-51.123509";"street_address";"R. Leopoldino J Santos, 198 - Passo das Pedras, Porto Alegre - RS, 91230-350, Brazil";487;"OFICINA DE REPARACAO E MANUTENCAO DE ELETRODOMES- TICOS";"R LEOPOLDINO J SANTOS, 198"
"-30.0389903";"-51.2245311";"street_address";"R. da Rep˙blica, 493 - Cidade Baixa, Porto Alegre - RS, 90050-320, Brazil";488;"ESCRITORIO DE SERVICOS JURIDICOS";"R REPUBLICA, 493/502"
"-30.0306447";"-51.1821444";"street_address";"R. Regente, 245 - PetrÛpolis, Porto Alegre - RS, 90470-170, Brazil";489;"ESCRITORIO DE SERVICOS JURIDICOS";"R REGENTE, 245/501"
"-30.0291962";"-51.208667";"establishment";"Av. IndependÍncia, 1211 - Moinho de Vento, Porto Alegre - RS, 90035-077, Brazil";490;"CONSULTORIO MEDICO";"AV INDEPENDENCIA, 1211/201"
"-30.052402";"-51.220145";"street_address";"R. Bar„o do Triunfo, 175 - Menino Deus, Porto Alegre - RS, 90130-101, Brazil";491;"CONSULTORIO MEDICO";"R BARAO DO TRIUNFO, 175/27"
"-30.0294968";"-51.2097009";"street_address";"R. Felipe Camar„o, 22 - Rio Branco, Porto Alegre - RS, 90035-140, Brazil";492;"CONSULTORIO MEDICO";"R FELIPE CAMARAO, 22/3"
"-30.0304014";"-51.2275428";"street_address";"Av. Borges de Medeiros, 446 - Centro HistÛrico, Porto Alegre - RS, 90020-024, Brazil";493;"ESCRITORIO DE PROMOCOES";"AV BORGES DE MEDEIROS, 446/719"
"-30.194302";"-51.1870031";"street_address";"Estr. Ponta Grossa, 966 - BelÈm Novo, Porto Alegre - RS, 91780-580, Brazil";494;"SALAO DE BELEZA";"ESTR PONTA GROSSA, 966"
"-30.035969";"-51.20718";"street_address";"Rua Francisco Ferrer, 408 - Rio Branco, Porto Alegre - RS, 90420-140, Brazil";495;"ESCOLA ESPECIAL";"R FRANCISCO FERRER, 408"
"-30.0539084";"-51.2273537";"street_address";"R. Botafogo, 316 - Menino Deus, Porto Alegre - RS, 90150-052, Brazil";496;"SALAO DE BELEZA";"R BOTAFOGO, 316"
"-30.0086074";"-51.1594179";"premise";"Rua Fernando Abbott, 394 - Cristo Redentor, Porto Alegre - RS, 91040-360, Brazil";497;"EMPRESA DE MANUTENCAO DE REDES E/OU LINHAS PARA   TELECOMUNICACAO";"R FERNANDO ABBOTT, 394"
"-30.0587569";"-51.1957274";"premise";"R. Humberto de Campos, 77 - Partenon, Porto Alegre - RS, 90660-280, Brazil";498;"GARAGEM E ESTACIONAMENTO PARA VEICULOS, EXCETO OS DE CARGA OU COLE";"R HUMBERTO DE CAMPOS, 77"
"-30.0578171";"-51.2225956";"street_address";"R. Saldanha Marinho, 33 - Menino Deus, Porto Alegre - RS, 90160-240, Brazil";499;"CONSULTORIO ODONTOLOGICO";"R SALDANHA MARINHO, 33/602"
"-30.0403514";"-51.2154417";"street_address";"Av. Ven‚ncio Aires, 504 - Cidade Baixa, Porto Alegre - RS, 90040-191, Brazil";500;"ESCRITORIO DE VENDAS (PRODUTOS PROPRIOS SEM INTERMDIACAO DE TERCEI";"AV VENANCIO AIRES, 504/302"
"-30.0128801";"-51.0991207";"premise";"Av. Jo„o Ferreira Jardim, 97 - Rubem Berta, Porto Alegre - RS, 91180-290, Brazil";501;"ACADEMIA DE ENSINO E/OU PRATICA DE GINASTICA";"AV JOAO FERREIRA JARDIM, 97"
"-30.041457";"-51.1826848";"street_address";"Av. Taquara, 586 - PetrÛpolis, Porto Alegre - RS, 90460-210, Brazil";502;"CONSULTORIO MEDICO";"AV TAQUARA, 586/603"
"-30.0523926";"-51.2157846";"street_address";"R. Bar„o do Triunfo, 576 - Menino Deus, Porto Alegre - RS, 90130-100, Brazil";503;"ESCRITORIO DE CONTABILIDADE E AUDITORIA";"R BARAO DO TRIUNFO, 576/503"
"-30.03931";"-51.173921";"street_address";"Av. Sen. Tarso Dutra, 135 - PetrÛpolis, Porto Alegre - RS, 90690-140, Brazil";504;"SERVICO DE ASSESSORIA, CONSULTORIA, PESQUISA, ANA-LISE E PROMOCOES";"AV SENADOR TARSO DUTRA, 135"
"-30.029533";"-51.203437";"street_address";"Rua Dona Laura, 226 - Rio Branco, Porto Alegre - RS, 90430-090, Brazil";505;"CONSULTORIO DE FISIOTERAPIA";"R DONA LAURA, 226/403"
"-30.0377728";"-51.2121546";"street_address";"Av. JosÈ Bonif·cio, 519 - Farroupilha, Porto Alegre - RS, 90040-130, Brazil";506;"CONSULTORIO MEDICO";"AV JOSE BONIFACIO, 519/303"
"-30.0389952";"-51.2118746";"street_address";"R. ViÍira de Castro, 150 - Farroupilha, Porto Alegre - RS, 90040-320, Brazil";507;"CONSULTORIO ODONTOLOGICO";"R VIEIRA DE CASTRO, 150/202"
"-30.042084";"-51.1965269";"street_address";"R. Vicente da Fontoura, 2280 - Rio Branco, Porto Alegre - RS, 90640-001, Brazil";508;"ACADEMIA DE ENSINO E/OU PRATICA DE GINASTICA";"R VICENTE DA FONTOURA, 2280"
"-30.0293446";"-51.2073656";"street_address";"R. Mostardeiro, 5 - IndependÍncia, Porto Alegre - RS, Brazil";509;"CONSULTORIO MEDICO";"R MOSTARDEIRO, 5/601"
"-30.037903";"-51.2112175";"premise";"Av. Ven‚ncio Aires, 976 - Farroupilha, Porto Alegre - RS, 90040-192, Brazil";510;"SALAO DE BELEZA";"AV VENANCIO AIRES, 976"
"-30.0182326";"-51.1988231";"street_address";"Av. CristÛv„o Colombo, 2149 - Floresta, Porto Alegre - RS, 90560-002, Brazil";511;"CONSULTORIO DE PSICOLOGIA";"AV CRISTOVAO COLOMBO, 2149/401"
"-30.0416161";"-51.1851811";"street_address";"Rua Jo„o Abbott, 451 - PetrÛpolis, Porto Alegre - RS, 90460-150, Brazil";512;"CONSULTORIO MEDICO";"R JOAO ABBOTT, 451/206"
"-30.029559";"-51.16126";"street_address";"R. Dr. Barbosa GonÁalves, 653 - Ch·cara das Pedras, Porto Alegre - RS, 91330-320, Brazil";513;"CONSULTORIO MEDICO";"R DR BARBOSA GONCALVES, 653"
"-30.1126164";"-51.2556648";"premise";"R. Alm. C‚mara, 400 - Tristeza, Porto Alegre - RS, 91920-450, Brazil";514;"POSTO DE RECEBIMENTO E ENTREGA PARA LAVANDERIA";"R ALMIRANTE CAMARA, 400"
"-30.0257953";"-51.1947991";"street_address";"Av. Cel. Lucas de Oliveira, 376 - PetrÛpolis, Porto Alegre - RS, 90440-011, Brazil";515;"ESCRITORIO DE SERVICOS DE ASSESSORIA";"AV CEL LUCAS DE OLIVEIRA, 376"
"-30.0729319";"-51.1961794";"street_address";"R. Cel. AparÌcio Borges, 1195 - GlÛria, Porto Alegre - RS, 90680-570, Brazil";516;"EDITORACAO GRAFICA, EDICAO E IMPRESSAO DE OUTROS  PRODUTOS GRAFICO";"AV CEL APARICIO BORGES, 1195/4"
"-30.0273623";"-51.2258292";"street_address";"R. Volunt·rios da P·tria, 82 - Centro HistÛrico, Porto Alegre - RS, 90030-001, Brazil";517;"OFICINA DE REPARACAO DE APARELHOS ELETRONICOS";"R VOLUNTARIOS DA PATRIA, 82/26"
"-30.022434";"-51.199314";"establishment";"R. Tobias da Silva, 248 - Moinhos de Vento, Porto Alegre - RS, 90570-020, Brazil";518;"ESCRITORIO DE ENGENHARIA";"R TOBIAS DA SILVA, 267/501"
"-30.0477333";"-51.2121215";"street_address";"Av. Ipiranga, 1801 - Azenha, Porto Alegre - RS, Brazil";519;"CONSULTORIO MEDICO";"AV IPIRANGA, 1801/35"
"-30.0523687";"-51.2062212";"street_address";"Av. Bento GonÁalves, 685 - Partenon, Porto Alegre - RS, Brazil";520;"GARAGEM E ESTACIONAMENTO PARA VEICULOS, EXCETO OS DE CARGA OU COLE";"AV BENTO GONCALVES, 685"
"-30.0425429";"-51.2202981";"street_address";"R. JosÈ do PatrocÌnio, 954 - Cidade Baixa, Porto Alegre - RS, 90050-002, Brazil";521;"GARAGEM E ESTACIONAMENTO PARA VEICULOS, EXCETO OS DE CARGA OU COLE";"R JOSE DO PATROCINIO, 954"
"-30.0236723";"-51.1951023";"street_address";"Av. Cel. Lucas de Oliveira, 132 - PetrÛpolis, Porto Alegre - RS, 90440-011, Brazil";522;"CONSULTORIO MEDICO";"AV CEL LUCAS DE OLIVEIRA, 132"
"-30.0290926";"-51.2209474";"street_address";"R. Cel. Vicente, 605 - Centro HistÛrico, Porto Alegre - RS, 90030-041, Brazil";523;"SALAO DE BELEZA";"R CEL VICENTE, 605"
"-30.0415821";"-51.1777565";"street_address";"Av. Prot·sio Alves, 3149 - PetrÛpolis, Porto Alegre - RS, Brazil";524;"REPRESENTACAO COMERCIAL (INTERMEDIARIOS DE VENDAS DE MERCADORIAS A";"AV PROTASIO ALVES, 3149/604"
"-30.0353607";"-51.2219994";"street_address";"Av. Loureiro da Silva, 2001 - Cidade Baixa, Porto Alegre - RS, 90050-240, Brazil";525;"CONSULTORIO ODONTOLOGICO";"AV LOUREIRO DA SILVA, 2001/618"
"-30.022434";"-51.199314";"establishment";"R. Tobias da Silva, 248 - Moinhos de Vento, Porto Alegre - RS, 90570-020, Brazil";526;"ESCRITORIO DE ENGENHARIA";"R TOBIAS DA SILVA, 267/501"
"-30.0977145";"-51.2336042";"street_address";"R. Cel. Massot, 1505 - Cavalhada, Porto Alegre - RS, 91910-530, Brazil";527;"ESCRITORIO DE CORRETAGEM DE IMOVEIS";"R CEL MASSOT, 1505/203"
"-30.01933";"-51.169935";"street_address";"R. JosÈ Scutari, 260 - Passo d'Areia, Porto Alegre - RS, 91340-210, Brazil";528;"ESCRITORIO DE PAISAGISMO";"R JOSE SCUTARI, 260"
"-30.0302705";"-51.2280705";"street_address";"Tv. Eng. Acilino de Carvalho, 49 - Centro HistÛrico, Porto Alegre - RS, 90010-200, Brazil";529;"SALAO DE BELEZA";"TRAV ENG ACILINO CARVALHO, 49"
"-30.0305192";"-51.2282956";"street_address";"Tv. Eng. Acilino de Carvalho, 30 - Centro HistÛrico, Porto Alegre - RS, 90010-200, Brazil";530;"SALAO DE BELEZA";"TRAV ENG ACILINO CARVALHO, 30/11"
"-30.0750506";"-51.1956897";"street_address";"R. Intendente Alfredo Azevedo, 515 - GlÛria, Porto Alegre - RS, 91710-010, Brazil";531;"GARAGEM E ESTACIONAMENTO PARA VEICULOS, EXCETO OS DE CARGA OU COLE";"R INTENDENTE ALFREDO AZEVEDO, 515"
"-30.0431058";"-51.1820049";"street_address";"Av. Prot·sio Alves, 2710 - Alto PetrÛpolis, Porto Alegre - RS, Brazil";532;"PROFISSIONAL AUTONOMO";"AV PROTASIO ALVES, 2710"
"-30.0200178";"-51.2063808";"street_address";"Av. CristÛv„o Colombo, 1371 - Floresta, Porto Alegre - RS, 90560-004, Brazil";533;"CONSULTORIO ODONTOLOGICO";"AV CRISTOVAO COLOMBO, 1371/602"
"-30.0200003";"-51.2019969";"establishment";"R. MarquÍs do Pombal, 250 - Moinhos de Vento, Porto Alegre - RS, Brazil";534;"CONSULTORIO MEDICO";"R MARQUES DO POMBAL, 250/401"
"-30.0262208";"-51.212016";"street_address";"Av. CristÛv„o Colombo, 545 - Floresta, Porto Alegre - RS, 90560-003, Brazil";535;"SALAO DE BELEZA";"AV CRISTOVAO COLOMBO, 545/2022"
"-30.0262208";"-51.212016";"street_address";"Av. CristÛv„o Colombo, 545 - Floresta, Porto Alegre - RS, 90560-003, Brazil";536;"SALAO DE BELEZA";"AV CRISTOVAO COLOMBO, 545/1055"
"-30.0290046";"-51.2262223";"street_address";"R. Vig. JosÈ In·cio, 371 - Centro HistÛrico, Porto Alegre - RS, 90020-100, Brazil";537;"LABORATORIO DE PROTESE";"R VIGARIO JOSE IGNACIO, 371/1925"
"-30.0158867";"-51.1271523";"route";"Av. Gomes de Carvalho - Passo das Pedras, Porto Alegre - RS, Brazil";538;"SALAO DE BELEZA";"AV GOMES DE CARVALHO, 735"
"-29.9992752";"-51.188051";"street_address";"Rua 18 de Novembro, 800 - S„o Jo„o, Porto Alegre - RS, 90240-040, Brazil";539;"CONSULTORIO MEDICO";"R DEZOITO DE NOVEMBRO, 800"
"-30.0477333";"-51.2121215";"street_address";"Av. Ipiranga, 1801 - Azenha, Porto Alegre - RS, Brazil";540;"CONSULTORIO MEDICO";"AV IPIRANGA, 1801/41"
"-30.0078754";"-51.1827411";"establishment";"Rua 25 de Julho, 46 - S„o Jo„o, Porto Alegre - RS, 91010-004, Brazil";541;"OFICINA DE CHAPEACAO E PINTURA";"R VINTE CINCO DE JULHO, 220"
"-30.0217289";"-51.192818";"street_address";"R. 24 de Outubro, 1600 - IndependÍncia, Porto Alegre - RS, 90510-001, Brazil";542;"REPRESENTACAO COMERCIAL (INTERMEDIARIOS DE VENDAS DE MERCADORIAS A";"R VINTE QUATRO DE OUTUBRO, 1600/601"
"-30.031743";"-51.196697";"street_address";"R. Quintino Bocai˙va, 1530 - Rio Branco, Porto Alegre - RS, 90440-050, Brazil";543;"SALAO DE BELEZA";"R QUINTINO BOCAIUVA, 1530"
"-30.0852056";"-51.2456904";"street_address";"Av. Di·rio de NotÌcias, 300 - Cristal, Porto Alegre - RS, Brazil";544;"SALAO DE BELEZA";"AV DIARIO DE NOTICIAS, 300/1049"
"-30.0143679";"-51.1726524";"premise";"R. VeranÛpolis, 785 - Passo d'Areia, Porto Alegre - RS, 90520-530, Brazil";545;"PROFISSIONAL AUTONOMO";"R VERANOPOLIS, 785"
"-30.0862046";"-51.2397654";"street_address";"R. Curupaiti, 845 - Cristal, Porto Alegre - RS, 90820-090, Brazil";546;"ESCRITORIO DE SERVICOS JURIDICOS";"R CURUPAITI, 845/201"
"-30.058258";"-51.2292359";"doctor";"R. Costa, 30 - Menino Deus, Porto Alegre - RS, 90110-270, Brazil";547;"CONSULTORIO MEDICO";"R COSTA, 30/308"
"-30.0582136";"-51.2292516";"doctor";"320 - R. Costa, 30 - Sala 309 90110 - Menino Deus, Porto Alegre - RS, 90110-270, Brazil";548;"CONSULTORIO MEDICO";"R COSTA, 30/309"
"-30.1144095";"-51.2541644";"street_address";"R. Dr. M·rio Totta, 624 - Tristeza, Porto Alegre - RS, Brazil";549;"GARAGEM E ESTACIONAMENTO PARA VEICULOS, EXCETO OS DE CARGA OU COLE";"R DR MARIO TOTTA, 624"
