"lat";"long";"accuracy";"formatted_address";"index";"tipo";"default"
"-30.017803";"-51.17009";"street_address";"R. José Scutari, 84 - Passo d'Areia, Porto Alegre - RS, 91340-210, Brazil";1;"REPRESENTACAO COMERCIAL (INTERMEDIARIOS DE VENDAS DE MERCADORIAS A";"R JOSE SCUTARI, 84"
"-30.0223873";"-51.1866844";"street_address";"R. Comendador Rheingantz, 35 - Auxiliadora, Porto Alegre - RS, 90450-020, Brazil";2;"ESCRITORIO ADMINISTRATIVO (SEDE ADMINISTRATIVA DE EMPRESA)";"R COMENDADOR RHEINGANTZ, 35/203"
"-30.035316";"-51.2372457";"street_address";"R. Demétrio Ribeiro, 234 - Centro Histórico, Porto Alegre - RS, 90010-313, Brazil";3;"OFICINA DE ASSISTENCIA TECNICA";"R DEMETRIO RIBEIRO, 234/1"
"-30.0291282";"-51.1815151";"street_address";"Av. Carlos Gomes, 815 - Boa Vista, Porto Alegre - RS, 90480-003, Brazil";4;"ESCRITORIO DE SERVICOS JURIDICOS";"AV CARLOS GOMES, 815/706"
"-30.029678";"-51.2293383";"establishment";"R. dos Andradas, 1234 - Centro Histórico, Porto Alegre - RS, 90010-000, Brazil";5;"CONSULTORIO MEDICO";"R ANDRADAS, 1646/73"
"-30.0454164";"-51.207442";"street_address";"R. Vitória, 29 - Santana, Porto Alegre - RS, 90620-180, Brazil";6;"SERVICO DE SOFTWARE E HARDWARE";"R VITORIA, 29"
"-30.0347463";"-51.2339894";"premise";"R. Gen. Bento Martins, 565 - Centro Histórico, Porto Alegre - RS, 90010-080, Brazil";7;"CONSULTORIO DE TERAPIAS ALTERNATIVAS";"R GEN BENTO MARTINS, 565"
"-30.0275508";"-51.2293029";"street_address";"R. Uruguai, 91 - Centro Histórico, Porto Alegre - RS, 90010-140, Brazil";8;"ESCRITORIO DE CORRETAGEM DE SEGUROS";"R URUGUAI, 91/401"
"-30.14581";"-51.208386";"street_address";"Rua Anna Maria Biazetto, 35 - Parque Urbano, Porto Alegre - RS, 91751-410, Brazil";9;"PROFISSIONAL AUTONOMO";"R ANNA MARIA BIAZETTO, 35"
"-30.04667";"-51.18188";"street_address";"R. Saicã, 182 - Petrópolis, Porto Alegre - RS, 90670-110, Brazil";10;"INSTALACOES ELETRICAS";"R SAICA, 182"
"-30.0389266";"-51.1962103";"street_address";"R. Vicente da Fontoura, 2630 - Rio Branco, Porto Alegre - RS, 90640-001, Brazil";11;"ESCRITORIO DE CORRETAGEM DE IMOVEIS";"R VICENTE DA FONTOURA, 2630/302"
"-30.10731";"-51.238068";"street_address";"R. Dr. Pereira Neto, 1470 - Camaquã, Porto Alegre - RS, 91920-530, Brazil";12;"PROFISSIONAL AUTONOMO";"R DR PEREIRA NETO, 1470/4"
"-30.068397";"-51.180698";"street_address";"Av. Veiga, 633 - Cel. Aparicio Borges, Porto Alegre - RS, 91510-120, Brazil";13;"PROFISSIONAL AUTONOMO";"AV VEIGA, 633/402"
"-30.0296787";"-51.1419077";"route";"R. Enrico Caruso - Jardim Itu-Sabará, Porto Alegre - RS, 91215-300, Brazil";14;"GARAGEM E ESTACIONAMENTO PARA VEICULOS, EXCETO OS DE CARGA OU COLE";"R ENRICO CARUSO, 241"
"-30.0752949";"-51.2079242";"street_address";"Av. Teresópolis, 2438 - Teresópolis, Porto Alegre - RS, Brazil";15;"PROFISSIONAL AUTONOMO";"AV TERESOPOLIS, 2438"
"-30.0504032";"-51.2045653";"street_address";"R. Vicente da Fontoura, 949 - Rio Branco, Porto Alegre - RS, 90640-002, Brazil";16;"TELE-ENTREGAS";"R VICENTE DA FONTOURA, 949"
"-30.0988805";"-51.232497";"street_address";"Rua Stephan Zweig, 83 - Cavalhada, Porto Alegre - RS, 91910-470, Brazil";17;"CONSULTORIO ODONTOLOGICO";"R STEPHAN ZWEIG, 83"
"-30.2072059";"-51.1786505";"street_address";"R. João Viêira de Águiar Sobrinho, 90 - Belém Novo, Porto Alegre - RS, 91780-040, Brazil";18;"PROFISSIONAL AUTONOMO";"R JOAO VIEIRA DE AGUIAR SOBRINHO, 90"
"-30.0381892";"-51.2118579";"street_address";"Av. Venâncio Aires, 912 - Farroupilha, Porto Alegre - RS, 90040-132, Brazil";19;"ESCRITORIO DE SERVICOS JURIDICOS";"AV VENANCIO AIRES, 912/305"
"-30.0623807";"-51.1748176";"street_address";"Av. Bento Gonçalves, 4129 - Partenon, Porto Alegre - RS, 90650-002, Brazil";20;"OFICINA DE REPARACAO DE BICICLETAS";"AV BENTO GONCALVES, 4129"
"-30.029678";"-51.2293383";"establishment";"R. dos Andradas, 1234 - Centro Histórico, Porto Alegre - RS, 90010-000, Brazil";21;"CONSULTORIO MEDICO";"R ANDRADAS, 1273/403"
"-30.0293446";"-51.2073656";"street_address";"R. Mostardeiro, 5 - Independência, Porto Alegre - RS, Brazil";22;"CONSULTORIO MEDICO";"R MOSTARDEIRO, 5/609"
"-30.0407973";"-51.2224334";"street_address";"R. José do Patrocínio, 677 - Cidade Baixa, Porto Alegre - RS, 90050-002, Brazil";23;"SALAO DE BELEZA";"R JOSE DO PATROCINIO, 677/2"
"-30.0314255";"-51.227989";"street_address";"Av. Borges de Medeiros, 549 - Centro, Porto Alegre - RS, 90010-241, Brazil";24;"ESCRITORIO ADMINISTRATIVO (SEDE ADMINISTRATIVA DE EMPRESA)";"AV BORGES DE MEDEIROS, 549/202"
"-30.0312268";"-51.2245934";"street_address";"Av. Sen. Salgado Filho, 327 - Centro Histórico, Porto Alegre - RS, 90010-221, Brazil";25;"CONSULTORIO DE TERAPIAS ALTERNATIVAS";"AV SENADOR SALGADO FILHO, 327/1112"
"-30.0621825";"-51.1678452";"car_repair";"R. Santa Maria, 27 - São José, Porto Alegre - RS, 90460-130, Brazil";26;"PROFISSIONAL AUTONOMO";"R SANTA MARIA, 235"
"-30.0453042";"-51.2302408";"street_address";"R. Celeste Gobbato, 32 - Praia de Belas, Porto Alegre - RS, 90110-160, Brazil";27;"ESCRITORIO DE SERVICOS JURIDICOS";"R CELESTE GOBBATO, 32/303"
"-30.0156897";"-51.1447743";"street_address";"Rua Somália, 227 - Vila Ipiranga, Porto Alegre - RS, 91370-280, Brazil";28;"ESCRITORIO DE SERVICOS JURIDICOS";"R SOMALIA, 227"
"-30.0865277";"-51.2405832";"street_address";"Av. Icaraí, 888 - Cristal, Porto Alegre - RS, 90810-000, Brazil";29;"REPRESENTACAO COMERCIAL (INTERMEDIARIOS DE VENDAS DE MERCADORIAS A";"AV ICARAI, 888"
"-30.0416295";"-51.2179428";"street_address";"R. Gen. Lima e Silva, 1066 - Cidade Baixa, Porto Alegre - RS, 90050-103, Brazil";30;"CONSULTORIO ODONTOLOGICO";"R GEN LIMA E SILVA, 1066/203"
"-30.0253729";"-51.2040939";"street_address";"R. Padre Chagas, 140 - Moinhos de Vento, Porto Alegre - RS, 90570-080, Brazil";31;"PROFISSIONAL LIBERAL,TECNICO E UNIVERSITARIO";"R PADRE CHAGAS, 140/501"
"-30.0254076";"-51.1976332";"establishment";"R. Quintino Bocaiúva, 834 - Moinhos de Vento, Porto Alegre - RS, 90440-050, Brazil";32;"ESCRITORIO DE SERVICOS JURIDICOS";"R QUINTINO BOCAIUVA, 694/407"
"-30.1048517";"-51.2544351";"street_address";"Av. Wenceslau Escobar, 1823 - Cristal, Porto Alegre - RS, Brazil";33;"CONSULTORIO ODONTOLOGICO";"AV WENCESLAU ESCOBAR, 1823/303"
"-30.0304629";"-51.2279618";"street_address";"Av. Borges de Medeiros, 453 - Centro Histórico, Porto Alegre - RS, 90020-021, Brazil";34;"CONSULTORIO MEDICO";"AV BORGES DE MEDEIROS, 453/114"
"-30.0319053";"-51.2045749";"establishment";"R. Casemiro de Abreu, 367 - Boa Vista, Porto Alegre - RS, 90420-001, Brazil";35;"CONSULTORIO MEDICO";"R CASEMIRO DE ABREU, 367/701"
"-30.029678";"-51.2293383";"establishment";"R. dos Andradas, 1234 - Centro Histórico, Porto Alegre - RS, 90010-000, Brazil";36;"CONSULTORIO MEDICO";"R ANDRADAS, 1781/505"
"-30.0177603";"-51.1993049";"street_address";"Av. Cristóvão Colombo, 2162 - Floresta, Porto Alegre - RS, 90560-002, Brazil";37;"CONSULTORIO MEDICO";"AV CRISTOVAO COLOMBO, 2162/303"
"-29.9888904";"-51.1366582";"street_address";"R. Angelina Gonçalves, 370 - Sarandi, Porto Alegre - RS, 91120-020, Brazil";38;"PROFISSIONAL AUTONOMO";"R ANGELINA GONCALVES, 370"
"-29.9868566";"-51.1934798";"premise";"Av. A. J. Renner, 1221 - Humaitá, Porto Alegre - RS, 90250-000, Brazil";39;"GARAGEM E ESTACIONAMENTO PARA VEICULOS, EXCETO OS DE CARGA OU COLE";"AV A J RENNER, 1221"
"-29.9936333";"-51.1949294";"street_address";"Av. Pernambuco, 67 - Navegantes, Porto Alegre - RS, 90240-003, Brazil";40;"OFICINA MECANICA PARA AUTOMOVEIS";"AV PERNAMBUCO, 67"
"-30.0525488";"-51.2224894";"street_address";"Av. Getúlio Vargas, 901 - Menino Deus, Porto Alegre - RS, 90150-001, Brazil";41;"CONSULTORIO MEDICO";"AV GETULIO VARGAS, 901/1303"
"-30.0477333";"-51.2121215";"street_address";"Av. Ipiranga, 1801 - Azenha, Porto Alegre - RS, Brazil";42;"CONSULTORIO MEDICO";"AV IPIRANGA, 1801/27"
"-30.0294717";"-51.2152899";"street_address";"Av. Independência, 601 - Independência, Porto Alegre - RS, 90035-071, Brazil";43;"ESCOLA PREPARATORIA";"AV INDEPENDENCIA, 601/301"
"-30.087428";"-51.204361";"street_address";"R. Fernando Osório, 345 - Teresópolis, Porto Alegre - RS, 91720-330, Brazil";44;"SERVICO DE SOFTWARE E HARDWARE";"R FERNANDO OSORIO, 345"
"-30.162863";"-51.197015";"street_address";"R. Dr. Hermes Pachêco, 546 - Hipica, Porto Alegre - RS, 91755-010, Brazil";45;"ESCRITORIO DE SERVICOS DE DESPACHANTE E PROCURADOR";"R DR HERMES PACHECO, 546"
"-30.0290601";"-51.2036229";"street_address";"R. Mostardeiro, 333 - Rio Branco, Porto Alegre - RS, Brazil";46;"CONSULTORIO MEDICO";"R MOSTARDEIRO, 333/120"
"-30.0309412";"-51.1487641";"premise";"Av. dos Prazeres, 1053 - Vila Jardim, Porto Alegre - RS, 91320-150, Brazil";47;"OFICINA DE REPARACAO E MANUTENCAO DE VEICULOS AU- TOMOTORES,EXCLUS";"AV PRAZERES, 1053"
"-30.0133703";"-51.1678229";"street_address";"Av. Andaraí, 157 - Passo d'Areia, Porto Alegre - RS, 91350-110, Brazil";48;"ESCRITORIO DE CONTABILIDADE";"R ANDARAI, 157/408"
"-30.0346471";"-51.2176584";"locality";"Porto Alegre, RS, Brazil";49;"PROFISSIONAL AUTONOMO";"R PROF AMY HERVE RAMIREZ, 100/121"
"-30.0137654";"-51.1647166";"street_address";"Av. João Wallig, 234 - Passo d'Areia, Porto Alegre - RS, 91340-000, Brazil";50;"OFICINA MECANICA PARA AUTOMOVEIS";"AV JOAO WALLIG, 234"
"-30.1412211";"-51.220916";"premise";"R. Ladislau Neto, 518 - Ipanema, Porto Alegre - RS, 91760-070, Brazil";51;"PROFISSIONAL AUTONOMO";"R LADISLAU NETO, 518"
"-30.0184196";"-51.2030048";"street_address";"Av. Cristóvão Colombo, 1773 - Floresta, Porto Alegre - RS, 90560-003, Brazil";52;"EMPRESA DE LIMPEZA";"AV CRISTOVAO COLOMBO, 1773/307"
"-30.01016";"-51.1884843";"street_address";"R. Dom Pedro II, 390 - São João, Porto Alegre - RS, 90550-140, Brazil";53;"REPRESENTACAO COMERCIAL (INTERMEDIARIOS DE VENDAS DE MERCADORIAS A";"R DOM PEDRO II, 390/112"
"-30.0419148";"-51.1793404";"street_address";"Av. Montenegro, 13 - Petrópolis, Porto Alegre - RS, 90460-160, Brazil";54;"CONSULTORIO MEDICO";"AV MONTENEGRO, 13/305"
"-30.0322623";"-51.228076";"street_address";"Av. Borges de Medeiros, 659 - Centro Histórico, Porto Alegre - RS, 90010-240, Brazil";55;"ESCRITORIO ADMINISTRATIVO (SEDE ADMINISTRATIVA DE EMPRESA)";"AV BORGES DE MEDEIROS, 659"
"-30.0156394";"-51.1095574";"street_address";"Av. Baltazar de Oliveira Garcia, 3600 - São Sebastião, Porto Alegre - RS, Brazil";56;"CONSULTORIO MEDICO";"AV BALTAZAR DE OLIVEIRA GARCIA, 3600"
"-30.019196";"-51.210939";"street_address";"Rua Hoffmann, 265 - Floresta, Porto Alegre - RS, 90220-170, Brazil";57;"ESTUDIO DE DESENHO";"R HOFFMANN, 265/202"
"-30.0602363";"-51.2294788";"street_address";"R. Antenor Lemos, 57 - Menino Deus, Porto Alegre - RS, 90850-100, Brazil";58;"CONSULTORIO MEDICO";"R ANTENOR LEMOS, 57/304"
"-30.0136404";"-51.1901771";"street_address";"R. Américo Vespúcio, 215 - Higienópolis, Porto Alegre - RS, 90550-030, Brazil";59;"SALAO DE BELEZA";"R AMERICO VESPUCIO, 215"
"-30.041351";"-51.22458";"street_address";"Rua Luiz Afonso, 630 - Cidade Baixa, Porto Alegre - RS, 90050-310, Brazil";60;"ESCRITORIO ADMINISTRATIVO (SEDE ADMINISTRATIVA DE EMPRESA)";"R LUIZ AFONSO, 630/101"
"-30.0534942";"-51.2211166";"street_address";"R. Visc. do Herval, 759 - Menino Deus, Porto Alegre - RS, 90130-150, Brazil";61;"LOCACAO DE MAO-DE-OBRA";"R VISCONDE DO HERVAL, 759"
"-30.0220611";"-51.191774";"street_address";"R. 24 de Outubro, 1681 - Auxiliadora, Porto Alegre - RS, Brazil";62;"CONSULTORIO ODONTOLOGICO";"R VINTE QUATRO DE OUTUBRO, 1681/701"
"-30.0973512";"-51.2290929";"premise";"Av. da Cavalhada, 2166 - Cavalhada, Porto Alegre - RS, Brazil";63;"CONSULTORIO MEDICO";"AV CAVALHADA, 2166"
"-30.058258";"-51.2292359";"doctor";"R. Costa, 30 - Menino Deus, Porto Alegre - RS, 90110-270, Brazil";64;"CONSULTORIO MEDICO";"R COSTA, 30/504"
"-30.038594";"-51.155213";"street_address";"R. Barão de Bagé, 297 - Vila Jardim, Porto Alegre - RS, 91330-570, Brazil";65;"ESCRITORIO DE SERVICOS DE ASSESSORIA";"R BARAO DE BAGE, 297"
"-30.0290073";"-51.2109416";"street_address";"Av. Independência, 1010 - Independência, Porto Alegre - RS, 90035-072, Brazil";66;"SALAO DE BELEZA";"AV INDEPENDENCIA, 1010"
"-30.058258";"-51.2292359";"doctor";"R. Costa, 30 - Menino Deus, Porto Alegre - RS, 90110-270, Brazil";67;"CONSULTORIO MEDICO";"R COSTA, 30/301"
"-30.0552796";"-51.1733766";"street_address";"Av. Ipiranga, 6690 - Jardim Botânico, Porto Alegre - RS, Brazil";68;"CONSULTORIO MEDICO";"AV IPIRANGA, 6690/412"
"-30.029055";"-51.2055621";"street_address";"R. Mostardeiro, 157 - Independência, Porto Alegre - RS, Brazil";69;"CONSULTORIO MEDICO";"R MOSTARDEIRO, 157/401"
"-30.0507193";"-51.2163633";"street_address";"R. Nunes Machado, 42 - Azenha, Porto Alegre - RS, Brazil";70;"ESTUDIO DE PINTURA,DESENHO E ESCULTURA";"R NUNES MACHADO, 42/303"
"-30.0150891";"-51.1518946";"route";"R. Limoeiro - Cristo Redentor, Porto Alegre - RS, Brazil";71;"EDITORACAO GRAFICA, EDICAO E IMPRESSAO DE OUTROS  PRODUTOS GRAFICO";"R LIMOEIRO, 28"
"-30.002784";"-51.135845";"street_address";"R. Nehita Martins Ramos, 127 - Sarandi, Porto Alegre - RS, 91110-160, Brazil";72;"ESCRITORIO DE SERVICOS DE CONSULTORIA";"R NEHITA MARTINS RAMOS, 127"
"-30.0257783";"-51.2231995";"establishment";"Rua Chaves Barcellos, 161 - Centro, Porto Alegre - RS, 90030-120, Brazil";73;"ESCRITORIO DE SERVICOS JURIDICOS";"R CHAVES BARCELOS, 36/802"
"-30.0586169";"-51.2297356";"street_address";"Av. Praia de Belas, 2266 - Menino Deus, Porto Alegre - RS, 90110-000, Brazil";74;"CONSULTORIO MEDICO";"AV PRAIA DE BELAS, 2266/306"
"-30.0301509";"-51.2172168";"street_address";"R. Dr. Barros Cassal, 528 - Floresta, Porto Alegre - RS, 90035-030, Brazil";75;"CONSULTORIO MEDICO";"R DR BARROS CASSAL, 528"
"-30.1062625";"-51.2293647";"street_address";"Av. da Cavalhada, 3415 - Cavalhada, Porto Alegre - RS, 91740-001, Brazil";76;"OFICINA-SERRALHERIA";"AV CAVALHADA, 3415"
"-30.0304216";"-51.2288667";"street_address";"R. Gen. Andrade Neves, 100 - Centro Histórico, Porto Alegre - RS, Brazil";77;"ESCRITORIO DE CONTABILIDADE";"R GEN ANDRADE NEVES, 100/805"
"-30.0801559";"-51.2425622";"street_address";"Av. Taquari, 673 - Cristal, Porto Alegre - RS, 90810-180, Brazil";78;"GARAGEM E ESTACIONAMENTO PARA VEICULOS, EXCETO OS DE CARGA OU COLE";"R TAQUARY, 673"
"-30.029678";"-51.2293383";"establishment";"R. dos Andradas, 1234 - Centro Histórico, Porto Alegre - RS, 90010-000, Brazil";79;"CONSULTORIO MEDICO";"R ANDRADAS, 1742/701"
"-30.017016";"-51.1847456";"premise";"Av. Cristóvão Colombo, 3550 - Floresta, Porto Alegre - RS, 90560-003, Brazil";80;"CONSULTORIO MEDICO";"AV CRISTOVAO COLOMBO, 3550"
"-30.028389";"-51.2062381";"street_address";"R. 24 de Outubro, 111 - Independência, Porto Alegre - RS, 90510-002, Brazil";81;"CONSULTORIO MEDICO";"R VINTE QUATRO DE OUTUBRO, 111/605"
"-30.0551152";"-51.2222415";"street_address";"Av. Getúlio Vargas, 1184 - Menino Deus, Porto Alegre - RS, 90150-004, Brazil";82;"CONSULTORIO MEDICO";"AV GETULIO VARGAS, 1184/404"
"-30.0389266";"-51.1962103";"street_address";"R. Vicente da Fontoura, 2630 - Rio Branco, Porto Alegre - RS, 90640-001, Brazil";83;"CONSULTORIO ODONTOLOGICO";"R VICENTE DA FONTOURA, 2630/402"
"-30.081066";"-51.228058";"street_address";"R. Cruzeiro do Sul, 2313 - Santa Tereza, Porto Alegre - RS, 90840-000, Brazil";84;"CONSULTORIO ODONTOLOGICO";"R CRUZEIRO DO SUL, 2313/2"
"-30.0120696";"-51.1696078";"street_address";"Av. Assis Brasil, 1791 - Higienópolis, Porto Alegre - RS, 90520-002, Brazil";85;"EDITORACAO GRAFICA, EDICAO E IMPRESSAO DE OUTROS  PRODUTOS GRAFICO";"AV ASSIS BRASIL, 1791/606"
"-30.0223194";"-51.2007992";"establishment";"R. Tobias da Silva, 120 - Conjunto 603 - Moinhos de Vento, Porto Alegre - RS, 90570-020, Brazil";86;"CONSULTORIO ODONTOLOGICO";"R TOBIAS DA SILVA, 267/204"
"-30.0261953";"-51.2013983";"street_address";"R. Comendador Caminha, 312 - Moinhos de Vento, Porto Alegre - RS, 90430-030, Brazil";87;"CONSULTORIO MEDICO";"R COMENDADOR CAMINHA, 312/204"
"-30.053706";"-51.21662";"street_address";"R. Visc. do Herval, 1192 - Menino Deus, Porto Alegre - RS, 90130-150, Brazil";88;"ESCRITORIO DE CONTABILIDADE E AUDITORIA";"R VISCONDE DO HERVAL, 1192"
"-30.0426421";"-51.2207438";"street_address";"R. José do Patrocínio, 929 - Cidade Baixa, Porto Alegre - RS, 90050-002, Brazil";89;"GARAGEM E ESTACIONAMENTO PARA VEICULOS, EXCETO OS DE CARGA OU COLE";"R JOSE DO PATROCINIO, 929"
"-30.0144757";"-51.1647311";"street_address";"Av. João Wallig, 306 - Passo d'Areia, Porto Alegre - RS, 91340-000, Brazil";90;"OFICINA DE REPARACAO DE APARELHOS ELETRONICOS";"AV JOAO WALLIG, 306"
"-30.048814";"-51.208663";"street_address";"Av. Princesa Isabel, 395 - Santana, Porto Alegre - RS, 90620-001, Brazil";91;"CONSULTORIO MEDICO";"AV PRINCESA ISABEL, 395"
"-30.0234423";"-51.19079";"street_address";"R. Silva Jardim, 157 - Auxiliadora, Porto Alegre - RS, 90450-071, Brazil";92;"REPRESENTACAO COMERCIAL (INTERMEDIARIOS DE VENDAS DE MERCADORIAS A";"R SILVA JARDIM, 157/502"
"-30.0178358";"-51.1885547";"street_address";"R. Felicissimo de Azevedo, 1020 - São João, Porto Alegre - RS, 90540-110, Brazil";93;"REPRESENTACAO COMERCIAL (INTERMEDIARIOS DE VENDAS DE MERCADORIAS A";"R FELICISSIMO DE AZEVEDO, 1020/503"
"-30.0056659";"-51.1819468";"establishment";"R. São Nicolau, 354 - Santa Maria Goretti, Porto Alegre - RS, 91770-440, Brazil";94;"TELE-ENTREGAS";"R SAO NICOLAU, 354"
"-30.020539";"-51.197405";"street_address";"R. Cel. Bordini, 289 - Auxiliadora, Porto Alegre - RS, 90440-000, Brazil";95;"CONSULTORIO MEDICO";"R CEL BORDINI, 289"
"-30.105513";"-51.248398";"street_address";"R. Dr. Barcelos, 1071 - Tristeza, Porto Alegre - RS, 91910-251, Brazil";96;"INSTALACOES ELETRICAS";"R DR BARCELOS, 1071"
"-30.0369741";"-51.1805022";"street_address";"Av. Lajeado, 991 - Petrópolis, Porto Alegre - RS, 90460-110, Brazil";97;"SALAO DE BELEZA";"AV LAGEADO, 991"
"-30.0925545";"-51.2390104";"street_address";"R. Dr. Campos Velho, 706 - Cristal, Porto Alegre - RS, 90820-000, Brazil";98;"ACADEMIA DE ENSINO E/OU PRATICA DE GINASTICA";"R DR CAMPOS VELHO, 706"
"-30.1076";"-51.258091";"street_address";"R. Vicente Failace, 105 - Tristeza, Porto Alegre - RS, 91900-270, Brazil";99;"ESCRITORIO DE CORRETAGEM DE IMOVEIS";"R VICENTE FAILACE, 475/105"
"-30.0263803";"-51.2175025";"street_address";"Av. Farrapos, 146 - Floresta, Porto Alegre - RS, 90220-004, Brazil";100;"ESCRITORIO DE SERVICOS JURIDICOS";"AV FARRAPOS, 146/143"
"-30.0283328";"-51.2083779";"street_address";"Praça Júlio de Castilhos, 20 - Independência, Porto Alegre - RS, 90510-002, Brazil";101;"CONSULTORIO MEDICO";"PCA JULIO DE CASTILHOS, 20/301"
"-30.0217049";"-51.196938";"street_address";"R. Cel. Bordini, 414 - Auxiliadora, Porto Alegre - RS, 90440-003, Brazil";102;"CONSULTORIO MEDICO";"R CEL BORDINI, 414"
"-30.0552796";"-51.1733766";"street_address";"Av. Ipiranga, 6690 - Jardim Botânico, Porto Alegre - RS, Brazil";103;"CONSULTORIO MEDICO";"AV IPIRANGA, 6690/615"
"-30.0346471";"-51.2176584";"locality";"Porto Alegre, RS, Brazil";104;"PROFISSIONAL AUTONOMO";"R S VILA RESTINGA VELHA, 550"
"-30.0338326";"-51.1777811";"street_address";"Av. Carlos Gomes, 1492 - Auxiliadora, Porto Alegre - RS, 90480-001, Brazil";105;"CONSULTORIO MEDICO";"AV CARLOS GOMES, 1492/1606"
"-30.0177603";"-51.1993049";"street_address";"Av. Cristóvão Colombo, 2162 - Floresta, Porto Alegre - RS, 90560-002, Brazil";106;"CONSULTORIO ODONTOLOGICO";"AV CRISTOVAO COLOMBO, 2162/401"
"-30.0468749";"-51.2095987";"street_address";"R. Prof. Freitas e Castro, 810 - Azenha, Porto Alegre - RS, 90040-401, Brazil";107;"ESCRITORIO DE SERVICOS DE DESPACHANTE E PROCURADOR";"R PROF FREITAS E CASTRO, 810/201"
"-30.0277436";"-51.2243996";"street_address";"Rua Doutor Flores, 62 - Centro Histórico, Porto Alegre - RS, Brazil";108;"ESCRITORIO DE SERVICOS JURIDICOS";"R DR FLORES, 62/802"
"-30.0240272";"-51.2018431";"street_address";"R. Padre Chagas, 415 - Moinhos de Vento, Porto Alegre - RS, 90570-080, Brazil";109;"CONSULTORIO MEDICO";"R PADRE CHAGAS, 415/203"
"-30.0332469";"-51.2261976";"street_address";"R. Vig. José Inácio, 843 - Centro Histórico, Porto Alegre - RS, 90020-110, Brazil";110;"SALAO DE BELEZA";"R VIGARIO JOSE IGNACIO, 843"
"-30.0074467";"-51.1871931";"street_address";"Av. Benjamin Constant, 134 - São João, Porto Alegre - RS, 90550-003, Brazil";111;"ESCRITORIO DE ARQUITETURA";"AV BENJAMIN CONSTANT, 134/21"
"-30.0470078";"-51.2095469";"street_address";"R. Prof. Freitas e Castro, 811 - Azenha, Porto Alegre - RS, 90040-401, Brazil";112;"FOTOCOPIAS, COPIAS HELIOGRAFICAS E PLASTIFICACAO";"R PROF FREITAS E CASTRO, 811"
"-30.033713";"-51.2049547";"street_address";"R. São Manoel, 7 - Santa Cecilia, Porto Alegre - RS, 90620-110, Brazil";113;"CONSULTORIO ODONTOLOGICO";"R SAO MANOEL, 7"
"-30.1151415";"-51.2195948";"route";"R. Cel. Otaviano Pinto Soares - Vila Nova, Porto Alegre - RS, Brazil";114;"PROFISSIONAL AUTONOMO";"R CEL OCTAVIANO PINTO SOARES, 385/307"
"-30.066139";"-51.209583";"street_address";"R. Cel. Neves, 270 - Medianeira, Porto Alegre - RS, 90870-280, Brazil";115;"OFICINA DE ASSISTENCIA TECNICA";"R CEL NEVES, 270"
"-30.0294634";"-51.2045172";"street_address";"R. Mariante, 239 - Rio Branco, Porto Alegre - RS, 90430-181, Brazil";116;"CONSULTORIO DE PSIQUIATRIA";"R MARIANTE, 239/405"
"-30.0263059";"-51.1935309";"premise";"Av. Mariland, 1293 - São João, Porto Alegre - RS, 90440-191, Brazil";117;"ESCRITORIO DE ARQUITETURA";"AV MARILAND, 1293"
"-30.02736";"-51.203174";"establishment";"R. Dr. Florêncio Ygartua, 65 - Loja 22 - Moinhos de Vento, Porto Alegre - RS, 90430-010, Brazil";118;"CONSULTORIO MEDICO";"R DR FLORENCIO YGARTUA, 131/406"
"-30.0470078";"-51.2095469";"street_address";"R. Prof. Freitas e Castro, 811 - Azenha, Porto Alegre - RS, 90040-401, Brazil";119;"ESTUDIO FOTOGRAFICO";"R PROF FREITAS E CASTRO, 811"
"-30.0229095";"-51.1084561";"route";"R. Dr. Vargas Neto, Porto Alegre - RS, Brazil";120;"PROFISSIONAL AUTONOMO";"R DR VARGAS NETO, 160/416"
"-30.0592525";"-51.190744";"street_address";"R. Guilherme Alves, 1337 - Petrópolis, Porto Alegre - RS, Brazil";121;"OFICINA DE REPARACAO DE MAQUINAS E APARELHOS ELE- TRICOS OU NAO";"R GUILHERME ALVES, 1337"
"-30.03943";"-51.211943";"street_address";"R. Viêira de Castro, 179 - Santana, Porto Alegre - RS, 90040-320, Brazil";122;"ESCRITORIO DE AVALIACAO DE BENS-PERICIAIS/LAUDOS/ EXAMES/ANALISES";"R VIEIRA DE CASTRO, 179/202"
"-30.066471";"-51.202443";"street_address";"R. Marieta, 249 - Paternon, Porto Alegre - RS, 90660-150, Brazil";123;"CONFECCAO SOB MEDIDA DE ARTIGOS DO VESTUARIO";"R MARIETA, 249"
"-30.0391337";"-51.2198468";"street_address";"R. Gen. Lima e Silva, 776 - Cidade Baixa, Porto Alegre - RS, 90050-100, Brazil";124;"SALAO DE BELEZA";"R GEN LIMA E SILVA, 776/10"
"-30.0250036";"-51.2034815";"cafe";"R. Padre Chagas, 220 - Moinhos de Vento, Porto Alegre - RS, 90570-080, Brazil";125;"SALAO DE BELEZA";"R PADRE CHAGAS, 327/11"
"-30.004059";"-51.1918516";"street_address";"Rua Pereira Franco, 352 - São João, Porto Alegre - RS, 90240-520, Brazil";126;"REPRESENTACAO COMERCIAL (INTERMEDIARIOS DE VENDAS DE MERCADORIAS A";"R PEREIRA FRANCO, 352"
"-30.1210508";"-51.2026754";"street_address";"Estr. Cristiano Kraemer, 607 - Vila Nova, Porto Alegre - RS, 91750-060, Brazil";127;"PROFISSIONAL AUTONOMO";"ESTR CRISTIANO KRAEMER, 607"
"-30.0393204";"-51.2239151";"street_address";"R. José do Patrocínio, 473 - Cidade Baixa, Porto Alegre - RS, 90050-001, Brazil";128;"OFICINA DE REPARACAO DE MAQUINAS E APARELHOS ELE- TRICOS OU NAO";"R JOSE DO PATROCINIO, 473"
"-30.0302647";"-51.2231911";"street_address";"Rua Professor Annes Dias, 154 - Centro Histórico, Porto Alegre - RS, 90020-090, Brazil";129;"CONSULTORIO MEDICO";"R PROF ANNES DIAS, 154/705"
"-30.06474";"-51.171888";"street_address";"R. Mal. Mallet, 305 - Vila Joao Pessoa, Porto Alegre - RS, 91520-600, Brazil";130;"PROFISSIONAL AUTONOMO";"R MARECHAL MALLET, 102"
"-30.038333";"-51.2049803";"street_address";"R. São Manoel, 506 - Rio Branco, Porto Alegre - RS, 90620-110, Brazil";131;"CONSULTORIO ODONTOLOGICO";"R SAO MANOEL, 506"
"-30.0293447";"-51.2224893";"street_address";"Praça Dom Feliciano, 78 - Centro Histórico, Porto Alegre - RS, 90020-160, Brazil";132;"CONSULTORIO MEDICO";"PCA DOM FELICIANO, 78/205"
"-30.0289161";"-51.2040906";"street_address";"R. Mostardeiro, 291 - Independência, Porto Alegre - RS, Brazil";133;"CONSULTORIO MEDICO";"R MOSTARDEIRO, 291/207"
"-30.0383114";"-51.1767473";"street_address";"Av. Iguaçu, 520 - Petrópolis, Porto Alegre - RS, 90470-430, Brazil";134;"PROFISSIONAL AUTONOMO";"AV IGUASSU, 520/201"
"-30.0282176";"-51.2265508";"street_address";"Praça Quinze de Novembro, 66 - Centro Histórico, Porto Alegre - RS, 90020-061, Brazil";135;"ESCRITORIO DE SERVICOS JURIDICOS";"PCA QUINZE DE NOVEMBRO, 66/1404"
"-30.0281315";"-51.2248061";"street_address";"Rua Doutor Flores, 105 - Centro Histórico, Porto Alegre - RS, Brazil";136;"ESCRITORIO DE CONTABILIDADE";"R DR FLORES, 105/1105"
"-30.0278384";"-51.2304199";"establishment";"R. Gen. Câmara, 60 - Centro Histórico, Porto Alegre - RS, 90010-230, Brazil";137;"ESCRITORIO DE SERVICOS JURIDICOS";"R GEN CAMARA, 243/1101"
"-30.0222036";"-51.1518193";"street_address";"Av. do Forte, 1297 - Vila Ipiranga, Porto Alegre - RS, 91360-001, Brazil";138;"OFICINA DE MAQUINAS DE ESCRITORIO E SIMILARES";"AV FORTE, 1297"
"-30.0812334";"-51.2101274";"street_address";"Av. Engenheiro Ludolfo Boehl, 205 - Teresópolis, Porto Alegre - RS, 91720-150, Brazil";139;"CONSULTORIO ODONTOLOGICO";"AV ENG LUDOLFO BOEHL, 205/701"
"-29.9810696";"-51.1848889";"street_address";"Av. José Aloísio Filho, 801 - Humaitá, Porto Alegre - RS, Brazil";140;"AGENCIA DE VIAGENS E TURISMO";"AV JOSE ALOISIO FILHO, 801/72"
"-30.0245631";"-51.182861";"street_address";"Av. Carlos Gomes, 300 - Boa Vista, Porto Alegre - RS, Brazil";141;"ESCRITORIO DE PARTICIPACAO EM OUTRAS EMPRESAS     MEDIANTE COMPRA/";"AV CARLOS GOMES, 300/1602"
"-30.0946594";"-51.2226342";"street_address";"Av. Nonoai, 1458 - Nonoai, Porto Alegre - RS, Brazil";142;"PROFISSIONAL AUTONOMO";"AV NONOAI, 1458/334"
"-30.0255716";"-51.202528";"establishment";"R. Luciana de Abreu, 471 - Moinhos de Vento, Porto Alegre - RS, 90570-060, Brazil";143;"CONSULTORIO MEDICO";"R LUCIANA DE ABREU, 267/208"
"-30.0035267";"-51.191505";"street_address";"Rua Pereira Franco, 391 - São João, Porto Alegre - RS, 90240-520, Brazil";144;"GARAGEM E ESTACIONAMENTO PARA VEICULOS, EXCETO OS DE CARGA OU COLE";"R PEREIRA FRANCO, 391"
"-30.041457";"-51.1826848";"street_address";"Av. Taquara, 586 - Petrópolis, Porto Alegre - RS, 90460-210, Brazil";145;"CONSULTORIO ODONTOLOGICO";"AV TAQUARA, 586/304"
"-30.022789";"-51.2126034";"street_address";"Av. Farrapos, 831 - Floresta, Porto Alegre - RS, 90220-004, Brazil";146;"CONFECCAO SOB MEDIDA DE ARTIGOS DO VESTUARIO";"AV FARRAPOS, 831/2"
"-30.030257";"-51.2028059";"street_address";"R. Dr. Florêncio Ygartua, 412 - Moinhos de Vento, Porto Alegre - RS, 90430-010, Brazil";147;"CONSULTORIO DE PSIQUIATRIA";"R DR FLORENCIO YGARTUA, 412/5"
"-30.0281551";"-51.1811297";"street_address";"Alameda Coelho Neto, 20 - Boa Vista, Porto Alegre - RS, 91340-340, Brazil";148;"ESCRITORIO DE SERVICOS DE CONSULTORIA";"AL COELHO NETO, 20/208"
"-30.0278384";"-51.2304199";"establishment";"R. Gen. Câmara, 60 - Centro Histórico, Porto Alegre - RS, 90010-230, Brazil";149;"ESCRITORIO DE SERVICOS JURIDICOS";"R GEN CAMARA, 243"
"-30.0007156";"-51.2064361";"street_address";"R. Voluntários da Pátria, 3877 - Centro Histórico, Porto Alegre - RS, Brazil";150;"BORRACHARIA/VULCANIZADORA";"R VOLUNTARIOS DA PATRIA, 3877"
"-30.0227572";"-51.2124057";"street_address";"Av. Farrapos, 859 - Floresta, Porto Alegre - RS, 90220-004, Brazil";151;"OFICINA MECANICA PARA AUTOMOVEIS";"AV FARRAPOS, 859"
"-30.031317";"-51.2110755";"street_address";"Rua Fernandes Vieira, 217 - Bom Fim, Porto Alegre - RS, 90035-091, Brazil";152;"ESCRITORIO DE ENGENHARIA";"R FERNANDES VIEIRA, 217/3"
"-30.0519162";"-51.2137634";"street_address";"Rua General Caldwell, 1357 - Menino Deus, Porto Alegre - RS, 90130-050, Brazil";153;"IMOBILIARIA";"R GEN CALDWELL, 1357/305"
"-30.0147568";"-51.1200908";"route";"Av. Baltazar de Oliveira Garcia, Porto Alegre - RS, Brazil";154;"OFICINA DE TROCA E COLOCACAO DE SURDINAS, MOLAS,  AMORTECEDORES E";"AV BALTAZAR DE OLIVEIRA GARCIA, 1685"
"-30.0514154";"-51.2218546";"street_address";"Av. Getúlio Vargas, 774 - Menino Deus, Porto Alegre - RS, 90150-002, Brazil";155;"OFICINA DE REPARACAO DE INSTALACOES ELETRICAS,HI- DRAULICAS E DE G";"AV GETULIO VARGAS, 774/101"
"-30.1123627";"-51.2563861";"premise";"R. Dr. Armando Barbedo, 300 - Tristeza, Porto Alegre - RS, 91920-520, Brazil";156;"ACADEMIA DE ENSINO E/OU PRATICA DE ESPORTE COLETI-VO";"R DR ARMANDO BARBEDO, 300"
"-30.147791";"-51.203998";"street_address";"Av. Juca Batista, 2528 - Aberta dos Morros, Porto Alegre - RS, 91755-000, Brazil";157;"OFICINA DE TROCA E COLOCACAO DE SURDINAS, MOLAS,  AMORTECEDORES E";"AV JUCA BATISTA, 2528/3"
"-30.0460485";"-51.1345931";"route";"R. Luís Lederman - Alto Petrópolis, Porto Alegre - RS, Brazil";158;"PROFISSIONAL AUTONOMO";"R LUIS LEDERMAN, 360/307"
"-30.0284088";"-51.1628733";"street_address";"Av. Dr. Nilo Peçanha, 2825 - Chácara das Pedras, Porto Alegre - RS, 91330-001, Brazil";159;"CONSULTORIO MEDICO";"AV DR NILO PECANHA, 2825/704"
"-30.0302647";"-51.2231911";"street_address";"Rua Professor Annes Dias, 154 - Centro Histórico, Porto Alegre - RS, 90020-090, Brazil";160;"PROFISSIONAL LIBERAL,TECNICO E UNIVERSITARIO";"R PROF ANNES DIAS, 154/1502"
"-30.0228793";"-51.1886351";"street_address";"Av. Plínio Brasil Milano, 243 - Higienópolis, Porto Alegre - RS, 90520-002, Brazil";161;"CONFECCAO SOB MEDIDA DE ARTIGOS DO VESTUARIO";"AV PLINIO BRASIL MILANO, 243"
"-30.0126654";"-51.1521653";"establishment";"207 - R. Zéca Neto - Cristo Redentor, Porto Alegre - RS, 91370-100, Brazil";162;"SALAO DE BELEZA";"R ZECA NETO, 45/301"
"-30.045443";"-51.204863";"street_address";"R. Bernardo Píres, 280 - Santana, Porto Alegre - RS, 90620-010, Brazil";163;"IMOBILIARIA";"R BERNARDO PIRES, 280/201"
"-30.0804708";"-51.1974579";"street_address";"R. Prof. Oscar Pereira, 3590 - Glória, Porto Alegre - RS, Brazil";164;"OFICINA DE REPARACAO DE APARELHOS ELETRONICOS";"AV PROF OSCAR PEREIRA, 3590"
"-30.0499053";"-51.211546";"street_address";"Av. Princesa Isabel, 160 - Azenha, Porto Alegre - RS, Brazil";165;"PROFISSIONAL AUTONOMO";"AV PRINCESA ISABEL, 160/1003"
"-30.0301062";"-51.2244968";"street_address";"Rua Doutor Flores, 330 - Centro Histórico, Porto Alegre - RS, 90020-122, Brazil";166;"LABORATORIO DE PROTESE";"R DR FLORES, 330/38"
"-30.016991";"-51.1976136";"street_address";"Av. Benjamin Constant, 1835 - São João, Porto Alegre - RS, Brazil";167;"ESCRITORIO DE CORRETAGEM DE IMOVEIS";"AV BENJAMIN CONSTANT, 1835/503"
"-30.0550374";"-51.1822751";"street_address";"R. Dona Inocência, 18 - Jardim Botânico, Porto Alegre - RS, 90690-030, Brazil";168;"OFICINA MECANICA PARA AUTOMOVEIS";"R DONA INOCENCIA, 18"
"-30.0115842";"-51.2038695";"street_address";"R. Moura Azevedo, 593 - São Geraldo, Porto Alegre - RS, 90230-151, Brazil";169;"ESCRITORIO DE CONTABILIDADE E AUDITORIA";"R MOURA AZEVEDO, 593/301"
"-30.044491";"-51.2209593";"route";"Av. Getúlio Vargas - Cidade Baixa, Porto Alegre - RS, Brazil";170;"CONSULTORIO MEDICO";"AV GETULIO VARGAS, 11847/404"
"-30.0795724";"-51.2090472";"street_address";"Av. Teresópolis, 2956 - Teresópolis, Porto Alegre - RS, 90870-000, Brazil";171;"OFICINA DE REPARACAO DE JOIAS E RELOGIOS";"AV TERESOPOLIS, 2956/204"
"-30.0106703";"-51.1708141";"street_address";"Av. Assis Brasil, 1631 - Passo d'Areia, Porto Alegre - RS, 91010-004, Brazil";172;"REPRESENTACAO COMERCIAL (INTERMEDIARIOS DE VENDAS DE MERCADORIAS A";"AV ASSIS BRASIL, 1631"
"-30.0106703";"-51.1708141";"street_address";"Av. Assis Brasil, 1631 - Passo d'Areia, Porto Alegre - RS, 91010-004, Brazil";173;"CONSULTORIO MEDICO";"AV ASSIS BRASIL, 1631/103"
"-30.0264238";"-51.222395";"establishment";"Praça Osvaldo Cruz, 15 - Centro Histórico, Porto Alegre - RS, 90010-130, Brazil";174;"ESCRITORIO DE CONTABILIDADE E AUDITORIA";"PCA OSVALDO CRUZ, 15/1606"
"-30.0525488";"-51.2224894";"street_address";"Av. Getúlio Vargas, 901 - Menino Deus, Porto Alegre - RS, 90150-001, Brazil";175;"ESCRITORIO DE SERVICOS JURIDICOS";"AV GETULIO VARGAS, 901/1503"
"-30.0273615";"-51.2294131";"establishment";"R. Uruguai, 45 - Centro Histórico, Porto Alegre - RS, 90010-000, Brazil";176;"ESCRITORIO DE SERVICOS JURIDICOS";"R URUGUAI, 335/157"
"-30.0407258";"-51.1665593";"street_address";"Av. Protásio Alves, 4497 - Alto Petrópolis, Porto Alegre - RS, Brazil";177;"OFICINA DE REPARACAO DE INSTALACOES ELETRICAS,HI- DRAULICAS E DE G";"AV PROTASIO ALVES, 4497"
"-30.020712";"-51.194781";"street_address";"R. Mata Bacelar, 154 - Auxiliadora, Porto Alegre - RS, 90540-150, Brazil";178;"REPRESENTACAO COMERCIAL (INTERMEDIARIOS DE VENDAS DE MERCADORIAS A";"R MATA BACELAR, 154"
"-30.0284088";"-51.1628733";"street_address";"Av. Dr. Nilo Peçanha, 2825 - Chácara das Pedras, Porto Alegre - RS, 91330-001, Brazil";179;"ESCRITORIO DE SERVICOS JURIDICOS";"AV DR NILO PECANHA, 2825/508"
"-30.0578171";"-51.2225956";"street_address";"R. Saldanha Marinho, 33 - Menino Deus, Porto Alegre - RS, 90160-240, Brazil";180;"ESCRITORIO DE CONTABILIDADE";"R SALDANHA MARINHO, 33/904"
"-30.0951984";"-51.2290827";"premise";"R. Dona Zulmira, 315 - Cavalhada, Porto Alegre - RS, 90830-240, Brazil";181;"GARAGEM E ESTACIONAMENTO PARA VEICULOS, EXCETO OS DE CARGA OU COLE";"R DONA ZULMIRA, 315"
"-30.0640241";"-51.1851133";"premise";"Av. Bento Gonçalves, 3045 - Partenon, Porto Alegre - RS, 90650-003, Brazil";182;"BORRACHARIA/VULCANIZADORA";"AV BENTO GONCALVES, 3045"
"-30.028389";"-51.2062381";"street_address";"R. 24 de Outubro, 111 - Independência, Porto Alegre - RS, 90510-002, Brazil";183;"CONSULTORIO MEDICO";"R VINTE QUATRO DE OUTUBRO, 111/1005"
"-30.0262208";"-51.212016";"street_address";"Av. Cristóvão Colombo, 545 - Floresta, Porto Alegre - RS, 90560-003, Brazil";184;"SALAO DE BELEZA";"AV CRISTOVAO COLOMBO, 545/2022"
"-30.0289097";"-51.1817309";"street_address";"Av. Carlos Gomes, 777 - Bela Vista, Porto Alegre - RS, 91430-350, Brazil";185;"CONSULTORIO MEDICO";"AV CARLOS GOMES, 777/503"
"-30.0223929";"-51.2080526";"street_address";"Rua Dr. Vale, 60 - Floresta, Porto Alegre - RS, 90560-010, Brazil";186;"CONSULTORIO ODONTOLOGICO";"R DR VALE, 60/406"
"-30.0279473";"-51.2230416";"street_address";"Av. Alberto Bins, 362 - Centro Histórico, Porto Alegre - RS, 90830-010, Brazil";187;"PROFISSIONAL AUTONOMO";"AV ALBERTO BINS, 362/308"
"-30.0654764";"-51.2168908";"street_address";"Tv. Iêda, 28 - Santa Tereza, Porto Alegre - RS, Brazil";188;"PROFISSIONAL AUTONOMO";"TRAV IEDA, 28"
"-29.9917349";"-51.1263842";"street_address";"Av. Assis Brasil, 6929 - Sarandi, Porto Alegre - RS, 91120-001, Brazil";189;"CLINICA VETERINARIA SEM INTERNACAO";"AV ASSIS BRASIL, 6929"
"-30.028389";"-51.2062381";"street_address";"R. 24 de Outubro, 111 - Independência, Porto Alegre - RS, 90510-002, Brazil";190;"CONSULTORIO MEDICO";"R VINTE QUATRO DE OUTUBRO, 111/601"
"-30.014616";"-51.1412795";"route";"R. Leite de Castro - Jardim Itu-Sabará, Porto Alegre - RS, 91380-410, Brazil";191;"SALAO DE BELEZA";"R LEITE DE CASTRO, 242"
"-30.147778";"-51.1484587";"street_address";"R. Álvaro Difini, 3485 - Restinga, Porto Alegre - RS, 91790-560, Brazil";192;"CONSULTORIO MEDICO";"R ALVARO DIFINI, 3485"
"-30.1143465";"-51.2548713";"street_address";"Av. Wenceslau Escobar, 2961 - Tristeza, Porto Alegre - RS, 91900-000, Brazil";193;"CONSULTORIO MEDICO";"AV WENCESLAU ESCOBAR, 2961/1"
"-30.0852056";"-51.2456904";"street_address";"Av. Diário de Notícias, 300 - Cristal, Porto Alegre - RS, Brazil";194;"CONSULTORIO DE PSICOLOGIA";"AV DIARIO DE NOTICIAS, 300/305"
"-30.0253336";"-51.1903728";"street_address";"R. Silva Jardim, 375 - Auxiliadora, Porto Alegre - RS, 90450-071, Brazil";195;"CONSULTORIO DE FISIOTERAPIA";"R SILVA JARDIM, 375/305"
"-30.0289498";"-51.2246448";"route";"Rua Doutor Flores - Centro Histórico, Porto Alegre - RS, Brazil";196;"CONSULTORIO DE TERAPIAS ALTERNATIVAS";"R DR FLORES, 383/103"
"-30.029678";"-51.2293383";"establishment";"R. dos Andradas, 1234 - Centro Histórico, Porto Alegre - RS, 90010-000, Brazil";197;"CONSULTORIO MEDICO";"R ANDRADAS, 1781/502"
"-30.0526287";"-51.1954924";"premise";"R. Monteiro Lobato, 443 - Partenon, Porto Alegre - RS, 90620-270, Brazil";198;"CONSULTORIO DE TERAPIAS ALTERNATIVAS";"R MONTEIRO LOBATO, 443"
"-30.0183625";"-51.1999795";"street_address";"R. Dr. Timóteo, 390 - Floresta, Porto Alegre - RS, 90570-040, Brazil";199;"SALAO DE BELEZA";"R DR TIMOTEO, 390/105"
"-30.0430195";"-51.1908002";"street_address";"R. Faria Santos, 47 - Petrópolis, Porto Alegre - RS, 90670-150, Brazil";200;"CONSULTORIO ODONTOLOGICO";"R FARIA SANTOS, 47/204"
"-30.014181";"-51.1882764";"street_address";"R. Carlos Von Koseritz, 772 - São João, Porto Alegre - RS, 90540-031, Brazil";201;"CONSULTORIO DE FISIOTERAPIA";"R CARLOS VON KOSERITZ, 772/1"
"-30.0237186";"-51.2005551";"street_address";"R. 24 de Outubro, 838 - Moinhos de Vento, Porto Alegre - RS, 90510-001, Brazil";202;"CONSULTORIO DE PSICOLOGIA";"R VINTE QUATRO DE OUTUBRO, 838/503"
"-30.0186053";"-51.1867155";"street_address";"R. Marquês do Pombal, 1710 - Moinhos de Vento, Porto Alegre - RS, Brazil";203;"ESCRITORIO DE ARQUITETURA";"R MARQUES DO POMBAL, 1710/603"
"-30.0070227";"-51.1331177";"street_address";"Av. Eng. Francisco Rodolfo Simch, 299 - Sarandi, Porto Alegre - RS, Brazil";204;"FOTOCOPIAS, COPIAS HELIOGRAFICAS E PLASTIFICACAO";"AV ENG FRANCISCO RODOLFO SIMCH, 299/1"
"-30.045598";"-51.21429";"street_address";"Av. da Azenha, 203 - Azenha, Porto Alegre - RS, 90160-000, Brazil";205;"ESCRITORIO DE CONTABILIDADE";"AV AZENHA, 203/203"
"-30.0293446";"-51.2073656";"street_address";"R. Mostardeiro, 5 - Independência, Porto Alegre - RS, Brazil";206;"CONSULTORIO DE NUTRICIONISTA";"R MOSTARDEIRO, 5/310"
"-30.0301144";"-51.1333589";"establishment";"Rua Tenente Ary Tarragô, 1402 - Jardim Itu-Sabará, Porto Alegre - RS, 91225-001, Brazil";207;"PROFISSIONAL AUTONOMO";"R TEN ARY TARRAGO, 520/202"
"-30.0605204";"-51.224064";"street_address";"R. José de Alencar, 757 - Menino Deus, Porto Alegre - RS, 90880-480, Brazil";208;"SALAO DE BELEZA";"R JOSE DE ALENCAR, 757"
"-30.0548116";"-51.2234737";"street_address";"Av. Getúlio Vargas, 1157 - Menino Deus, Porto Alegre - RS, 90150-005, Brazil";209;"CONSULTORIO MEDICO";"AV GETULIO VARGAS, 1157/909"
"-30.0195248";"-51.1927136";"establishment";"R. Marquês do Pombal, 1127 - Moinhos de Vento, Porto Alegre - RS, 90540-010, Brazil";210;"ESCRITORIO DE PROMOCOES";"R MARQUES DO POMBAL, 369"
"-30.0262208";"-51.212016";"street_address";"Av. Cristóvão Colombo, 545 - Floresta, Porto Alegre - RS, 90560-003, Brazil";211;"DECORACAO DE INTERIORES";"AV CRISTOVAO COLOMBO, 545/2229"
"-30.0358453";"-51.2295122";"street_address";"R. Demétrio Ribeiro, 990 - Centro Histórico, Porto Alegre - RS, Brazil";212;"ESCRITORIO DE SERVICOS JURIDICOS";"R DEMETRIO RIBEIRO, 990/208"
"-30.039835";"-51.197994";"street_address";"Av. Protásio Alves, 1022 - Alto Petrópolis, Porto Alegre - RS, Brazil";213;"CONSULTORIO ODONTOLOGICO";"AV PROTASIO ALVES, 1022/401"
"-30.0237186";"-51.2005551";"street_address";"R. 24 de Outubro, 838 - Moinhos de Vento, Porto Alegre - RS, 90510-001, Brazil";214;"CONSULTORIO DE PSICOLOGIA";"R VINTE QUATRO DE OUTUBRO, 838/306"
"-29.9904621";"-51.1331832";"street_address";"Av. dos Gaúchos, 1526 - Sarandi, Porto Alegre - RS, 91110-090, Brazil";215;"TELE-ENTREGAS";"AV GAUCHOS, 1526"
"-30.0407839";"-51.1955286";"street_address";"Av. Protásio Alves, 1281 - Petrópolis, Porto Alegre - RS, 90410-000, Brazil";216;"CONSULTORIO MEDICO";"AV PROTASIO ALVES, 1281/403"
"-30.1156758";"-51.2153563";"premise";"R. Jerolomo Minuzo, 107 - Vila Nova, Porto Alegre - RS, 91750-830, Brazil";217;"PROFISSIONAL AUTONOMO";"R JEROLOMO MINUZO, 107"
"-30.0346471";"-51.2176584";"locality";"Porto Alegre, RS, Brazil";218;"PROFISSIONAL AUTONOMO";"AC Q SQ CINCO PRIMEIRA UV VL N RESTINGA, 289"
"-30.0419958";"-51.1808676";"establishment";"Av. Caçapava, 537 - Petrópolis, Porto Alegre - RS, 91370-130, Brazil";219;"SERVICO DE MASSAGEM (MASSAGISTAS, MASSAGEM ESTETI-CA, TERAPEUTICA";"AV CACAPAVA, 537/408"
"-30.029678";"-51.2293383";"establishment";"R. dos Andradas, 1234 - Centro Histórico, Porto Alegre - RS, 90010-000, Brazil";220;"CONSULTORIO DE FONOAUDIOLOGIA";"R ANDRADAS, 1781/601"
"-30.0240129";"-51.2190823";"street_address";"Largo Vespasiano Júlio Veppo, 1 - Centro Histórico, Porto Alegre - RS, Brazil";221;"GARAGEM E ESTACIONAMENTO PARA VEICULOS, EXCETO OS DE CARGA OU COLE";"LG VESPASIANO JULIO VEPPO, 1"
"-30.0412779";"-51.2185051";"street_address";"R. Joaquim Nabuco, 20 - Cidade Baixa, Porto Alegre - RS, 90050-340, Brazil";222;"CONSULTORIO DE PSICOLOGIA";"R JOAQUIM NABUCO, 20/503"
"-30.091362";"-51.235025";"street_address";"R. Ursa Maior, 724 - Cristal, Porto Alegre - RS, 90820-200, Brazil";223;"OFICINA-SERRALHERIA";"R URSA MAIOR, 724"
"-30.0201941";"-51.2129556";"street_address";"R. Gaspar Martins, 143 - Floresta, Porto Alegre - RS, 90220-160, Brazil";224;"ESCRITORIO ADMINISTRATIVO (SEDE ADMINISTRATIVA DE EMPRESA)";"R GASPAR MARTINS, 143"
"-30.0090357";"-51.2023349";"street_address";"Av. Polônia, 655 - São Geraldo, Porto Alegre - RS, 90230-110, Brazil";225;"ESCRITORIO DE IMPORTACAO E EXPORTACAO";"AV POLONIA, 655/304"
"-30.1144572";"-51.2542843";"street_address";"R. Dr. Mário Totta, 625 - Tristeza, Porto Alegre - RS, 91920-130, Brazil";226;"SERVICO DE ASSESSORIA, CONSULTORIA, PESQUISA, ANA-LISE E PROMOCOES";"R DR MARIO TOTTA, 625/205"
"-30.0432471";"-51.2195669";"street_address";"Av. Venâncio Aires, 15 - Cidade Baixa, Porto Alegre - RS, 90050-020, Brazil";227;"OFICINA DE REPARACAO DE INSTALACOES ELETRICAS,HI- DRAULICAS E DE G";"AV VENANCIO AIRES, 15"
"-30.0082627";"-51.1845463";"street_address";"Av. Assis Brasil, 115 - São João, Porto Alegre - RS, 90520-100, Brazil";228;"ESCRITORIO DE IMPORTACAO E EXPORTACAO";"AV ASSIS BRASIL, 115/221"
"-30.0030854";"-51.2009278";"street_address";"Av. Pres. Franklin Roosevelt, 356 - Navegantes, Porto Alegre - RS, 90230-001, Brazil";229;"CENTRAL DE SERVICOS DE APOIO AS EMPRESAS";"AV PRESIDENTE FRANKLIN ROOSEVELT, 356"
"-30.027376";"-51.1957694";"street_address";"R. Anita Garibaldi, 28 - Mont'Serrat, Porto Alegre - RS, 90480-200, Brazil";230;"SALAO DE BELEZA";"R ANITA GARIBALDI, 28"
"-30.0354082";"-51.1642682";"premise";"R. Dr. Ernesto Ludwig, 548 - Chácara das Pedras, Porto Alegre - RS, 91330-420, Brazil";231;"PRODUTORA DE FILMES CINEMATOGRAFICOS";"R DR ERNESTO LUDWIG, 548"
"-30.0356446";"-51.2106866";"establishment";"Av. Osvaldo Aranha, 1184 - B Fim, Porto Alegre - RS, 90035-191, Brazil";232;"REPRESENTACAO COMERCIAL (INTERMEDIARIOS DE VENDAS DE MERCADORIAS A";"AV OSVALDO ARANHA, 1184/2"
"-29.994865";"-51.197681";"street_address";"R. Irmão Francisco, 95 - Humaitá, Porto Alegre - RS, 90240-120, Brazil";233;"ESCRITORIO DE IMPORTACAO E EXPORTACAO";"R IRMAO FRANCISCO, 95"
"-30.049226";"-51.225591";"street_address";"R. Marcílio Dias, 418 - Menino Deus, Porto Alegre - RS, 90130-000, Brazil";234;"ESCRITORIO ADMINISTRATIVO (SEDE ADMINISTRATIVA DE EMPRESA)";"R MARCILIO DIAS, 418/2"
"-30.1192862";"-51.2134964";"street_address";"R. Atílio Superti, 447 - Vila Nova, Porto Alegre - RS, Brazil";235;"INSTALACAO DE PORTAS, JANELAS, TETOS, DIVISORIAS EARMARIOS EMBUTID";"R ATILIO SUPERTTI, 447"
"-30.0663529";"-51.2129445";"premise";"Av. Dr. Carlos Barbosa, 1221 - Medianeira, Porto Alegre - RS, 90880-001, Brazil";236;"ESCRITORIO DE LOCACAO";"AV DR CARLOS BARBOSA, 1221"
"-30.0689956";"-51.1560995";"premise";"R. Rafael Clark, 547 - Partenon, Porto Alegre - RS, 91530-620, Brazil";237;"REPRESENTACAO COMERCIAL (INTERMEDIARIOS DE VENDAS DE MERCADORIAS A";"R RAFAEL CLARK, 547"
"-30.0302341";"-51.2231462";"street_address";"Rua Professor Annes Dias, 166 - Centro Histórico, Porto Alegre - RS, 90010-490, Brazil";238;"LABORATORIO DE OTICA";"R PROF ANNES DIAS, 166/20"
"-30.0054051";"-51.174838";"establishment";"R. Piauí, 293 - Santa Maria Goretti, Porto Alegre - RS, 91030-320, Brazil";239;"REPRESENTACAO COMERCIAL (INTERMEDIARIOS DE VENDAS DE MERCADORIAS A";"R PIAUI, 293"
"-30.107401";"-51.258055";"street_address";"R. Vicente Failace, 114 - Tristeza, Porto Alegre - RS, 91900-270, Brazil";240;"AGENCIA DE VIAGENS E TURISMO";"R VICENTE FAILACE, 114"
"-30.0030368";"-51.1941293";"street_address";"R. Dr. João Inácio, 1215 - Navegantes, Porto Alegre - RS, 90230-181, Brazil";241;"OFICINA DE ASSISTENCIA TECNICA";"R DR JOAO INACIO, 1215"
"-30.1582849";"-51.223737";"premise";"R. Criciúma, 231 - Guarujá, Porto Alegre - RS, 91770-240, Brazil";242;"ESTUDIO DE MUSICA ( GRAVACAO E EDICAO DE SOM )";"R CRICIUMA, 231"
"-30.0121845";"-51.2042423";"street_address";"Av. Pres. Franklin Roosevelt, 1412 - São Geraldo, Porto Alegre - RS, Brazil";243;"DECORACAO DE INTERIORES";"AV PRESIDENTE FRANKLIN ROOSEVELT, 1412/204"
"-30.0231583";"-51.1834357";"street_address";"Av. Carlos Gomes, 126 - Auxiliadora, Porto Alegre - RS, 90550-110, Brazil";244;"ESCRITORIO DE PUBLICIDADE E PROPAGANDA";"AV CARLOS GOMES, 126/207"
"-30.097753";"-51.233844";"street_address";"R. Cel. Massot, 1477 - Cavalhada, Porto Alegre - RS, 91910-530, Brazil";245;"SALAO DE BELEZA";"R CEL MASSOT, 1477"
"-30.0250095";"-51.1622202";"street_address";"Av. João Wallig, 1800 - Passo d'Areia, Porto Alegre - RS, Brazil";246;"SALAO DE BELEZA";"AV JOAO WALLIG, 1800/1263"
"-30.0134792";"-51.1400414";"street_address";"Av. Antunes Ribas, 288 - Jardim Itu-Sabará, Porto Alegre - RS, 91380-320, Brazil";247;"SALAO DE BELEZA";"AV ANTUNES RIBAS, 288"
"-30.0416494";"-51.1971732";"street_address";"R. Dona Eugênia, 811 - Santa Cecilia, Porto Alegre - RS, 90630-150, Brazil";248;"SALAO DE BELEZA";"R DONA EUGENIA, 811"
"-29.9912422";"-51.1898838";"premise";"R. Diretor Augusto Pestana, 1390 - Humaitá, Porto Alegre - RS, 90250-100, Brazil";249;"JOGOS DE VIDEO-GAME E LOCACAO DE CARTUCHOS";"R DIRETOR AUGUSTO PESTANA, 1390"
"-30.091443";"-51.180741";"street_address";"R. Prof. Oscar Pereira, 5794 - Cascata, Porto Alegre - RS, 91712-320, Brazil";250;"PROFISSIONAL AUTONOMO";"AV PROF OSCAR PEREIRA, 5794"
"-30.0366679";"-51.2102919";"street_address";"Av. José Bonifácio, 741 - Farroupilha, Porto Alegre - RS, 90040-130, Brazil";251;"CONSULTORIO DE TERAPIA OCUPACIONAL";"AV JOSE BONIFACIO, 741/501"
"-30.0524905";"-51.214331";"street_address";"R. Barão do Triunfo, 720 - Menino Deus, Porto Alegre - RS, 90130-100, Brazil";252;"CONFECCAO SOB MEDIDA DE ARTIGOS DO VESTUARIO";"R BARAO DO TRIUNFO, 720/409"
"-29.9947405";"-51.1301741";"route";"Av. Assis Brasil, Porto Alegre - RS, Brazil";253;"ESCRITORIO DE CONTABILIDADE";"AV ASSIS BRASIL, 2474/503"
"-30.0452763";"-51.2294265";"establishment";"Av. Borges de Medeiros, 2105 - PR Belas, Porto Alegre - RS, Brazil";254;"ESCRITORIO DE SERVICOS JURIDICOS";"AV BORGES DE MEDEIROS, 2105/1405"
"-30.059477";"-51.2277088";"street_address";"R. José de Alencar, 386 - Menino Deus, Porto Alegre - RS, 90880-480, Brazil";255;"SALAO DE BELEZA";"R JOSE DE ALENCAR, 386/2"
"-30.0609807";"-51.220254";"street_address";"R. José de Alencar, 1121 - Menino Deus, Porto Alegre - RS, 90880-481, Brazil";256;"SALAO DE BELEZA";"R JOSE DE ALENCAR, 1121"
"-30.0369741";"-51.1805022";"street_address";"Av. Lajeado, 991 - Petrópolis, Porto Alegre - RS, 90460-110, Brazil";257;"SALAO DE BELEZA";"AV LAGEADO, 991"
"-30.0400197";"-51.2122126";"street_address";"R. Olavo Bilac, 802 - Azenha, Porto Alegre - RS, 90040-310, Brazil";258;"ESCRITORIO DE PARTICIPACAO EM OUTRAS EMPRESAS     MEDIANTE COMPRA/";"R OLAVO BILAC, 802"
"-30.0460102";"-51.2128952";"street_address";"Av. João Pessoa, 1845 - Santana, Porto Alegre - RS, 90040-001, Brazil";259;"AGENCIA DOS CORREIOS E TELEGRAFOS";"AV JOAO PESSOA, 1845"
"-30.0482666";"-51.2013672";"street_address";"R. Vicente da Fontoura, 1340 - Rio Branco, Porto Alegre - RS, 90640-001, Brazil";260;"TELE-ENTREGAS";"R VICENTE DA FONTOURA, 1340"
"-30.1076";"-51.2279686";"street_address";"Av. da Cavalhada, 3623 - Cavalhada, Porto Alegre - RS, 91740-001, Brazil";261;"SALAO DE BELEZA";"AV CAVALHADA, 3623/21"
"-30.0099112";"-51.1929898";"street_address";"Av. Benjamin Constant, 925 - São João, Porto Alegre - RS, 90550-004, Brazil";262;"ESCRITORIO";"AV BENJAMIN CONSTANT, 925/207"
"-30.0250095";"-51.1622202";"street_address";"Av. João Wallig, 1800 - Passo d'Areia, Porto Alegre - RS, Brazil";263;"SALAO DE BELEZA";"AV JOAO WALLIG, 1800/1102"
"-30.004048";"-51.1913447";"premise";"Rua Pereira Franco, 347 - São João, Porto Alegre - RS, 90240-520, Brazil";264;"ESCRITORIO DE CORRETAGEM DE SEGUROS";"R PEREIRA FRANCO, 347"
"-30.0036935";"-51.2036802";"street_address";"Av. Cairú, 347 - Navegantes, Porto Alegre - RS, 90230-031, Brazil";265;"REPARACAO, INSTALACAO E MANUTENCAO DE EQUIPAMENTOSDE SEGURANCA E A";"R CAIRU, 347"
"-30.029678";"-51.2293383";"establishment";"R. dos Andradas, 1234 - Centro Histórico, Porto Alegre - RS, 90010-000, Brazil";266;"SERVICO DE TELEFONIA";"R ANDRADAS, 1137/2020"
"-30.02717";"-51.229729";"establishment";"Tv Francisco - Tv. Franscisco de Leonardo Truda, 40 - 12° Andar - Centro Histórico, Porto Alegre - RS, 90010-904, Brazil";267;"PROCESSAMENTO DE DADOS";"TRAV FRANCISCO DE LEONARDO TRUDA, 40/173"
"-30.0341623";"-51.177307";"street_address";"Av. Luiz Manoel Gonzaga, 450 - Petrópolis, Porto Alegre - RS, Brazil";268;"ESCRITORIO ADMINISTRATIVO (SEDE ADMINISTRATIVA DE EMPRESA)";"AV LUIZ MANOEL GONZAGA, 450/803"
"-30.031834";"-51.160593";"street_address";"R. Prof. Ulisses Cabral, 1034 - Chácara das Pedras, Porto Alegre - RS, 91330-520, Brazil";269;"ESCOLA DE ADESTRAMENTO DE ANIMAIS DE PEQUENO PORTE";"R PROF ULISSES CABRAL, 1034"
"-30.0552796";"-51.1733766";"street_address";"Av. Ipiranga, 6690 - Jardim Botânico, Porto Alegre - RS, Brazil";270;"CONSULTORIO MEDICO";"AV IPIRANGA, 6690/715"
"-30.0297476";"-51.2036366";"establishment";"Rua Dona Laura, 207 - Moinhos de Vent, Porto Alegre - RS, 90430-091, Brazil";271;"CONSULTORIO DE FISIOTERAPIA";"R DONA LAURA, 207/405"
"-30.0424151";"-51.1843043";"street_address";"Av. Taquara, 375 - Petrópolis, Porto Alegre - RS, 90460-210, Brazil";272;"REPRESENTACAO COMERCIAL (INTERMEDIARIOS DE VENDAS DE MERCADORIAS A";"AV TAQUARA, 375/402"
"-30.0056659";"-51.1819468";"establishment";"R. São Nicolau, 354 - Santa Maria Goretti, Porto Alegre - RS, 91770-440, Brazil";273;"TELE-ENTREGAS";"R SAO NICOLAU, 354"
"-30.0442678";"-51.2001718";"street_address";"Av. Ipiranga, 2777 - Praia de Belas, Porto Alegre - RS, 90160-091, Brazil";274;"AGENCIA DE LOCACAO DE VEICULOS";"AV IPIRANGA, 2777"
"-30.017723";"-51.1991705";"street_address";"Av. Cristóvão Colombo, 2168 - Floresta, Porto Alegre - RS, 90560-004, Brazil";275;"ESCRITORIO DE PARTICIPACAO EM OUTRAS EMPRESAS     MEDIANTE COMPRA/";"AV CRISTOVAO COLOMBO, 2168/502"
"-30.0165354";"-51.1658119";"street_address";"Rua Guilherme Klippel, 127 - Passo d'Areia, Porto Alegre - RS, 91350-160, Brazil";276;"LOCACAO DE MAO-DE-OBRA";"R GUILHERME KLIPPEL, 127"
"-29.9999438";"-51.1606852";"street_address";"R. Nicolau Ely, 250 - Jardim Floresta, Porto Alegre - RS, 91040-631, Brazil";277;"ESCRITORIO ADMINISTRATIVO (SEDE ADMINISTRATIVA DE EMPRESA)";"R NICOLAU ELY, 250/202"
"-30.0304913";"-51.2257423";"street_address";"R. Vig. José Inácio, 540 - Centro Histórico, Porto Alegre - RS, 90020-110, Brazil";278;"ESCRITORIO DE CORRETAGEM DE IMOVEIS";"R VIGARIO JOSE IGNACIO, 540/401"
"-29.9995231";"-51.1955454";"street_address";"R. Dona Margarida, 731 - Navegantes, Porto Alegre - RS, 90240-610, Brazil";279;"DEPOSITOS (FECHADOS) SEM ISS";"R DONA MARGARIDA, 731"
"-30.010831";"-51.198244";"street_address";"Av. Guido Mondim, 750 - São Geraldo, Porto Alegre - RS, 90230-260, Brazil";280;"ESCRITORIO DE CONTABILIDADE";"AV GUIDO MONDIN, 750/101"
"-30.016768";"-51.2033569";"street_address";"R. Santa Rita, 295 - Floresta, Porto Alegre - RS, 90220-220, Brazil";281;"ESCRITORIO DE SERVICOS JURIDICOS";"R SANTA RITA, 295/202"
"-30.0594656";"-51.2253569";"street_address";"Rua Mucio Teixeira, 1700 - Menino Deus, Porto Alegre - RS, 90150-090, Brazil";282;"ESCRITORIO DE SERVICOS DE CONSULTORIA";"R MUCIO TEIXEIRA, 1700"
"-29.9998565";"-51.1908712";"street_address";"Av. Ceará, 444 - São João, Porto Alegre - RS, 90240-512, Brazil";283;"AGENCIA DE LOCACAO DE AUTOMOVEIS";"AV CEARA, 444"
"-29.9719347";"-51.1771219";"street_address";"Av. dos Estados, 1 - São João, Porto Alegre - RS, Brazil";284;"AGENCIA DE LOCACAO DE VEICULOS";"AV ESTADOS, 1"
"-30.0581647";"-51.190221";"premise";"R. Guilherme Alves, 1207 - Petrópolis, Porto Alegre - RS, Brazil";285;"OFICINA MECANICA PARA AUTOMOVEIS";"R GUILHERME ALVES, 1207"
"-30.0169777";"-51.2025009";"street_address";"R. Félix da Cunha, 458 - Floresta, Porto Alegre - RS, 90570-001, Brazil";286;"ESCOLA ESPECIAL";"R FELIX DA CUNHA, 458"
"-30.0168439";"-51.1821409";"premise";"Av. Cristóvão Colombo, 3782 - Floresta, Porto Alegre - RS, 90560-002, Brazil";287;"SALAO DE BELEZA";"AV CRISTOVAO COLOMBO, 3782"
"-30.005017";"-51.198108";"street_address";"Av. Bahia, 289 - Navegantes, Porto Alegre - RS, 90240-552, Brazil";288;"OFICINA DE REPARACAO DE MAQUINAS E APARELHOS ELE- TRICOS OU NAO";"AV BAHIA, 289"
"-30.0808789";"-51.2106063";"street_address";"Av. Teresópolis, 3129 - Teresópolis, Porto Alegre - RS, 90870-001, Brazil";289;"EMPRESA DE LIMPEZA E VIGILANCIA S/ARMAZENAMENDO DEPRODUTOS QUIMICO";"AV TERESOPOLIS, 3129/202"
"-30.026119";"-51.153811";"street_address";"Av. Eng Ary De Abreu Lima, 321 - Vl Ipiranga, Porto Alegre - RS, 91360-070, Brazil";290;"FOTOCOPIAS, COPIAS HELIOGRAFICAS E PLASTIFICACAO";"AV ENG ARY DE ABREU LIMA, 321"
"-30.0594656";"-51.2253569";"street_address";"Rua Mucio Teixeira, 1700 - Menino Deus, Porto Alegre - RS, 90150-090, Brazil";291;"ESCRITORIO DE SERVICOS JURIDICOS";"R MUCIO TEIXEIRA, 1700"
"-30.1140262";"-51.2551327";"street_address";"Av. Wenceslau Escobar, 2923 - Tristeza, Porto Alegre - RS, Brazil";292;"ESCRITORIO DE ENGENHARIA";"AV WENCESLAU ESCOBAR, 2923/310"
"-30.0071347";"-51.1954543";"street_address";"Av. Brasil, 1215 - Navegantes, Porto Alegre - RS, 90230-061, Brazil";293;"ESCRITORIO DE CONTABILIDADE";"AV BRASIL, 1215"
"-30.0346471";"-51.2176584";"locality";"Porto Alegre, RS, Brazil";294;"OFICINA DE ASSISTENCIA TECNICA";"AV BERNARDINO SILVEIRA DE AMORIM, 1076"
"-30.0296466";"-51.224599";"establishment";"Rua Doutor Flores, 262 - Centro Histórico, Porto Alegre - RS, 90120-020, Brazil";295;"ESCRITORIO DE PROMOCOES";"R DR FLORES, 262/73"
"-30.013772";"-51.1949523";"street_address";"Av. Benjamin Constant, 1370 - São João, Porto Alegre - RS, 90550-002, Brazil";296;"CONFECCAO SOB MEDIDA DE ARTIGOS DO VESTUARIO";"AV BENJAMIN CONSTANT, 1370"
"-30.0284939";"-51.226494";"street_address";"Av. Otávio Rocha, 22 - Centro Histórico, Porto Alegre - RS, 90020-150, Brazil";297;"OFICINA DE REPARACAO DE JOIAS E RELOGIOS";"AV OTAVIO ROCHA, 22/30"
"-30.0343712";"-51.2046981";"premise";"R. São Manoel, 72 - Rio Branco, Porto Alegre - RS, 90620-110, Brazil";298;"ESCRITORIO ADMINISTRATIVO (SEDE ADMINISTRATIVA DE EMPRESA)";"R SAO MANOEL, 72"
"-30.0525488";"-51.2224894";"street_address";"Av. Getúlio Vargas, 901 - Menino Deus, Porto Alegre - RS, 90150-001, Brazil";299;"ESCRITORIO DE PUBLICIDADE E PROPAGANDA";"AV GETULIO VARGAS, 901/702"
"-30.019544";"-51.1939832";"street_address";"Av. Mariland, 556 - São João, Porto Alegre - RS, 90440-191, Brazil";300;"ESCRITORIO DE SERVICOS JURIDICOS";"AV MARILAND, 556"
"-30.005928";"-51.097189";"street_address";"Av. Bernardino Silveira Amorim, 3449 - Rubem Berta, Porto Alegre - RS, 91170-680, Brazil";301;"REPRESENTACAO COMERCIAL (INTERMEDIARIOS DE VENDAS DE MERCADORIAS A";"AV BERNARDINO SILVEIRA DE AMORIM, 3449"
"-29.9880175";"-51.129623";"street_address";"Av. Martins Bastos, 525 - Sarandi, Porto Alegre - RS, 91120-420, Brazil";302;"OFICINA DE ASSISTENCIA TECNICA";"AV MARTINS BASTOS, 525"
"-30.0293474";"-51.2161447";"establishment";"Av. Independência, 501 - Independência, Porto Alegre - RS, 90035-075, Brazil";303;"PROFISSIONAL AUTONOMO";"AV INDEPENDENCIA, 501/190"
"-30.0390561";"-51.1403096";"street_address";"Rua Coronel Miguel da Cunha Correa, 149 - Jardim Itu-Sabará, Porto Alegre - RS, 91210-030, Brazil";304;"PROFISSIONAL AUTONOMO";"R CEL MIGUEL DA CUNHA CORREA, 149"
"-30.0639263";"-51.1862444";"street_address";"R. Cel. Aparício Borges, 2704 - Glória, Porto Alegre - RS, 90680-570, Brazil";305;"LOCACAO DE FITAS DE VIDEO";"AV CEL APARICIO BORGES, 2704"
"-30.0169908";"-51.1139291";"route";"R. Carlos Estevão - Rubem Berta, Porto Alegre - RS, Brazil";306;"PROFISSIONAL AUTONOMO";"R CARLOS ESTEVAO, 183/309"
"-30.0349339";"-51.211721";"street_address";"Av. Osvaldo Aranha, 1070 - Bom Fim, Porto Alegre - RS, 90035-191, Brazil";307;"ESCRITORIO DE VENDAS (PRODUTOS PROPRIOS SEM INTERMDIACAO DE TERCEI";"AV OSVALDO ARANHA, 1070/305"
"-30.030605";"-51.2249156";"street_address";"Rua Doutor Flores, 381 - Centro Histórico, Porto Alegre - RS, 90020-121, Brazil";308;"SALAO DE BELEZA";"R DR FLORES, 381"
"-30.008691";"-51.176237";"street_address";"Av. Assis Brasil, 933 - Passo d'Areia, Porto Alegre - RS, 91010-004, Brazil";309;"CONSULTORIO ODONTOLOGICO";"AV ASSIS BRASIL, 933/3"
"-30.0795724";"-51.2090472";"street_address";"Av. Teresópolis, 2956 - Teresópolis, Porto Alegre - RS, 90870-000, Brazil";310;"SALAO DE BELEZA";"AV TERESOPOLIS, 2956"
"-30.0200352";"-51.1798713";"street_address";"Av. Plínio Brasil Milano, 1100 - Higienópolis, Porto Alegre - RS, Brazil";311;"SALAO DE BELEZA";"AV PLINIO BRASIL MILANO, 1100/3"
"-30.014158";"-51.143621";"street_address";"R. Gomes de Freitas, 451 - Vl Ipiranga, Porto Alegre - RS, 91380-000, Brazil";312;"REPRESENTACAO COMERCIAL (INTERMEDIARIOS DE VENDAS DE MERCADORIAS A";"R GOMES DE FREITAS, 451"
"-30.027366";"-51.150454";"bus_station";"Vila Jardim, Porto Alegre - RS, 90230-061, Brazil";313;"LOCACAO DE FITAS DE VIDEO";"R DOM LUIZ GUANELLA, 235"
"-30.0346471";"-51.2176584";"locality";"Porto Alegre, RS, Brazil";314;"AGENCIA DE VIAGENS E TURISMO";"R TIAGO, 35"
"-29.994884";"-51.129527";"street_address";"R. Abaeté, 29 - Sarandi, Porto Alegre - RS, 91130-490, Brazil";315;"SALAO DE BELEZA";"R ABAETE, 29/307"
"-30.0084218";"-51.1841531";"street_address";"R. Luzitana, 22 - Higienópolis, Porto Alegre - RS, 90520-080, Brazil";316;"OFICINA DE ASSISTENCIA TECNICA";"R LUZITANA, 22/1"
"-30.0245221";"-51.1527528";"street_address";"Av. Eng. José Maria de Carvalho, 545 - Vila Ipiranga, Porto Alegre - RS, 91360-080, Brazil";317;"AGENCIA DE VIAGENS E TURISMO";"AV ENG JOSE MARIA DE CARVALHO, 545"
"-30.0387556";"-51.190221";"street_address";"Avenida Nilópolis, 145 - Petrópolis, Porto Alegre - RS, 90460-050, Brazil";318;"LABORATORIO CLINICO";"AV NILOPOLIS, 145/2"
"-30.004339";"-51.1670019";"street_address";"Rua Marquês de Souza, 99 - Jd Sao Pedro, Porto Alegre - RS, 91040-230, Brazil";319;"OFICINA DE REPARACAO DE APARELHOS ELETRONICOS";"AV MARQUES DE SOUZA, 99"
"-30.0100247";"-51.1931427";"street_address";"Av. Benjamin Constant, 945 - São João, Porto Alegre - RS, 90550-004, Brazil";320;"SALAO DE BELEZA";"AV BENJAMIN CONSTANT, 945"
"-30.022127";"-51.1179818";"route";"R. José Ernesto Nedel - Rubem Berta, Porto Alegre - RS, 91240-640, Brazil";321;"OFICINA DE REPARACAO DE INSTRUMENTOS CIENTIFICOS";"R JOSE ERNESTO NEDEL, 276"
"-30.0318362";"-51.1794137";"street_address";"Av. Carlos Gomes, 1200 - Auxiliadora, Porto Alegre - RS, 90480-001, Brazil";322;"ESCRITORIO DE PROMOCOES";"AV CARLOS GOMES, 1200/601"
"-30.0678027";"-51.1617993";"establishment";"R. Vinte e Seis de Dezembro, 782 - São José, Porto Alegre - RS, 91520-590, Brazil";323;"PROCESSAMENTO DE DADOS";"R NOVE DE JUNHO, 240/1"
"-30.022863";"-51.191324";"street_address";"R. Felipe Neri, 428 - Auxiliadora, Porto Alegre - RS, 90440-150, Brazil";324;"ESCRITORIO ADMINISTRATIVO (SEDE ADMINISTRATIVA DE EMPRESA)";"R FELIPE NERI, 428/502"
"-30.0372797";"-51.2096004";"street_address";"Av. Venâncio Aires, 1137 - Santana, Porto Alegre - RS, 90040-193, Brazil";325;"SERVICO DE SOFTWARE E HARDWARE";"AV VENANCIO AIRES, 1137/101"
"-30.0939444";"-51.1782988";"street_address";"R. Prof. Oscar Pereira, 6086 - Cascata, Porto Alegre - RS, Brazil";326;"REPRESENTACAO COMERCIAL (INTERMEDIARIOS DE VENDAS DE MERCADORIAS A";"AV PROF OSCAR PEREIRA, 6086"
"-30.0260588";"-51.2269598";"bus_station";"Centro Histórico, Porto Alegre - RS, 90010-000, Brazil";327;"ESCRITORIO ADMINISTRATIVO (SEDE ADMINISTRATIVA DE EMPRESA)";"LG VISCONDE DO CAIRU, 12/904"
"-30.0089197";"-51.1047828";"street_address";"Rua Rudi Schaly, 490 - Rubem Berta, Porto Alegre - RS, 91180-380, Brazil";328;"OFICINA DE ASSISTENCIA TECNICA";"R RUDI SCHALY, 490"
"-30.1034413";"-51.2522261";"street_address";"Av. Wenceslau Escobar, 1643 - Cristal, Porto Alegre - RS, Brazil";329;"TELE-ENTREGAS";"AV WENCESLAU ESCOBAR, 1643"
"-30.0264238";"-51.222395";"establishment";"Praça Osvaldo Cruz, 15 - Centro Histórico, Porto Alegre - RS, 90010-130, Brazil";330;"ESCRITORIO ADMINISTRATIVO (SEDE ADMINISTRATIVA DE EMPRESA)";"PCA OSVALDO CRUZ, 15/1901"
"-30.0510341";"-51.2147867";"street_address";"Rua 20 de Setembro, 63 - Azenha, Porto Alegre - RS, Brazil";331;"GARAGEM E ESTACIONAMENTO PARA VEICULOS, EXCETO OS DE CARGA OU COLE";"R VINTE DE SETEMBRO, 63"
"-30.0797381";"-51.1250363";"street_address";"R. Dolores Duran, 381 - Agronomia, Porto Alegre - RS, 91540-220, Brazil";332;"PROFISSIONAL AUTONOMO";"R DOLORES DURAN, 381"
"-30.0098436";"-51.1541378";"accounting";"R. Aliança, 55 - Cristo Redentor, Porto Alegre - RS, 91050-010, Brazil";333;"SALAO DE BELEZA";"R ALIANCA, 140"
"-30.0277547";"-51.2119785";"street_address";"R. Gonçalo de Carvalho, 209 - Floresta, Porto Alegre - RS, 90035-170, Brazil";334;"CONSULTORIO MEDICO";"R GONCALO DE CARVALHO, 209/404"
"-30.0341534";"-51.2125749";"street_address";"Rua General João Telles, 524 - Bom Fim, Porto Alegre - RS, 90035-120, Brazil";335;"CONSULTORIO MEDICO";"R GEN JOAO TELLES, 524/604"
"-30.0334095";"-51.1684183";"street_address";"R. Carlos Huber, 755 - Três Figueiras, Porto Alegre - RS, 91330-150, Brazil";336;"DECORACAO DE FESTAS";"R CARLOS HUBER, 755"
"-29.998283";"-51.1356534";"street_address";"Av. Maria Joséfa da Fontoura, 32 - Sarandi, Porto Alegre - RS, 91110-350, Brazil";337;"OFICINA-SERRALHERIA";"AV MARIA JOSEFA DA FONTOURA, 32"
"-30.0423099";"-51.1788325";"street_address";"Av. Protásio Alves, 3033 - Petrópolis, Porto Alegre - RS, 90410-003, Brazil";338;"SERVICO DE SOFTWARE E HARDWARE";"AV PROTASIO ALVES, 3033/403"
"-30.0129706";"-51.1579067";"premise";"R. Álvares Cabral, 269 - Cristo Redentor, Porto Alegre - RS, 91350-250, Brazil";339;"EMPRESA DE VIGILANCIA";"R ALVARES CABRAL, 269"
"-30.0246131";"-51.182478";"street_address";"Av. Carlos Gomes, 328 - Boa Vista, Porto Alegre - RS, Brazil";340;"ESCRITORIO DE SERVICOS DE ASSESSORIA";"AV CARLOS GOMES, 328/710"
"-30.0523687";"-51.2062212";"street_address";"Av. Bento Gonçalves, 685 - Partenon, Porto Alegre - RS, Brazil";341;"GARAGEM E ESTACIONAMENTO PARA VEICULOS, EXCETO OS DE CARGA OU COLE";"AV BENTO GONCALVES, 685"
"-30.029539";"-51.203584";"street_address";"Rua Dona Laura, 210 - Rio Branco, Porto Alegre - RS, 90430-090, Brazil";342;"GARAGEM E ESTACIONAMENTO PARA VEICULOS, EXCETO OS DE CARGA OU COLE";"R DONA LAURA, 210"
"-30.0311854";"-51.2039732";"street_address";"R. Castro Alves, 655 - Rio Branco, Porto Alegre - RS, 90430-131, Brazil";343;"GARAGEM E ESTACIONAMENTO PARA VEICULOS, EXCETO OS DE CARGA OU COLE";"R CASTRO ALVES, 655"
"-30.05508";"-51.196917";"street_address";"R. Evaristo da Veiga, 154 - Partenon, Porto Alegre - RS, 90620-230, Brazil";344;"ESCRITORIO ADMINISTRATIVO (SEDE ADMINISTRATIVA DE EMPRESA)";"R EVARISTO DA VEIGA, 154/101"
"-30.0306761";"-51.2257031";"street_address";"R. Vig. José Inácio, 566 - Centro Histórico, Porto Alegre - RS, 90020-100, Brazil";345;"CONSULTORIO MEDICO";"R VIGARIO JOSE IGNACIO, 566/705"
"-30.0101807";"-51.1557679";"church";"R. João Zanenga, 44 - Cristo Redentor, Porto Alegre - RS, 91040-100, Brazil";346;"OFICINA DE ASSISTENCIA TECNICA";"R JOAO ZANENGA, 206"
"-30.0279865";"-51.222828";"establishment";"Av. Alberto Bins, 392 - Centro Histórico, Porto Alegre - RS, Brazil";347;"CLINICA E POLICLINICA ODONTOLOGICA SEM CALDEIRA";"AV ALBERTO BINS, 392/1302"
"-30.0193569";"-51.1639013";"street_address";"Av. João Wallig, 796 - Passo d'Areia, Porto Alegre - RS, 91340-000, Brazil";348;"REPRESENTACAO COMERCIAL (INTERMEDIARIOS DE VENDAS DE MERCADORIAS A";"AV JOAO WALLIG, 796"
"-30.020553";"-51.212561";"street_address";"R. Gaspar Martins, 241 - Floresta, Porto Alegre - RS, 90220-160, Brazil";349;"GARAGEM E ESTACIONAMENTO PARA VEICULOS, EXCETO OS DE CARGA OU COLE";"R GASPAR MARTINS, 241"
"-30.055065";"-51.1470914";"street_address";"Av. Antônio de Carvalho, 1625 - Agronomia, Porto Alegre - RS, Brazil";350;"ESCRITORIO DE CONTABILIDADE";"AV ANTONIO CARVALHO, 1625/204"
"-30.0258314";"-51.204851";"street_address";"R. Padre Chagas, 66 - Moinhos de Vento, Porto Alegre - RS, 90570-080, Brazil";351;"CLINICA MEDICA S/PROCEDIMENTO INVASIVO S/CALDEIRA";"R PADRE CHAGAS, 66/204"
"-30.0096982";"-51.2019515";"street_address";"Av. Guido Mondim, 370 - São Geraldo, Porto Alegre - RS, 90230-260, Brazil";352;"ESCRITORIO DE COBRANCA E AJUSTE DE CONTAS";"AV GUIDO MONDIN, 370"
"-30.0294118";"-51.1648196";"premise";"Av. João Wallig, 2151 - Chácara das Pedras, Porto Alegre - RS, 91340-001, Brazil";353;"CENTRAL DE SERVICOS DE APOIO AS EMPRESAS";"AV JOAO WALLIG, 2151"
"-30.0318362";"-51.1794137";"street_address";"Av. Carlos Gomes, 1200 - Auxiliadora, Porto Alegre - RS, 90480-001, Brazil";354;"PROCESSAMENTO DE DADOS";"AV CARLOS GOMES, 1200/703"
"-30.010114";"-51.204945";"street_address";"Av. São Paulo, 822 - São Geraldo, Porto Alegre - RS, 90230-160, Brazil";355;"ESCRITORIO DE CONTABILIDADE";"AV SAO PAULO, 822/301"
"-30.0427303";"-51.2239005";"street_address";"R. João Alfredo, 698 - Cidade Baixa, Porto Alegre - RS, 90050-230, Brazil";356;"ESTOFARIA";"R JOAO ALFREDO, 698"
"-30.029678";"-51.2293383";"establishment";"R. dos Andradas, 1234 - Centro Histórico, Porto Alegre - RS, 90010-000, Brazil";357;"ESCRITORIO DE CORRETAGEM DE IMOVEIS";"R ANDRADAS, 1137/1109"
"-30.0177795";"-51.1994903";"street_address";"Av. Cristóvão Colombo, 2144 - Floresta, Porto Alegre - RS, 90560-002, Brazil";358;"AGENCIA DE VIAGENS E TURISMO";"AV CRISTOVAO COLOMBO, 2144/403"
"-29.992989";"-51.128603";"street_address";"Av. Assis Brasil, 6656 - Sarandi, Porto Alegre - RS, 91140-000, Brazil";359;"ESCRITORIO DE CONTABILIDADE";"AV ASSIS BRASIL, 6656"
"-30.0183155";"-51.213555";"street_address";"R. Voluntários da Pátria, 1819 - Centro Histórico, Porto Alegre - RS, 90030-002, Brazil";360;"TELE-ENTREGAS";"R VOLUNTARIOS DA PATRIA, 1819"
"-30.0286276";"-51.2326911";"street_address";"R. Caldas Júnior, 20 - Centro Histórico, Porto Alegre - RS, 90010-260, Brazil";361;"ESCRITORIO DE SERVICOS DE ASSESSORIA";"R CALDAS JUNIOR, 20/12"
"-30.002374";"-51.1348146";"street_address";"Av. Assis Brasil, 5424 - Sarandi, Porto Alegre - RS, 91110-000, Brazil";362;"ESCRITORIO ADMINISTRATIVO (SEDE ADMINISTRATIVA DE EMPRESA)";"AV ASSIS BRASIL, 5424/201"
"-30.0308141";"-51.2283512";"street_address";"R. Gen. Andrade Neves, 155 - Centro Histórico, Porto Alegre - RS, Brazil";363;"SALAO DE BELEZA";"R GEN ANDRADE NEVES, 155/5"
"-30.0268488";"-51.2247461";"street_address";"R. Voluntários da Pátria, 188 - Centro Histórico, Porto Alegre - RS, Brazil";364;"SALAO DE BELEZA";"R VOLUNTARIOS DA PATRIA, 188/142"
"-30.0388012";"-51.2184813";"street_address";"Av. João Pessoa, 809 - Farroupilha, Porto Alegre - RS, Brazil";365;"LOCACAO DE TRAJES E ARTIGOS DO VESTUARIO";"AV JOAO PESSOA, 809/201"
"-30.0442016";"-51.1866022";"establishment";"R. Álvares Machado, 44 - Petrópolis, Porto Alegre - RS, Brazil";366;"CLINICAS E POLICLINICAS MEDICAS";"R ALVARES MACHADO, 44/305"
"-30.0533831";"-51.1882794";"street_address";"R. Valparaíso, 622 - Jardim Botânico, Porto Alegre - RS, 90690-300, Brazil";367;"INSTALACOES ELETRICAS";"R VALPARAISO, 622/2"
"-30.0258314";"-51.204851";"street_address";"R. Padre Chagas, 66 - Moinhos de Vento, Porto Alegre - RS, 90570-080, Brazil";368;"ESCRITORIO DE SERVICOS DE ASSESSORIA";"R PADRE CHAGAS, 66/408"
"-30.0296466";"-51.224599";"establishment";"Rua Doutor Flores, 262 - Centro Histórico, Porto Alegre - RS, 90120-020, Brazil";369;"OFICINA DE REPARACAO DE JOIAS E RELOGIOS";"R DR FLORES, 262/41"
"-30.0517716";"-51.1997536";"street_address";"R. São Manoel, 2091 - Rio Branco, Porto Alegre - RS, 90620-110, Brazil";370;"EDITORACAO GRAFICA, EDICAO E IMPRESSAO DE OUTROS  PRODUTOS GRAFICO";"R SAO MANOEL, 2091/6"
"-30.0585226";"-51.2296858";"street_address";"Av. Praia de Belas, 2260 - Menino Deus, Porto Alegre - RS, 90110-000, Brazil";371;"OFICINA DE REPARACAO DE JOIAS E RELOGIOS";"AV PRAIA DE BELAS, 2260/103"
"-30.0368172";"-51.2081379";"street_address";"Av. Protásio Alves, 10 - Alto Petrópolis, Porto Alegre - RS, Brazil";372;"OFICINA DE REPARACAO DE BICICLETAS";"AV PROTASIO ALVES, 7191/10"
"-30.0332145";"-51.2329173";"street_address";"R. Duque de Caxias, 844 - Centro Histórico, Porto Alegre - RS, 90010-280, Brazil";373;"TINTURARIA E LAVANDERIA SEM CALDEIRA";"R DUQUE DE CAXIAS, 844"
"-30.0414792";"-51.1825204";"street_address";"Av. Taquara, 596 - Petrópolis, Porto Alegre - RS, 90460-210, Brazil";374;"SERVICO DE SOFTWARE E HARDWARE";"AV TAQUARA, 596/403"
"-30.032015";"-51.2042968";"street_address";"R. Mariante, 473 - Rio Branco, Porto Alegre - RS, 90430-181, Brazil";375;"OFICINA DE TROCA E COLOCACAO DE SURDINAS, MOLAS,  AMORTECEDORES E";"R MARIANTE, 473"
"-30.02717";"-51.229729";"establishment";"Tv Francisco - Tv. Franscisco de Leonardo Truda, 40 - 12° Andar - Centro Histórico, Porto Alegre - RS, 90010-904, Brazil";376;"ESCRITORIO DE ADMINISTRACAO (SERVIO DE ASSESSORIAADMINISTRATIVA)";"TRAV FRANCISCO DE LEONARDO TRUDA, 40/141"
"-30.0324417";"-51.2367966";"bakery";"R. dos Andradas, 483 - Centro Histórico, Porto Alegre - RS, 90020-001, Brazil";377;"GARAGEM E ESTACIONAMENTO PARA VEICULOS, EXCETO OS DE CARGA OU COLE";"R ANDRADAS, 672"
"-30.0439257";"-51.2026444";"street_address";"R. São Francisco, 30 - Santana, Porto Alegre - RS, 90620-070, Brazil";378;"LOCACAO DE MAO-DE-OBRA";"R SAO FRANCISCO, 30"
"-30.0205576";"-51.1639431";"street_address";"Av. João Wallig, 890 - Passo d'Areia, Porto Alegre - RS, 91340-001, Brazil";379;"CONFECCAO SOB MEDIDA DE ARTIGOS DO VESTUARIO";"AV JOAO WALLIG, 890"
"-30.1004451";"-51.2484314";"street_address";"Av. Wenceslau Escobar, 2226 - Tristeza, Porto Alegre - RS, 91900-000, Brazil";380;"ESCRITORIO DE SERVICOS DE ASSESSORIA";"AV WENCESLAU ESCOBAR, 2226/1"
"-30.029678";"-51.2293383";"establishment";"R. dos Andradas, 1234 - Centro Histórico, Porto Alegre - RS, 90010-000, Brazil";381;"ESCRITORIO DE COBRANCA E AJUSTE DE CONTAS";"R ANDRADAS, 1001/1202"
"-30.1087296";"-51.254407";"premise";"Av. Wenceslau Escobar, 2299 - Tristeza, Porto Alegre - RS, Brazil";382;"OFICINA DE ASSISTENCIA TECNICA";"AV WENCESLAU ESCOBAR, 2299"
"-30.0087703";"-51.0953156";"street_address";"Av. Maurício Seligman, 312 - Rubem Berta, Porto Alegre - RS, 91180-090, Brazil";383;"ESCRITORIO ADMINISTRATIVO (SEDE ADMINISTRATIVA DE EMPRESA)";"AV MAURICIO SELIGMAN, 312"
"-29.9848822";"-51.1959311";"street_address";"R. Armando Amado Potrich, 167 - Farrapos, Porto Alegre - RS, 90245-090, Brazil";384;"OFICINA DE REPARACAO E MANUTENCAO DE ELETRODOMES- TICOS";"R ARMANDO AMADO POTRICH, 167"
"-30.0296466";"-51.224599";"establishment";"Rua Doutor Flores, 262 - Centro Histórico, Porto Alegre - RS, 90120-020, Brazil";385;"ESCRITORIO ADMINISTRATIVO (SEDE ADMINISTRATIVA DE EMPRESA)";"R DR FLORES, 262/22"
"-30.0410003";"-51.1940122";"street_address";"Av. Cel. Lucas de Oliveira, 2040 - Petrópolis, Porto Alegre - RS, 90460-000, Brazil";386;"ESCRITORIO DE ADMINISTRACAO (SERVIO DE ASSESSORIAADMINISTRATIVA)";"AV CEL LUCAS DE OLIVEIRA, 2040"
"-30.0493396";"-51.2056803";"street_address";"R. Maestro Mendanha, 102 - Santana, Porto Alegre - RS, 90620-160, Brazil";387;"OFICINA DE ASSISTENCIA TECNICA";"R MAESTRO MENDANHA, 102/31"
"-30.104274";"-51.2656599";"street_address";"Av. Guaíba, 4516 - Vila Assunção, Porto Alegre - RS, 91900-420, Brazil";388;"EDITORACAO GRAFICA, EDICAO E IMPRESSAO DE OUTROS  PRODUTOS GRAFICO";"AV GUAIBA, 4516"
"-30.0052368";"-51.151944";"premise";"Praça Libanesa, 64 - Jardim Lindoia, Porto Alegre - RS, 91050-050, Brazil";389;"CONSULTORIO VETERINARIO";"PCA LIBANEZA, 64"
"-30.0684452";"-51.1789915";"street_address";"Av. Rócio, 555 - Vila Joao Pessoa, Porto Alegre - RS, 91510-090, Brazil";390;"ESTUDIO DE DESENHO";"AV ROCIO, 555"
"-30.0277024";"-51.2259681";"street_address";"R. Voluntários da Pátria, 57 - Centro Histórico, Porto Alegre - RS, 90030-002, Brazil";391;"OFICINA DE REPARACAO DE APARELHOS ELETRONICOS";"R VOLUNTARIOS DA PATRIA, 57/904"
"-30.0216815";"-51.1098343";"route";"Rua Sargento Silvio Delmar Hollenbach, Porto Alegre - RS, Brazil";392;"REPRESENTACAO COMERCIAL (INTERMEDIARIOS DE VENDAS DE MERCADORIAS A";"R SARGENTO SILVIO DELMAR HOLLENBACH, 767"
"-30.0107662";"-51.1715683";"street_address";"Av. Tapiaçu, 310 - Passo d'Areia, Porto Alegre - RS, 91030-510, Brazil";393;"EMPRESA DE VIGILANCIA S/ARMAZENAMENTO DE PRODUTOS QUIMICOS";"AV TAPIACU, 310/306"
"-30.0338825";"-51.223737";"premise";"Tv. Tuyuty, 65 - Centro Histórico, Porto Alegre - RS, 90050-270, Brazil";394;"CENTRAL DE SERVICOS DE APOIO AS EMPRESAS";"TRAV TUYUTY, 65"
"-30.0183657";"-51.2003687";"street_address";"R. Dr. Timóteo, 371 - Floresta, Porto Alegre - RS, 90570-041, Brazil";395;"REPRESENTACAO COMERCIAL (INTERMEDIARIOS DE VENDAS DE MERCADORIAS A";"R DR TIMOTEO, 371/501"
"-30.0175464";"-51.2079373";"street_address";"R. Câncio Gomes, 496 - Floresta, Porto Alegre - RS, 90220-060, Brazil";396;"EDITORACAO GRAFICA, EDICAO E IMPRESSAO DE OUTROS  PRODUTOS GRAFICO";"R CANCIO GOMES, 496"
"-30.0273365";"-51.1471438";"route";"Rua Dom Luiz Guanela - Vila Ipiranga, Porto Alegre - RS, 91320-190, Brazil";397;"ESCRITORIO DE CORRETAGEM DE SEGUROS";"R DOM LUIZ GUANELLA, 98/3"
"-30.0065847";"-51.1892019";"street_address";"R. Augusto Severo, 68 - São João, Porto Alegre - RS, 90240-480, Brazil";398;"OFICINA DE REPARACAO DE MAQUINAS E APARELHOS ELE- TRICOS OU NAO";"R AUGUSTO SEVERO, 68"
"-30.0078673";"-51.2029888";"street_address";"Av. Pres. Franklin Roosevelt, 929 - São Geraldo, Porto Alegre - RS, 90230-001, Brazil";399;"ESCRITORIO DE VENDAS (PRODUTOS PROPRIOS SEM INTERMDIACAO DE TERCEI";"AV PRESIDENTE FRANKLIN ROOSEVELT, 929/404"
"-30.0532598";"-51.2142749";"street_address";"Av. da Azenha, 1067 - Azenha, Porto Alegre - RS, 90160-006, Brazil";400;"FOTOCOPIAS, COPIAS HELIOGRAFICAS E PLASTIFICACAO";"AV AZENHA, 1067/17"
"-30.0375363";"-51.2222652";"street_address";"R. Gen. Lima e Silva, 488 - Cidade Baixa, Porto Alegre - RS, 90050-100, Brazil";401;"FOTOCOPIAS, COPIAS HELIOGRAFICAS E PLASTIFICACAO";"R GEN LIMA E SILVA, 488/1"
"-30.0516977";"-51.1966666";"establishment";"R. Euclídes da Cunha, 431 - Partenon, Porto Alegre - RS, 90620-220, Brazil";402;"SALAO DE BELEZA";"R EUCLYDES DA CUNHA, 431"
"-30.0072796";"-51.1947499";"street_address";"Av. Brasil, 1289 - Navegantes, Porto Alegre - RS, 90230-061, Brazil";403;"OFICINA DE ASSISTENCIA TECNICA";"AV BRASIL, 1289"
"-30.0313372";"-51.2339499";"establishment";"R. dos Andradas, 772 - Centro, Porto Alegre - RS, 90020-004, Brazil";404;"SEGURADORA";"R ANDRADAS, 772"
"-30.0112559";"-51.2006266";"street_address";"Av. São Pedro, 883 - São Geraldo, Porto Alegre - RS, 90230-121, Brazil";405;"SALAO DE BELEZA";"AV SAO PEDRO, 883"
"-30.0186174";"-51.1732243";"premise";"R. Atanásio Belmonte, 236 - Boa Vista, Porto Alegre - RS, 90520-550, Brazil";406;"OFICINA DE REPARACAO DE ARTIGOS DIVERSOS NAO ESPE-CIFICADOS";"R ATANASIO BELMONTE, 236"
"-30.0535557";"-51.2191639";"street_address";"R. Visc. do Herval, 929 - Menino Deus, Porto Alegre - RS, 90130-151, Brazil";407;"ESCRITORIO DE ADMINISTRACAO (SERVIO DE ASSESSORIAADMINISTRATIVA)";"R VISCONDE DO HERVAL, 929"
"-30.0412632";"-51.1813111";"street_address";"Av. Montenegro, 206 - Petrópolis, Porto Alegre - RS, 90460-160, Brazil";408;"ESCRITORIO DE ARQUITETURA";"AV MONTENEGRO, 206/306"
"-30.0065969";"-51.1900849";"street_address";"R. Souza Reis, 67 - São João, Porto Alegre - RS, Brazil";409;"ESCRITORIO DE SERVICOS DE CONSULTORIA";"R SOUZA REIS, 67"
"-30.04284";"-51.188003";"street_address";"Av. Itaqui, 72 - Petrópolis, Porto Alegre - RS, 90460-140, Brazil";410;"ESCRITORIO DE CORRETAGEM DE IMOVEIS";"AV ITAQUI, 72/204"
"-30.0277024";"-51.2259681";"street_address";"R. Voluntários da Pátria, 57 - Centro Histórico, Porto Alegre - RS, 90030-002, Brazil";411;"ESCRITORIO DE SERVICOS DE CONSULTORIA";"R VOLUNTARIOS DA PATRIA, 57/402"
"-30.032716";"-51.1680772";"premise";"R. Carlos Huber, 814 - Três Figueiras, Porto Alegre - RS, 91330-150, Brazil";412;"REPRESENTACAO COMERCIAL (INTERMEDIARIOS DE VENDAS DE MERCADORIAS A";"R CARLOS HUBER, 814"
"-29.997877";"-51.199095";"street_address";"Rua Coronel Dico de Barros, 58 - Navegantes, Porto Alegre - RS, 90240-090, Brazil";413;"ESCRITORIO ADMINISTRATIVO (SEDE ADMINISTRATIVA DE EMPRESA)";"R CEL DICO DE BARROS, 58"
"-30.1091591";"-51.2556955";"premise";"R. Pedro de Oliveira Bitencourt, 125 - Tristeza, Porto Alegre - RS, 91900-230, Brazil";414;"CLUBE E LOCAL PRIVADO DE USO RECREATIVO OU ESPOR- TIVO DE CARATER";"R PEDRO DE OLIVEIRA BITTENCOURT, 125"
"-30.0302135";"-51.2256997";"street_address";"R. Vig. José Inácio, 508 - Centro Histórico, Porto Alegre - RS, 90020-100, Brazil";415;"SALAO DE BELEZA";"R VIGARIO JOSE IGNACIO, 508/236"
"-30.016303";"-51.200474";"street_address";"R. Dr. Timóteo, 143 - Floresta, Porto Alegre - RS, 90570-041, Brazil";416;"PROCESSAMENTO DE DADOS";"R DR TIMOTEO, 143"
"-30.02736";"-51.203174";"establishment";"R. Dr. Florêncio Ygartua, 65 - Loja 22 - Moinhos de Vento, Porto Alegre - RS, 90430-010, Brazil";417;"SERVICO DE ASSESSORIA, CONSULTORIA, PESQUISA, ANA-LISE E PROMOCOES";"R DR FLORENCIO YGARTUA, 69/304"
"-30.0272036";"-51.2253998";"street_address";"R. Voluntários da Pátria, 130 - Centro Histórico, Porto Alegre - RS, Brazil";418;"ESTUDIO FOTOGRAFICO";"R VOLUNTARIOS DA PATRIA, 130/1"
"-30.0162368";"-51.2040846";"premise";"Rua Visconde do Rio Branco, 391 - Floresta, Porto Alegre - RS, 90220-230, Brazil";419;"SERVICO DE BUFFET";"R VISCONDE DO RIO BRANCO, 391"
"-30.0220963";"-51.1951042";"street_address";"Av. Nova York, 10 - Auxiliadora, Porto Alegre - RS, 90550-070, Brazil";420;"ESCRITORIO DE PROMOCOES";"AV NOVA YORK, 10/506"
"-29.985742";"-51.126606";"street_address";"Av. Alcídes Maia, 562 - Sarandi, Porto Alegre - RS, 91120-440, Brazil";421;"INSTALACOES ELETRICAS";"AV ALCIDES MAIA, 562"
"-30.0464664";"-51.2135577";"premise";"Av. da Azenha, 334 - Azenha, Porto Alegre - RS, Brazil";422;"OFICINA DE ASSISTENCIA TECNICA";"AV AZENHA, 334"
"-30.058203";"-51.2152279";"street_address";"R. Doná Cecília, 69 - Medianeira, Porto Alegre - RS, Brazil";423;"ESTUDIO FOTOGRAFICO";"R DONA CECILIA, 69"
"-30.0509402";"-51.2122675";"street_address";"Av. Princesa Isabel, 57 - Azenha, Porto Alegre - RS, Brazil";424;"REPRESENTACAO COMERCIAL (INTERMEDIARIOS DE VENDAS DE MERCADORIAS A";"AV PRINCESA ISABEL, 57/412"
"-30.0481834";"-51.2062002";"premise";"R. Gomes Jardim, 519 - Santana, Porto Alegre - RS, 90620-160, Brazil";425;"ESCRITORIO DE IMPORTACAO E EXPORTACAO";"R GOMES JARDIM, 519"
"-30.0402791";"-51.2225411";"street_address";"R. José do Patrocínio, 626 - Cidade Baixa, Porto Alegre - RS, 90050-002, Brazil";426;"AGENCIA DE LOCACAO DE VEICULOS";"R JOSE DO PATROCINIO, 626"
"-30.0125035";"-51.1935239";"street_address";"Rua 16 de Julho, 42 - São João, Porto Alegre - RS, 90550-020, Brazil";427;"AGENCIA DE VIAGENS E TURISMO";"R DEZESSEIS DE JULHO, 42/302"
"-30.1044736";"-51.239258";"street_address";"R. Camaquã, 545 - Camaquã, Porto Alegre - RS, 91910-630, Brazil";428;"EDITORACAO GRAFICA, EDICAO E IMPRESSAO DE OUTROS  PRODUTOS GRAFICO";"R CAMAQUA, 545/201"
"-30.131007";"-51.224768";"street_address";"R. Capão da Canoa, 234 - Cavalhada, Porto Alegre - RS, 91760-170, Brazil";429;"ASILOS (GERIATRIA, PENSIONATO SEM TRATAMENTO TERA-PEUTICO)";"R CAPAO DA CANOA, 234"
"-30.029533";"-51.203437";"street_address";"Rua Dona Laura, 226 - Rio Branco, Porto Alegre - RS, 90430-090, Brazil";430;"ESCRITORIO DE PROMOCOES";"R DONA LAURA, 226/401"
"-30.0407535";"-51.2133942";"street_address";"R. Santana, 217 - Farroupilha, Porto Alegre - RS, 90040-371, Brazil";431;"REPRESENTACAO COMERCIAL (INTERMEDIARIOS DE VENDAS DE MERCADORIAS A";"R SANTANA, 217"
"-30.0127417";"-51.2082439";"street_address";"R. do Parque, 266 - São Geraldo, Porto Alegre - RS, 90230-200, Brazil";432;"REPRESENTACAO COMERCIAL (INTERMEDIARIOS DE VENDAS DE MERCADORIAS A";"R PARQUE, 266"
"-30.029678";"-51.2293383";"establishment";"R. dos Andradas, 1234 - Centro Histórico, Porto Alegre - RS, 90010-000, Brazil";433;"ESCRITORIO DE COBRANCA E AJUSTE DE CONTAS";"R ANDRADAS, 1643/602"
"-30.0241906";"-51.1739104";"street_address";"Rua 14 de Julho, 654 - Boa Vista, Porto Alegre - RS, 91340-430, Brazil";434;"ACADEMIA DE ENSINO E/OU PRATICA DE GINASTICA";"R QUATORZE DE JULHO, 654/103"
"-30.0756624";"-51.1988507";"street_address";"R. Intendente Alfredo Azevedo, 199 - Glória, Porto Alegre - RS, 91710-010, Brazil";435;"ESCRITORIO DE PROMOCOES";"R INTENDENTE ALFREDO AZEVEDO, 199"
"-30.0295605";"-51.1879469";"street_address";"R. Artur Rocha, 762 - Auxiliadora, Porto Alegre - RS, 90450-170, Brazil";436;"ESCRITORIO ADMINISTRATIVO (SEDE ADMINISTRATIVA DE EMPRESA)";"R ARTUR ROCHA, 762"
"-30.0103358";"-51.1495033";"street_address";"Av. Assis Brasil, 3726 - Passo d'Areia, Porto Alegre - RS, Brazil";437;"REPRESENTACAO COMERCIAL (INTERMEDIARIOS DE VENDAS DE MERCADORIAS A";"AV ASSIS BRASIL, 3726"
"-29.9940173";"-51.1288744";"street_address";"Av. Assis Brasil, 6537 - Passo D'areia, Porto Alegre - RS, 91010-004, Brazil";438;"ESCRITORIO ADMINISTRATIVO (SEDE ADMINISTRATIVA DE EMPRESA)";"AV ASSIS BRASIL, 6537/207"
"-30.0059716";"-51.1857931";"street_address";"R. Dona Sebastiana, 350 - São João, Porto Alegre - RS, Brazil";439;"EMPREITEIRA DA CONSTRUCAO CIVIL";"R DONA SEBASTIANA, 350"
"-30.101506";"-51.236705";"street_address";"R. Dr. Barcelos, 2271 - Camaquã, Porto Alegre - RS, 91910-251, Brazil";440;"GARAGEM E ESTACIONAMENTO PARA VEICULOS, EXCETO OS DE CARGA OU COLE";"R DR BARCELOS, 2271"
"-30.0331133";"-51.2228476";"street_address";"Av. João Pessoa, 65 - Centro, Porto Alegre - RS, 90040-000, Brazil";441;"CYBER CAFE";"AV JOAO PESSOA, 65"
"-30.0288361";"-51.2294263";"street_address";"Rua 7 de Setembro, 1126 - Centro Histórico, Porto Alegre - RS, 90010-190, Brazil";442;"OFICINA DE REPARACAO DE APARELHOS ELETRONICOS";"R SETE DE SETEMBRO, 1126/222"
"-30.018421";"-51.1362133";"route";"Rua Dona Adda Mascarenhas de Moraes - Jardim Itu-Sabará, Porto Alegre - RS, Brazil";443;"ESCRITORIO DE ARQUITETURA";"R DONA ADDA MASCARENHAS DE MORAES, 197/303"
"-30.1235789";"-51.2214137";"street_address";"Av. Eduardo Prado, 415 - Cavalhada, Porto Alegre - RS, 91751-000, Brazil";444;"PROCESSAMENTO DE DADOS";"AV EDUARDO PRADO, 415/1"
"-30.0620948";"-51.1492153";"street_address";"Av. Antônio de Carvalho, 470 - Agronomia, Porto Alegre - RS, Brazil";445;"BORRACHARIA/VULCANIZADORA";"AV ANTONIO CARVALHO, 470"
"-30.029678";"-51.2293383";"establishment";"R. dos Andradas, 1234 - Centro Histórico, Porto Alegre - RS, 90010-000, Brazil";446;"REPRESENTACAO COMERCIAL (INTERMEDIARIOS DE VENDAS DE MERCADORIAS A";"R ANDRADAS, 1137/818"
"-30.0317265";"-51.2264511";"street_address";"R. Riachuelo, 1519 - Centro Histórico, Porto Alegre - RS, 90010-270, Brazil";447;"SALAO DE BELEZA";"R RIACHUELO, 1519"
"-30.1040411";"-51.2297057";"street_address";"Av. da Cavalhada, 3164 - Cavalhada, Porto Alegre - RS, 91740-000, Brazil";448;"EMPRESA DE VIGILANCIA S/ARMAZENAMENTO DE PRODUTOS QUIMICOS";"AV CAVALHADA, 3164/204"
"-30.0388012";"-51.2184813";"street_address";"Av. João Pessoa, 809 - Farroupilha, Porto Alegre - RS, Brazil";449;"REPRESENTACAO COMERCIAL (INTERMEDIARIOS DE VENDAS DE MERCADORIAS A";"AV JOAO PESSOA, 809/201"
"-30.0287907";"-51.2248315";"street_address";"Av. Otávio Rocha, 179 - Centro Histórico, Porto Alegre - RS, 90020-012, Brazil";450;"REPARACAO E CONSERTO DE ARMACAO PARA OCULOS";"AV OTAVIO ROCHA, 179/32"
"-30.0304629";"-51.2279618";"street_address";"Av. Borges de Medeiros, 453 - Centro Histórico, Porto Alegre - RS, 90020-021, Brazil";451;"SALAO DE BELEZA";"AV BORGES DE MEDEIROS, 453/104"
"-30.029678";"-51.2293383";"establishment";"R. dos Andradas, 1234 - Centro Histórico, Porto Alegre - RS, 90010-000, Brazil";452;"ESCRITORIO DE CONTABILIDADE";"R ANDRADAS, 1781/301"
"-30.0221286";"-51.1841801";"street_address";"Av. Carlos Gomes, 20 - Auxiliadora, Porto Alegre - RS, 90550-110, Brazil";453;"ESCRITORIO DE SERVICOS DE ASSESSORIA";"AV CARLOS GOMES, 20"
"-30.0047108";"-51.1463492";"street_address";"Rua Bom Retiro do Sul, 41 - São Sebastião, Porto Alegre - RS, 91060-090, Brazil";454;"SALAO DE BELEZA PARA ANIMAIS";"R BOM RETIRO DO SUL, 41"
"-30.026642";"-51.215715";"street_address";"Rua Garibaldi, 659 - Floresta, Porto Alegre - RS, 90035-050, Brazil";455;"REPRESENTACAO COMERCIAL (INTERMEDIARIOS DE VENDAS DE MERCADORIAS A";"R GARIBALDI, 659/101"
"-30.0107798";"-51.1710184";"street_address";"R. Tupi, 52 - Passo d'Areia, Porto Alegre - RS, 91030-520, Brazil";456;"REPRESENTACAO COMERCIAL (INTERMEDIARIOS DE VENDAS DE MERCADORIAS A";"R TUPI, 52/304"
"-29.991552";"-51.1275229";"street_address";"R. Jackson de Figueiredo, 73 - Sarandi, Porto Alegre - RS, 91120-380, Brazil";457;"ESCRITORIO ADMINISTRATIVO (SEDE ADMINISTRATIVA DE EMPRESA)";"R JACKSON DE FIGUEIREDO, 73"
"-30.0656078";"-51.1960948";"street_address";"R. Barão do Amazonas, 2630 - Partenon, Porto Alegre - RS, 90660-001, Brazil";458;"ESCRITORIO DE IMPORTACAO E EXPORTACAO";"R BARAO DO AMAZONAS, 2630"
"-30.0124846";"-51.1656375";"street_address";"R. Itapeva, 80 - Passo d'Areia, Porto Alegre - RS, 91350-080, Brazil";459;"REPRESENTACAO COMERCIAL (INTERMEDIARIOS DE VENDAS DE MERCADORIAS A";"R ITAPEVA, 80/203"
"-30.1355304";"-51.2267215";"street_address";"Av. Tramandaí, 720 - Ipanema, Porto Alegre - RS, 91760-050, Brazil";460;"IMOBILIARIA";"AV TRAMANDAI, 720/101"
"-30.001786";"-51.201401";"street_address";"R. Dr. João Inácio, 507 - Navegantes, Porto Alegre - RS, 90230-180, Brazil";461;"LOCACAO DE CD'S, DISCOS E FITAS";"R DR JOAO INACIO, 507"
"-30.1061953";"-51.2295836";"premise";"Av. da Cavalhada, 3405 - Cavalhada, Porto Alegre - RS, Brazil";462;"OFICINA DE TROCA E COLOCACAO DE SURDINAS, MOLAS,  AMORTECEDORES E";"AV CAVALHADA, 3405"
"-30.0604533";"-51.2239704";"street_address";"R. José de Alencar, 773 - Menino Deus, Porto Alegre - RS, Brazil";463;"OFICINA DE REPARACAO DE JOIAS E RELOGIOS";"R JOSE DE ALENCAR, 773"
"-30.0130756";"-51.2065681";"premise";"R. do Parque, 426 - São Geraldo, Porto Alegre - RS, 90230-200, Brazil";464;"EDITORACAO GRAFICA, EDICAO E IMPRESSAO DE OUTROS  PRODUTOS GRAFICO";"R PARQUE, 426"
"-30.106471";"-51.254297";"street_address";"R. Vicente Failace, 475 - Tristeza, Porto Alegre - RS, 91900-270, Brazil";465;"SALAO DE BELEZA";"R VICENTE FAILACE, 475"
"-30.027005";"-51.214629";"street_address";"Av. Cristóvão Colombo, 301 - Floresta, Porto Alegre - RS, 90560-003, Brazil";466;"FOTOCOPIAS, COPIAS HELIOGRAFICAS E PLASTIFICACAO";"AV CRISTOVAO COLOMBO, 301"
"-30.0294269";"-51.223603";"street_address";"R. Sr. dos Passos, 259 - Centro Histórico, Porto Alegre - RS, 90020-180, Brazil";467;"ESCRITORIO DE CORRETAGEM DE SEGUROS";"R SENHOR DOS PASSOS, 259/6"
"-30.0001067";"-51.151311";"street_address";"Av. Panamericana, 1097 - Jardim Lindoia, Porto Alegre - RS, 91050-001, Brazil";468;"SALAO DE BELEZA";"AV PANAMERICANA, 1097"
"-30.0012655";"-51.1509639";"street_address";"R. Assunção, 356 - Jardim Lindoia, Porto Alegre - RS, 91050-130, Brazil";469;"REPRESENTACAO COMERCIAL (INTERMEDIARIOS DE VENDAS DE MERCADORIAS A";"R ASSUNCAO, 356"
"-30.0137134";"-51.1593416";"establishment";"Av. Francisco Trein, 326 - Cristo Redentor, Porto Alegre - RS, 91350-200, Brazil";470;"SERVICO DE SOFTWARE E HARDWARE";"AV FRANCISCO TREIN, 208/304"
"-30.0285737";"-51.2061951";"street_address";"R. Mostardeiro, 120 - Independência, Porto Alegre - RS, 90430-001, Brazil";471;"EDITORACAO GRAFICA, EDICAO E IMPRESSAO DE OUTROS  PRODUTOS GRAFICO";"R MOSTARDEIRO, 120/19"
"-30.041698";"-51.2180778";"street_address";"R. Gen. Lima e Silva, 1067 - Centro Histórico, Porto Alegre - RS, 90050-101, Brazil";472;"GARAGEM E ESTACIONAMENTO PARA VEICULOS, EXCETO OS DE CARGA OU COLE";"R GEN LIMA E SILVA, 1067"
"-30.0424805";"-51.1911711";"street_address";"Av. Protásio Alves, 1767 - Petrópolis, Porto Alegre - RS, 90410-001, Brazil";473;"FOTOCOPIAS, COPIAS HELIOGRAFICAS E PLASTIFICACAO";"AV PROTASIO ALVES, 1767"
"-30.0393028";"-51.2127402";"premise";"Av. Venâncio Aires, 777 - Cidade Baixa, Porto Alegre - RS, Brazil";474;"ESCOLA DE LINGUAS";"AV VENANCIO AIRES, 777"
"-30.0487639";"-51.2204195";"street_address";"Av. Ipiranga, 749 - Praia de Belas, Porto Alegre - RS, 90160-091, Brazil";475;"ESCRITORIO ADMINISTRATIVO (SEDE ADMINISTRATIVA DE EMPRESA)";"AV IPIRANGA, 749"
"-30.0359724";"-51.2228524";"street_address";"R. Sarmento Leite, 796 - Centro Histórico, Porto Alegre - RS, 90050-170, Brazil";476;"ESCOLA DE LINGUAS";"R SARMENTO LEITE, 796"
"-30.0223929";"-51.2080526";"street_address";"Rua Dr. Vale, 60 - Floresta, Porto Alegre - RS, 90560-010, Brazil";477;"ESCRITORIO DE ENGENHARIA";"R DR VALE, 60/501"
"-30.0455887";"-51.1806694";"street_address";"R. Camerino, 73 - Petrópolis, Porto Alegre - RS, Brazil";478;"ESCRITORIO DE ADMINISTRACAO (SERVIO DE ASSESSORIAADMINISTRATIVA)";"R CAMERINO, 73"
"-30.121979";"-51.2122715";"establishment";"Vila Nova, Porto Alegre - RS, 91750-200, Brazil";479;"LOCACAO DE MAO-DE-OBRA";"R ATILIO SUPERTTI, 2255"
"-30.01271";"-51.205552";"street_address";"R. Quintino Bandeira, 6 - Floresta, Porto Alegre - RS, 90220-050, Brazil";480;"OFICINA DE ASSISTENCIA TECNICA";"R QUINTINO BANDEIRA, 6/201"
"-30.1048517";"-51.2544351";"street_address";"Av. Wenceslau Escobar, 1823 - Cristal, Porto Alegre - RS, Brazil";481;"CLINICA ESTETICA";"AV WENCESLAU ESCOBAR, 1823/304"
"-30.0080856";"-51.1964598";"street_address";"Av. Amazonas, 544 - São Geraldo, Porto Alegre - RS, 90240-541, Brazil";482;"ESCRITORIO DE IMPORTACAO E EXPORTACAO";"AV AMAZONAS, 544"
"-30.097656";"-51.2307499";"street_address";"Av. da Cavalhada, 2360 - Cavalhada, Porto Alegre - RS, 91740-000, Brazil";483;"REPRESENTACAO COMERCIAL (INTERMEDIARIOS DE VENDAS DE MERCADORIAS A";"AV CAVALHADA, 2360/112"
"-30.0216847";"-51.1712886";"street_address";"R. Líbero Badaró, 417 - Passo d'Areia, Porto Alegre - RS, 91340-230, Brazil";484;"ESCRITORIO DE ADMINISTRACAO (SERVIO DE ASSESSORIAADMINISTRATIVA)";"R LIBERO BADARO, 417"
"-30.0383392";"-51.2124049";"street_address";"R. Viêira de Castro, 56 - Farroupilha, Porto Alegre - RS, Brazil";485;"REPRESENTACAO COMERCIAL (INTERMEDIARIOS DE VENDAS DE MERCADORIAS A";"R VIEIRA DE CASTRO, 56/202"
"-30.0127671";"-51.2087608";"street_address";"R. do Parque, 208 - São Geraldo, Porto Alegre - RS, 90230-200, Brazil";486;"AGENCIA DE LOCACAO DE LOUCAS, SEMELHANTES E SERVI-COS DE BUFFET";"R PARQUE, 208"
"-30.029379";"-51.2284946";"street_address";"R. Uruguai, 300 - Centro, Porto Alegre - RS, 90010-140, Brazil";487;"ESCRITORIO DE COBRANCA E AJUSTE DE CONTAS";"R URUGUAI, 300"
"-29.9947405";"-51.1301741";"route";"Av. Assis Brasil, Porto Alegre - RS, Brazil";488;"REPARACAO E CONSERTO DE ARMACAO PARA OCULOS";"AV ASSIS BRASIL, 2358"
"-30.0177396";"-51.1982305";"street_address";"Av. Cristóvão Colombo, 2262 - Floresta, Porto Alegre - RS, 90560-002, Brazil";489;"OFICINA DE REPARACAO DE APARELHOS ELETRONICOS";"AV CRISTOVAO COLOMBO, 2262"
"-30.0160407";"-51.2023326";"establishment";"Av. Pernambuco, 2623 - São Geraldo, Porto Alegre - RS, 90240-005, Brazil";490;"ESCRITORIO DE SERVICOS DE CONSULTORIA";"AV PERNAMBUCO, 2623/403"
"-30.0253899";"-51.1966878";"premise";"R. Cel. Bordini, 841 - Auxiliadora, Porto Alegre - RS, 90440-001, Brazil";491;"CLINICA E POLICLINICA ODONTOLOGICA SEM CALDEIRA";"R CEL BORDINI, 841"
"-30.0599757";"-51.2233656";"street_address";"Av. Getúlio Vargas, 1691 - Menino Deus, Porto Alegre - RS, 90150-001, Brazil";492;"ESCRITORIO DE LOCACAO";"AV GETULIO VARGAS, 1691/705"
"-30.0644815";"-51.2278663";"street_address";"R. Dona Augusta, 517 - Menino Deus, Porto Alegre - RS, 90850-130, Brazil";493;"ESCRITORIO DE PROMOCOES";"R DONA AUGUSTA, 517"
"-30.02164";"-51.1951655";"street_address";"Av. Nova York, 62 - Auxiliadora, Porto Alegre - RS, 90550-070, Brazil";494;"ACADEMIA DE ENSINO E/OU PRATICA DE GINASTICA";"AV NOVA YORK, 62"
"-30.063529";"-51.171589";"street_address";"R. Irmão Weibert, 177 - Vila Joao Pessoa, Porto Alegre - RS, 91520-310, Brazil";495;"RECARGA DE CARTUCHOS PARA IMPRESSORAS";"R IRMAO WEIBERT, 177"
"-30.0261461";"-51.193937";"street_address";"Rua Tenente Coronel Fabricio Pillar, 353 - Mont'Serrat, Porto Alegre - RS, 90450-040, Brazil";496;"ESCOLA ESPECIAL";"R TEN CEL FABRICIO PILAR, 353"
"-30.0418494";"-51.1790457";"street_address";"Av. Protásio Alves, 3032 - Alto Petrópolis, Porto Alegre - RS, Brazil";497;"ESCRITORIO DE PUBLICIDADE E PROPAGANDA";"AV PROTASIO ALVES, 3032/203"
"-30.0496236";"-51.2291848";"street_address";"Av. Borges de Medeiros, 2500 - Centro Histórico, Porto Alegre - RS, 90020-024, Brazil";498;"SERVICO DE ASSESSORIA, CONSULTORIA, PESQUISA, ANA-LISE E PROMOCOES";"AV BORGES DE MEDEIROS, 2500/701"
"-30.0097478";"-51.1890564";"street_address";"R. Dom Pedro II, 290 - São João, Porto Alegre - RS, 90550-141, Brazil";499;"ESCRITORIO DE SERVICOS DE CONSULTORIA";"R DOM PEDRO II, 290"
"-30.0382058";"-51.1825204";"street_address";"R. Prof. Fitzgerald, 71 - Petrópolis, Porto Alegre - RS, 90470-160, Brazil";500;"REPRESENTACAO COMERCIAL (INTERMEDIARIOS DE VENDAS DE MERCADORIAS A";"R PROF FITZGERALD, 71"
"-30.0465718";"-51.2055297";"street_address";"Av. Princesa Isabel, 844 - Santana, Porto Alegre - RS, 90620-000, Brazil";501;"ESCRITORIO DE ENGENHARIA";"AV PRINCESA ISABEL, 844/501"
"-30.03596";"-51.2098918";"street_address";"R. Felipe Camarão, 751 - Rio Branco, Porto Alegre - RS, 90035-141, Brazil";502;"ESCRITORIO DE PUBLICIDADE E PROPAGANDA";"R FELIPE CAMARAO, 751/402"
"-30.0181511";"-51.1959011";"street_address";"Av. Cristóvão Colombo, 2427 - Floresta, Porto Alegre - RS, Brazil";503;"REPRESENTACAO COMERCIAL (INTERMEDIARIOS DE VENDAS DE MERCADORIAS A";"AV CRISTOVAO COLOMBO, 2427/406"
"-30.0178358";"-51.1885547";"street_address";"R. Felicissimo de Azevedo, 1020 - São João, Porto Alegre - RS, 90540-110, Brazil";504;"REPRESENTACAO COMERCIAL (INTERMEDIARIOS DE VENDAS DE MERCADORIAS A";"R FELICISSIMO DE AZEVEDO, 1020/602"
"-30.0322365";"-51.1986871";"street_address";"R. Castro Alves, 1177 - Independência, Porto Alegre - RS, 90430-131, Brazil";505;"SALAO DE BELEZA";"R CASTRO ALVES, 1177"
"-30.029678";"-51.2293383";"establishment";"R. dos Andradas, 1234 - Centro Histórico, Porto Alegre - RS, 90010-000, Brazil";506;"ESCRITORIO DE SERVICOS DE CONSULTORIA";"R ANDRADAS, 1001/32"
"-30.0549677";"-51.2053828";"premise";"Tv. Dezenove de Novembro, 292 - Santo Antônio, Porto Alegre - RS, 90640-010, Brazil";507;"EMPRESA DE LIMPEZA S/ARMAZENAMENTO DE PRODUTOS QUIMICOS";"TRAV DEZENOVE DE NOVEMBRO, 292"
"-30.2094896";"-51.1756742";"street_address";"R. João Viêira de Águiar Sobrinho, 479 - Belém Novo, Porto Alegre - RS, 91780-040, Brazil";508;"REPRESENTACAO COMERCIAL (INTERMEDIARIOS DE VENDAS DE MERCADORIAS A";"R JOAO VIEIRA DE AGUIAR SOBRINHO, 479"
"-30.0664807";"-51.1677456";"establishment";"R. Vidal de Negreiros, 550 - São José, Porto Alegre - RS, 91520-480, Brazil";509;"OFICINA MECANICA PARA AUTOMOVEIS";"R VIDAL DE NEGREIROS, 328"
"-30.0250095";"-51.1622202";"street_address";"Av. João Wallig, 1800 - Passo d'Areia, Porto Alegre - RS, Brazil";510;"SALAO DE BELEZA PARA ANIMAIS";"AV JOAO WALLIG, 1800/276"
"-30.0282176";"-51.2265508";"street_address";"Praça Quinze de Novembro, 66 - Centro Histórico, Porto Alegre - RS, 90020-061, Brazil";511;"ESCRITORIO DE COBRANCA E AJUSTE DE CONTAS";"PCA QUINZE DE NOVEMBRO, 66/1203"
"-30.0515539";"-51.1904985";"street_address";"Rua La Plata, 657 - Jardim Botânico, Porto Alegre - RS, 90670-130, Brazil";512;"SALAO DE BELEZA";"R LA PLATA, 657"
"-30.0484022";"-51.2017849";"street_address";"R. São Manoel, 1678 - Rio Branco, Porto Alegre - RS, 90620-110, Brazil";513;"ESCRITORIO DE PROMOCOES";"R SAO MANOEL, 1678"
"-30.006973";"-51.197349";"street_address";"Av. Pará, 520 - São Geraldo, Porto Alegre - RS, 90240-590, Brazil";514;"SERVICO DE SOFTWARE E HARDWARE";"AV PARA, 520/203"
"-30.018421";"-51.1362133";"route";"Rua Dona Adda Mascarenhas de Moraes - Jardim Itu-Sabará, Porto Alegre - RS, Brazil";515;"ESCRITORIO ADMINISTRATIVO (SEDE ADMINISTRATIVA DE EMPRESA)";"R DONA ADDA MASCARENHAS DE MORAES, 520"
"-30.210162";"-51.176533";"street_address";"R. Podalírio Teixeira Machado, 380 - Belém Novo, Porto Alegre - RS, 91780-030, Brazil";516;"CYBER CAFE";"R PODALIRIO TEIXEIRA MACHADO, 380"
"-30.0250095";"-51.1622202";"street_address";"Av. João Wallig, 1800 - Passo d'Areia, Porto Alegre - RS, Brazil";517;"ESTUDIO FOTOGRAFICO";"AV JOAO WALLIG, 1800/1229"
"-30.035593";"-51.206651";"street_address";"R. Giordano Bruno, 239 - Rio Branco, Porto Alegre - RS, 90420-150, Brazil";518;"ESCRITORIO DE ENGENHARIA";"R GIORDANO BRUNO, 239"
"-30.0299874";"-51.2040364";"street_address";"R. Mariante, 284 - Rio Branco, Porto Alegre - RS, 90430-180, Brazil";519;"REPRESENTACAO COMERCIAL (INTERMEDIARIOS DE VENDAS DE MERCADORIAS A";"R MARIANTE, 284/702"
"-30.0430195";"-51.1908002";"street_address";"R. Faria Santos, 47 - Petrópolis, Porto Alegre - RS, 90670-150, Brazil";520;"ESCRITORIO DE PUBLICIDADE E PROPAGANDA";"R FARIA SANTOS, 47/501"
"-30.0304628";"-51.229997";"route";"R. Gen. Câmara - Centro Histórico, Porto Alegre - RS, Brazil";521;"ESCRITORIO DE PROMOCOES";"R GEN CAMARA, 381/203"
"-29.9925988";"-51.128386";"street_address";"R. Oliveira Lopes, 26 - Sarandi, Porto Alegre - RS, 91120-430, Brazil";522;"ESCRITORIO DE SERVICOS DE DESPACHANTE E PROCURADOR";"R OLIVEIRA LOPES, 26"
"-30.060377";"-51.222664";"street_address";"R. José de Alencar, 880 - Menino Deus, Porto Alegre - RS, 90880-481, Brazil";523;"REPRESENTACAO COMERCIAL (INTERMEDIARIOS DE VENDAS DE MERCADORIAS A";"R JOSE DE ALENCAR, 880"
"-30.0290323";"-51.2268203";"street_address";"R. Mal. Floriano Peixoto, 19 - Centro Histórico, Porto Alegre - RS, 90020-061, Brazil";524;"OFICINA DE ASSISTENCIA TECNICA";"R MARECHAL FLORIANO PEIXOTO, 19"
"-30.057838";"-51.2294066";"street_address";"Av. Praia de Belas, 2174 - Praia de Belas, Porto Alegre - RS, Brazil";525;"ESCRITORIO DE SERVICOS DE CONSULTORIA";"AV PRAIA DE BELAS, 2174/403"
"-30.0432868";"-51.1797879";"street_address";"Rua Maranguapé, 72 - Petrópolis, Porto Alegre - RS, 90690-380, Brazil";526;"REPRESENTACAO COMERCIAL (INTERMEDIARIOS DE VENDAS DE MERCADORIAS A";"R MARANGUAPE, 72/302"
"-30.0281541";"-51.2166214";"street_address";"Av. Cristóvão Colombo, 64 - Floresta, Porto Alegre - RS, 90560-002, Brazil";527;"ADMINISTRADORA DE CONSORCIOS";"AV CRISTOVAO COLOMBO, 64"
"-30.0326427";"-51.2276312";"street_address";"R. Mal. Floriano Peixoto, 415 - Centro Histórico, Porto Alegre - RS, 90020-061, Brazil";528;"AGENCIA DOS CORREIOS E TELEGRAFOS";"R MARECHAL FLORIANO PEIXOTO, 415"
"-30.0302047";"-51.1429806";"establishment";"Av. Alberto Pasqualini, 451 - Jardim Itu-Sabará, Porto Alegre - RS, 91215-001, Brazil";529;"SERVICO DE SOFTWARE E HARDWARE";"AV ALBERTO PASQUALINI, 320"
"-30.0246214";"-51.2093253";"street_address";"R. Gen. Neto, 71 - Floresta, Porto Alegre - RS, 90560-020, Brazil";530;"EMPREITEIRA DA CONSTRUCAO CIVIL";"R GEN NETO, 71/306"
"-30.0585525";"-51.2157204";"establishment";"Av. da Azenha, 1678 - Azenha, Porto Alegre - RS, 90160-007, Brazil";531;"OFICINA DE REPARACAO DE APARELHOS ELETRONICOS";"AV AZENHA, 1678/7"
