"lat";"long";"accuracy";"formatted_address";"index";"tipo";"default"
"-30.041709";"-51.190972";"street_address";"R. Amélia Téles, 90 - Petrópolis, Porto Alegre - RS, 90460-070, Brazil";1;"CONSULTORIO DE PSICOLOGIA";"R AMELIA TELES, 90/201"
"-30.0276515";"-51.221591";"premise";"Av. Alberto Bins, 514 - Centro, Porto Alegre - RS, 90030-140, Brazil";2;"SALAO DE BELEZA";"AV ALBERTO BINS, 514"
"-30.0300817";"-51.2248339";"street_address";"Rua Doutor Flores, 323 - Centro Histórico, Porto Alegre - RS, Brazil";3;"SALAO DE BELEZA";"R DR FLORES, 323/85"
"-30.017424";"-51.164699";"street_address";"R. Paulo Setúbal, 26 - Passo d'Areia, Porto Alegre - RS, 91340-100, Brazil";4;"PROFISSIONAL AUTONOMO";"R PAULO SETUBAL, 26"
"-30.2114374";"-51.1816922";"street_address";"Av. Heitor Viêira, 607 - Belém Novo, Porto Alegre - RS, Brazil";5;"SALAO DE BELEZA";"AV HEITOR VIEIRA, 607"
"-30.0223376";"-51.2086264";"street_address";"Av. Cristóvão Colombo, 1041 - Floresta, Porto Alegre - RS, Brazil";6;"ESCRITORIO DE SERVICOS JURIDICOS";"AV CRISTOVAO COLOMBO, 1041"
"-29.9869";"-51.124829";"street_address";"Rua Luiz de campos, 194 - Sarandi, Porto Alegre - RS, 91120-410, Brazil";7;"PROFISSIONAL AUTONOMO";"R LUIZ DE CAMPOS, 194"
"-30.052104";"-51.218501";"street_address";"Av. Erico Veríssimo, 751 - Menino Deus, Porto Alegre - RS, 90160-181, Brazil";8;"PROFISSIONAL AUTONOMO";"AV ERICO VERISSIMO, 751/104"
"-30.1283643";"-51.2191104";"route";"Av. Eduardo Prado, Porto Alegre - RS, Brazil";9;"CLINICA ESTETICA";"AV EDUARDO PRADO, 1884"
"-30.052563";"-51.2056888";"street_address";"Av. Bento Gonçalves, 745 - Partenon, Porto Alegre - RS, Brazil";10;"ESCRITORIO DE SERVICOS JURIDICOS";"AV BENTO GONCALVES, 745"
"-29.9935685";"-51.1285563";"street_address";"Av. Assis Brasil, 6605 - Passo d'Areia, Porto Alegre - RS, 91010-004, Brazil";11;"SALAO DE BELEZA";"AV ASSIS BRASIL, 6605/207"
"-30.0237641";"-51.1618924";"establishment";"Av. João Wallig, 1800 - Passo d'Areia, Porto Alegre - RS, 91340-000, Brazil";12;"SALAO DE BELEZA";"AV JOAO WALLIG, 1800/1269"
"-30.0193564";"-51.1520468";"street_address";"Av. do Forte, 962 - Vila Ipiranga, Porto Alegre - RS, 91750-005, Brazil";13;"PROFISSIONAL AUTONOMO";"AV FORTE, 962/254"
"-30.0388487";"-51.224813";"street_address";"R. José do Patrocínio, 369 - Cidade Baixa, Porto Alegre - RS, 90050-101, Brazil";14;"TINTURARIA E LAVANDERIA SEM CALDEIRA";"R JOSE DO PATROCINIO, 369/2"
"-30.0550755";"-51.1868768";"street_address";"Av. Ipiranga, 5200 - Jardim Botânico, Porto Alegre - RS, 90160-001, Brazil";15;"SALAO DE BELEZA";"AV IPIRANGA, 5200/202"
"-30.0222643";"-51.1876593";"street_address";"Av. Plínio Brasil Milano, 365 - Higienópolis, Porto Alegre - RS, 90520-002, Brazil";16;"DECORACAO DE INTERIORES";"AV PLINIO BRASIL MILANO, 365"
"-30.0305244";"-51.2259518";"street_address";"R. Vig. José Inácio, 547 - Centro Histórico, Porto Alegre - RS, 90020-100, Brazil";17;"CONSULTORIO DE PSICOLOGIA";"R VIGARIO JOSE IGNACIO, 547/1403"
"-30.0382876";"-51.1761657";"premise";"Iguaçu 525/Centro Profissional Carlos Canozzi - Av. Iguaçu, 525 - Petrópolis, Porto Alegre - RS, 90470-430, Brazil";18;"CONSULTORIO ODONTOLOGICO";"AV IGUASSU, 525/501"
"-30.0182651";"-51.186152";"street_address";"R. Dom Pedro II, 1240 - São João, Porto Alegre - RS, 90550-141, Brazil";19;"SALAO DE BELEZA";"R DOM PEDRO II, 1240/208"
"-30.0254076";"-51.1976332";"establishment";"R. Quintino Bocaiúva, 834 - Moinhos de Vento, Porto Alegre - RS, 90440-050, Brazil";20;"CONSULTORIO ODONTOLOGICO";"R QUINTINO BOCAIUVA, 694/310"
"-30.0284939";"-51.226494";"street_address";"Av. Otávio Rocha, 22 - Centro Histórico, Porto Alegre - RS, 90020-150, Brazil";21;"OFICINA DE ASSISTENCIA TECNICA";"AV OTAVIO ROCHA, 22/706"
"-30.0317718";"-51.2276095";"street_address";"Av. Borges de Medeiros, 596 - Centro Histórico, Porto Alegre - RS, 90020-024, Brazil";22;"CONSULTORIO DE TERAPIAS ALTERNATIVAS";"AV BORGES DE MEDEIROS, 596/34"
"-30.0273365";"-51.1471438";"route";"Rua Dom Luiz Guanela - Vila Ipiranga, Porto Alegre - RS, 91320-190, Brazil";23;"ESCOLA ESPECIAL";"R DOM LUIZ GUANELLA, 75/2"
"-30.029332";"-51.2033415";"street_address";"Rua Dona Laura, 228 - Rio Branco, Porto Alegre - RS, 90430-090, Brazil";24;"CONSULTORIO MEDICO";"R DONA LAURA, 228/204"
"-30.008723";"-51.182016";"street_address";"Av. Assis Brasil, 383 - São João, Porto Alegre - RS, 91010-004, Brazil";25;"CONSULTORIO DE TERAPIAS ALTERNATIVAS";"AV ASSIS BRASIL, 383/4"
"-30.0328584";"-51.1779499";"street_address";"Av. Soledade, 569 - Petrópolis, Porto Alegre - RS, Brazil";26;"CONSULTORIO MEDICO";"AV SOLEDADE, 569/901"
"-30.042744";"-51.187157";"street_address";"Av. Taquara, 110 - Petrópolis, Porto Alegre - RS, 90460-210, Brazil";27;"CONSULTORIO DE PSICOLOGIA";"AV TAQUARA, 110/403"
"-30.000637";"-51.160638";"street_address";"R. Tito Chaves, 208 - Jd Floresta, Porto Alegre - RS, 91040-632, Brazil";28;"CONFECCAO SOB MEDIDA DE ARTIGOS DO VESTUARIO";"R TITO CHAVES, 208"
"-30.018421";"-51.1362133";"route";"Rua Dona Adda Mascarenhas de Moraes - Jardim Itu-Sabará, Porto Alegre - RS, Brazil";29;"SALAO DE BELEZA";"R DONA ADDA MASCARENHAS DE MORAES, 389/1"
"-30.042736";"-51.170602";"street_address";"R. São Mateus, 192 - Bom Jesus, Porto Alegre - RS, 91410-030, Brazil";30;"CONSULTORIO ODONTOLOGICO";"R SAO MATEUS, 192"
"-30.027541";"-51.215302";"street_address";"Av. Cristóvão Colombo, 213 - Floresta, Porto Alegre - RS, 90560-003, Brazil";31;"SALAO DE BELEZA";"AV CRISTOVAO COLOMBO, 213"
"-30.0271138";"-51.2150606";"street_address";"Av. Cristóvão Colombo, 246 - Floresta, Porto Alegre - RS, 90560-002, Brazil";32;"SALAO DE BELEZA";"AV CRISTOVAO COLOMBO, 246"
"-30.0290521";"-51.2029798";"street_address";"R. Dr. Florêncio Ygartua, 288 - Moinhos de Vento, Porto Alegre - RS, Brazil";33;"CONSULTORIO MEDICO";"R DR FLORENCIO YGARTUA, 288/1004"
"-30.0307109";"-51.2267736";"street_address";"Av. Sen. Salgado Filho, 86 - Centro Histórico, Porto Alegre - RS, 90010-221, Brazil";34;"SALAO DE BELEZA";"AV SENADOR SALGADO FILHO, 86"
"-30.0101807";"-51.1557679";"church";"R. João Zanenga, 44 - Cristo Redentor, Porto Alegre - RS, 91040-100, Brazil";35;"SALAO DE BELEZA";"R JOAO ZANENGA, 59"
"-30.0352352";"-51.2096357";"establishment";"R. Felipe Camarão, 626 - Bom Fim, Porto Alegre - RS, 90035-140, Brazil";36;"CONSULTORIO ODONTOLOGICO";"R FELIPE CAMARAO, 626/603"
"-30.0352352";"-51.2096357";"establishment";"R. Felipe Camarão, 626 - Bom Fim, Porto Alegre - RS, 90035-140, Brazil";37;"CONSULTORIO ODONTOLOGICO";"R FELIPE CAMARAO, 626/502"
"-30.1358033";"-51.2163396";"route";"Av. Saul Nonnenmacher - Campo Novo, Porto Alegre - RS, Brazil";38;"SALAO DE BELEZA";"AV SAUL NONNENMACHER, 267"
"-30.2093154";"-51.1766874";"street_address";"Av. Inácio Antônio da Silva, 340 - Belém Novo, Porto Alegre - RS, 91780-100, Brazil";39;"PROFISSIONAL AUTONOMO";"AV INACIO ANTONIO DA SILVA, 340"
"-30.0220631";"-51.1936242";"street_address";"R. 24 de Outubro, 1499 - Independência, Porto Alegre - RS, 90510-002, Brazil";40;"SALAO DE BELEZA";"R VINTE QUATRO DE OUTUBRO, 1499"
"-30.0434432";"-51.1818768";"establishment";"Av. Protásio Alves, 2715 - Petrópolis, Porto Alegre - RS, 90410-002, Brazil";41;"CONSULTORIO MEDICO";"AV PROTASIO ALVES, 2715/907"
"-30.0360874";"-51.2066512";"street_address";"R. Giordano Bruno, 299 - Rio Branco, Porto Alegre - RS, 90420-150, Brazil";42;"SALAO DE BELEZA";"R GIORDANO BRUNO, 299"
"-30.0150152";"-51.1523773";"establishment";"Av. do Forte, 500 - Cristo Redentor, Porto Alegre - RS, 91360-000, Brazil";43;"SALAO DE BELEZA";"AV FORTE, 536/2"
"-30.0365247";"-51.2207207";"street_address";"R. da República, 43 - Cidade Baixa, Porto Alegre - RS, 90050-321, Brazil";44;"ESCOLA DE LINGUAS";"R REPUBLICA, 43"
"-30.1589236";"-51.1918188";"street_address";"R. Dorival Castilhos Machado, 49 - Hípica, Porto Alegre - RS, 91755-210, Brazil";45;"PROFISSIONAL AUTONOMO";"R DORIVAL CASTILHO MACHADO, 49"
"-30.0399881";"-51.2084405";"street_address";"Av. Jerônimo de Ornelas, 689 - Santa Cecilia, Porto Alegre - RS, 90040-340, Brazil";46;"SALAO DE BELEZA";"AV JERONIMO DE ORNELAS, 689"
"-30.0330491";"-51.225859";"street_address";"R. Duque de Caxias, 1548 - Centro Histórico, Porto Alegre - RS, 90010-280, Brazil";47;"SALAO DE BELEZA";"R DUQUE DE CAXIAS, 1548"
"-30.0107881";"-51.1674476";"street_address";"R. Cristóvão Pereira, 99 - Passo d'Areia, Porto Alegre - RS, Brazil";48;"CONSULTORIO ODONTOLOGICO";"R CRISTOVAO PEREIRA, 99/201"
"-30.103953";"-51.2357579";"street_address";"Av. Otto Niemeyer, 2341 - Tristeza, Porto Alegre - RS, 91910-001, Brazil";49;"SALAO DE BELEZA";"AV OTTO NIEMEYER, 2341"
"-30.0414857";"-51.1428357";"route";"R. Franklin - Jardim Itu-Sabará, Porto Alegre - RS, 91210-060, Brazil";50;"SALAO DE BELEZA";"BC FRANKLIN, 293"
"-30.0298722";"-51.2256283";"establishment";"R. dos Andradas, 1593 - Centro Histórico, Porto Alegre - RS, 90010-140, Brazil";51;"SALAO DE BELEZA";"R ANDRADAS, 901"
"-30.0288361";"-51.2294263";"street_address";"Rua 7 de Setembro, 1126 - Centro Histórico, Porto Alegre - RS, 90010-190, Brazil";52;"SALAO DE BELEZA";"R SETE DE SETEMBRO, 1126/10"
"-30.0352234";"-51.1776773";"establishment";"Av. Carlos Gomes, 1611 - Auxiliadora, Porto Alegre - RS, 90480-001, Brazil";53;"SALAO DE BELEZA";"AV CARLOS GOMES, 1611"
"-30.0288698";"-51.2092904";"street_address";"Av. Independência, 1170 - Independência, Porto Alegre - RS, 90035-074, Brazil";54;"SALAO DE BELEZA";"AV INDEPENDENCIA, 1170"
"-30.029678";"-51.2293383";"establishment";"R. dos Andradas, 1234 - Centro Histórico, Porto Alegre - RS, 90010-000, Brazil";55;"CONSULTORIO MEDICO";"R ANDRADAS, 1781/1005"
"-30.0400549";"-51.1653009";"street_address";"Av. Protásio Alves, 4638 - Petrópolis, Porto Alegre - RS, 90410-004, Brazil";56;"PROFISSIONAL AUTONOMO";"AV PROTASIO ALVES, 4638/403"
"-30.0292409";"-51.2258159";"street_address";"R. Vig. José Inácio, 399 - Centro Histórico, Porto Alegre - RS, 90020-110, Brazil";57;"CONSULTORIO ODONTOLOGICO";"R VIGARIO JOSE IGNACIO, 399/804"
"-30.0125035";"-51.1935239";"street_address";"Rua 16 de Julho, 42 - São João, Porto Alegre - RS, 90550-020, Brazil";58;"CONSULTORIO ODONTOLOGICO";"R DEZESSEIS DE JULHO, 42/403"
"-30.0377137";"-51.2046817";"street_address";"Av. Protásio Alves, 365 - Protásio Alves, Porto Alegre - RS, Brazil";59;"SALAO DE BELEZA";"AV PROTASIO ALVES, 365/4"
"-29.9930574";"-51.0948986";"street_address";"R. dos Maias, 870 - Rubem Berta, Porto Alegre - RS, 91170-200, Brazil";60;"SALAO DE BELEZA";"R MAIAS, 870"
"-30.027632";"-51.141031";"street_address";"Rua Leopoldo Bettiol, 255 - Jd Itu Sabara, Porto Alegre - RS, 91215-320, Brazil";61;"SERVICO DE ASSESSORIA, CONSULTORIA, PESQUISA, ANA-LISE E PROMOCOES";"R LEOPOLDO BETTIOL, 255"
"-29.998";"-51.201641";"street_address";"R. Dona Margarida, 104 - Navegantes, Porto Alegre - RS, 90240-610, Brazil";62;"SALAO DE BELEZA";"R DONA MARGARIDA, 104"
"-30.029678";"-51.2293383";"establishment";"R. dos Andradas, 1234 - Centro Histórico, Porto Alegre - RS, 90010-000, Brazil";63;"CONSULTORIO MEDICO";"R ANDRADAS, 1137/1810"
"-30.0600154";"-51.2250555";"street_address";"R. José de Alencar, 656 - Menino Deus, Porto Alegre - RS, 90880-480, Brazil";64;"SALAO DE BELEZA";"R JOSE DE ALENCAR, 656"
"-30.0767067";"-51.1977912";"premise";"R. Cel. Leonardo Ribeiro, 211 - Glória, Porto Alegre - RS, 91710-050, Brazil";65;"SERVICO DE ASSESSORIA, CONSULTORIA, PESQUISA, ANA-LISE E PROMOCOES";"R CEL LEONARDO RIBEIRO, 211"
"-30.0036721";"-51.1425006";"route";"R. Joaquim Silveira, Porto Alegre - RS, Brazil";66;"CRIACAO DE ANIMAIS (CAES E GATOS) COM FINS DE     COMERCIO E/OU SE";"R JOAQUIM SILVEIRA, 287"
"-30.0617559";"-51.1696319";"beauty_salon";"Av. Bento Gonçalves, 4613 - São José, Porto Alegre - RS, 90650-001, Brazil";67;"ESTUDIO FOTOGRAFICO";"AV BENTO GONCALVES, 4613"
"-30.0178748";"-51.1861521";"street_address";"R. Dom Pedro II, 1220 - São João, Porto Alegre - RS, 90550-141, Brazil";68;"REPRESENTACAO COMERCIAL (INTERMEDIARIOS DE VENDAS DE MERCADORIAS A";"R DOM PEDRO II, 1220/205"
"-30.0289102";"-51.209427";"street_address";"Av. Independência, 1152 - Independência, Porto Alegre - RS, 90035-074, Brazil";69;"PROFISSIONAL AUTONOMO";"AV INDEPENDENCIA, 1152/92"
"-30.0302561";"-51.2038247";"street_address";"R. Mariante, 288 - Rio Branco, Porto Alegre - RS, 90430-180, Brazil";70;"CONSULTORIO DE PSICOLOGIA";"R MARIANTE, 288/503"
"-30.2108949";"-51.1820583";"street_address";"R. Dr. Cecílio Monza, 11033 - Belém Novo, Porto Alegre - RS, 91780-060, Brazil";71;"OFICINA DE ASSISTENCIA TECNICA";"R DR CECILIO MONZA, 11033"
"-30.042712";"-51.1978856";"street_address";"R. Santa Cecília, 1455 - Santa Cecilia, Porto Alegre - RS, 90420-040, Brazil";72;"SALAO DE BELEZA";"R SANTA CECILIA, 1455/101"
"-30.0570652";"-51.2267624";"premise";"Boutique MovingFashion - R. Barbedo, 414 - Menino Deus, Porto Alegre - RS, 90110-260, Brazil";73;"GARAGEM E ESTACIONAMENTO PARA VEICULOS, EXCETO OS DE CARGA OU COLE";"R BARBEDO, 414"
"-30.0363232";"-51.2238537";"street_address";"R. Gen. Lima e Silva, 286 - Centro Histórico, Porto Alegre - RS, 90050-102, Brazil";74;"GARAGEM E ESTACIONAMENTO PARA VEICULOS, EXCETO OS DE CARGA OU COLE";"R GEN LIMA E SILVA, 286"
"-30.0133703";"-51.1678229";"street_address";"Av. Andaraí, 157 - Passo d'Areia, Porto Alegre - RS, 91350-110, Brazil";75;"CONSULTORIO ODONTOLOGICO";"R ANDARAI, 157/406"
"-30.0237186";"-51.2005551";"street_address";"R. 24 de Outubro, 838 - Moinhos de Vento, Porto Alegre - RS, 90510-001, Brazil";76;"CONSULTORIO DE PSIQUIATRIA";"R VINTE QUATRO DE OUTUBRO, 838/805"
"-30.0308141";"-51.2283512";"street_address";"R. Gen. Andrade Neves, 155 - Centro Histórico, Porto Alegre - RS, Brazil";77;"SALAO DE BELEZA";"R GEN ANDRADE NEVES, 155/5"
"-30.043499";"-51.2160104";"street_address";"R. Lobo da Costa, 249 - Cidade Baixa, Porto Alegre - RS, 90050-110, Brazil";78;"SALAO DE BELEZA";"R LOBO DA COSTA, 249"
"-30.034661";"-51.199115";"street_address";"R. Cabral, 896 - Rio Branco, Porto Alegre - RS, 90420-121, Brazil";79;"CONSULTORIO ODONTOLOGICO";"R CABRAL, 896"
"-30.0196272";"-51.1351033";"route";"Rua Adolfo Silva - Jardim Itu-Sabará, Porto Alegre - RS, Brazil";80;"PROFISSIONAL AUTONOMO";"BC ADOLFO SILVA, 256"
"-30.0271492";"-51.131802";"route";"Rua Tenente Ary Tarragô, Porto Alegre - RS, Brazil";81;"PROFISSIONAL AUTONOMO";"R TEN ARY TARRAGO, 20"
"-30.0201821";"-51.1136085";"route";"Av. Juscelino Kubitschek de Oliveira - Rubem Berta, Porto Alegre - RS, Brazil";82;"PROFISSIONAL AUTONOMO";"AV JUSCELINO KUBITSCHEK DE OLIVEIRA, 1090/368"
"-30.0368957";"-51.1865131";"street_address";"Avenida Nilópolis, 543 - Bela Vista, Porto Alegre - RS, 90460-050, Brazil";83;"SALAO DE BELEZA";"AV NILOPOLIS, 543/20"
"-30.1897426";"-51.190737";"street_address";"Estr. Ponta Grossa, 830 - Ponta Grossa, Porto Alegre - RS, 91780-580, Brazil";84;"ESCRITORIO";"ESTR PONTA GROSSA, 830"
"-30.0550575";"-51.1997966";"street_address";"Av. Bento Gonçalves, 1403 - Santo Antônio, Porto Alegre - RS, Brazil";85;"PROFISSIONAL AUTONOMO";"AV BENTO GONCALVES, 1403/1109"
"-30.103308";"-51.2544929";"street_address";"Av. Pereira Passos, 1025 - Vila Assunção, Porto Alegre - RS, 91900-240, Brazil";86;"SALAO DE BELEZA";"AV PEREIRA PASSOS, 1025"
"-30.0302561";"-51.2038247";"street_address";"R. Mariante, 288 - Rio Branco, Porto Alegre - RS, 90430-180, Brazil";87;"CONSULTORIO MEDICO";"R MARIANTE, 288/505"
"-30.017662";"-51.194183";"street_address";"Av. Cristóvão Colombo, 2674 - Floresta, Porto Alegre - RS, 90560-005, Brazil";88;"PROFISSIONAL AUTONOMO";"AV CRISTOVAO COLOMBO, 2674/31"
"-30.0287907";"-51.2248315";"street_address";"Av. Otávio Rocha, 179 - Centro Histórico, Porto Alegre - RS, 90020-012, Brazil";89;"SALAO DE BELEZA";"AV OTAVIO ROCHA, 179/11"
"-30.116949";"-51.2075081";"street_address";"Av. Rodrigues da Fonseca, 1920 - Vila Nova, Porto Alegre - RS, 91740-800, Brazil";90;"ESCRITORIO ADMINISTRATIVO (SEDE ADMINISTRATIVA DE EMPRESA)";"AV RODRIGUES DA FONSECA, 1920/2"
"-30.0250095";"-51.1622202";"street_address";"Av. João Wallig, 1800 - Passo d'Areia, Porto Alegre - RS, Brazil";91;"SALAO DE BELEZA";"AV JOAO WALLIG, 1800/157"
"-30.0062366";"-51.1510864";"street_address";"Av. Panamericana, 421 - Jardim Lindoia, Porto Alegre - RS, 91050-001, Brazil";92;"SALAO DE BELEZA";"AV PANAMERICANA, 421"
"-30.0385063";"-51.2251066";"street_address";"R. José do Patrocínio, 323 - Cidade Baixa, Porto Alegre - RS, 90050-101, Brazil";93;"SALAO DE BELEZA";"R JOSE DO PATROCINIO, 323"
"-30.0527203";"-51.2174911";"street_address";"R. Barão do Triunfo, 419 - Menino Deus, Porto Alegre - RS, 90130-100, Brazil";94;"CONSULTORIO ODONTOLOGICO";"R BARAO DO TRIUNFO, 419/601"
"-30.0292751";"-51.2214265";"street_address";"Av. Independência, 30 - Centro, Porto Alegre - RS, 90035-074, Brazil";95;"SALAO DE BELEZA";"AV INDEPENDENCIA, 30/8"
"-30.0581522";"-51.2050207";"street_address";"R. Dr. Voltaire Pires, 573 - Santo Antônio, Porto Alegre - RS, 90640-160, Brazil";96;"SALAO DE BELEZA";"R DR VOLTAIRE PIRES, 573"
"-30.025572";"-51.202528";"establishment";"R. Luciana de Abreu, 471 - sala 307 - Moinhos de Vento, Porto Alegre - RS, 90570-060, Brazil";97;"SALAO DE BELEZA";"R LUCIANA DE ABREU, 473"
"-30.0353607";"-51.2219994";"street_address";"Av. Loureiro da Silva, 2001 - Cidade Baixa, Porto Alegre - RS, 90050-240, Brazil";98;"CONSULTORIO DE FISIOTERAPIA";"AV LOUREIRO DA SILVA, 2001/602"
"-30.0353607";"-51.2219994";"street_address";"Av. Loureiro da Silva, 2001 - Cidade Baixa, Porto Alegre - RS, 90050-240, Brazil";99;"CONSULTORIO DE FISIOTERAPIA";"AV LOUREIRO DA SILVA, 2001/601"
"-30.0470731";"-51.1834337";"street_address";"R. Felizardo Furtado, 348 - Petrópolis, Porto Alegre - RS, 90450-190, Brazil";100;"SALAO DE BELEZA";"R FELIZARDO FURTADO, 348/3"
"-30.058258";"-51.2292359";"doctor";"R. Costa, 30 - Menino Deus, Porto Alegre - RS, 90110-270, Brazil";101;"CONSULTORIO MEDICO";"R COSTA, 30/604"
"-30.022434";"-51.199314";"establishment";"R. Tobias da Silva, 248 - Moinhos de Vento, Porto Alegre - RS, 90570-020, Brazil";102;"CONSULTORIO DE PSICOLOGIA";"R TOBIAS DA SILVA, 149/302"
"-30.0290781";"-51.2266595";"street_address";"R. Mal. Floriano Peixoto, 38 - Centro Histórico, Porto Alegre - RS, 90020-060, Brazil";103;"SALAO DE BELEZA";"R MARECHAL FLORIANO PEIXOTO, 38/1304"
"-30.0220963";"-51.1951042";"street_address";"Av. Nova York, 10 - Auxiliadora, Porto Alegre - RS, 90550-070, Brazil";104;"CONSULTORIO MEDICO";"AV NOVA YORK, 10/509"
"-30.019242";"-51.119554";"bus_station";"Rubem Berta, Porto Alegre - RS, 91240-090, Brazil";105;"PROFISSIONAL AUTONOMO";"AV MANOEL ELIAS, 113"
"-30.0361729";"-51.2392091";"street_address";"Rua Washington Luiz, 128 - Centro Histórico, Porto Alegre - RS, 90010-460, Brazil";106;"GARAGEM E ESTACIONAMENTO PARA VEICULOS, EXCETO OS DE CARGA OU COLE";"R WASHINGTON LUIZ, 128"
"-30.002528";"-51.144732";"street_address";"Rua Augusto Attílio Giordani, 5 - São Sebastião, Porto Alegre - RS, 91060-240, Brazil";107;"ESCRITORIO DE PESQUISA E ANALISE";"R AUGUSTO ATTILIO GIORDANI, 5"
"-30.0183657";"-51.2003687";"street_address";"R. Dr. Timóteo, 371 - Floresta, Porto Alegre - RS, 90570-041, Brazil";108;"CONSULTORIO ODONTOLOGICO";"R DR TIMOTEO, 371/402"
"-30.0299556";"-51.2052648";"street_address";"Rua Dona Laura, 45 - Rio Branco, Porto Alegre - RS, 90430-091, Brazil";109;"CONSULTORIO ODONTOLOGICO";"R DONA LAURA, 45/702"
"-30.0226221";"-51.188183";"street_address";"Av. Plínio Brasil Milano, 295 - Higienópolis, Porto Alegre - RS, 90520-002, Brazil";110;"PROFISSIONAL AUTONOMO";"AV PLINIO BRASIL MILANO, 295/203"
"-30.0226221";"-51.188183";"street_address";"Av. Plínio Brasil Milano, 295 - Higienópolis, Porto Alegre - RS, 90520-002, Brazil";111;"CONSULTORIO DE FONOAUDIOLOGIA";"AV PLINIO BRASIL MILANO, 295/401"
"-30.031689";"-51.224982";"street_address";"R. Riachuelo, 1653 - Centro Histórico, Porto Alegre - RS, 90010-273, Brazil";112;"SALAO DE BELEZA";"R RIACHUELO, 1653"
"-30.0352553";"-51.2111729";"street_address";"Rua Fernandes Vieira, 637 - Bom Fim, Porto Alegre - RS, 90035-091, Brazil";113;"CONSULTORIO MEDICO";"R FERNANDES VIEIRA, 637/306"
"-30.1079478";"-51.2327418";"street_address";"R. João Mora, 247 - Camaquã, Porto Alegre - RS, 91920-290, Brazil";114;"SALAO DE BELEZA";"R JOAO MORA, 247"
"-30.029678";"-51.2293383";"establishment";"R. dos Andradas, 1234 - Centro Histórico, Porto Alegre - RS, 90010-000, Brazil";115;"CONSULTORIO MEDICO";"R ANDRADAS, 1781/404"
"-30.0115609";"-51.1696253";"street_address";"Av. Assis Brasil, 1800 - Passo d'Areia, Porto Alegre - RS, 91010-005, Brazil";116;"CONSULTORIO ODONTOLOGICO";"AV ASSIS BRASIL, 1800/407"
"-30.029678";"-51.2293383";"establishment";"R. dos Andradas, 1234 - Centro Histórico, Porto Alegre - RS, 90010-000, Brazil";117;"REPRESENTACAO COMERCIAL (INTERMEDIARIOS DE VENDAS DE MERCADORIAS A";"R ANDRADAS, 1464/84"
"-30.025317";"-51.2168388";"street_address";"Rua Garibaldi, 472 - Bom Fim, Porto Alegre - RS, 90035-051, Brazil";118;"MINI-SNOOKER";"R GARIBALDI, 472"
"-30.0233207";"-51.1978084";"street_address";"R. 24 de Outubro, 1100 - Moinhos de Vento, Porto Alegre - RS, 90510-001, Brazil";119;"EMPREITEIRA DA CONSTRUCAO CIVIL";"R VINTE QUATRO DE OUTUBRO, 1100/401"
"-30.0457055";"-51.2284675";"street_address";"R. Dra. Rita Lobato, 191 - Praia de Belas, Porto Alegre - RS, 90110-040, Brazil";120;"CONSULTORIO DE PSICOLOGIA";"R DRA RITA LOBATO, 191/401"
"-30.0227526";"-51.1896903";"street_address";"Av. Plínio Brasil Milano, 143 - Higienópolis, Porto Alegre - RS, 90520-002, Brazil";121;"CONSULTORIO DE PSICOLOGIA";"AV PLINIO BRASIL MILANO, 143/406"
"-30.0264238";"-51.222395";"establishment";"Praça Osvaldo Cruz, 15 - Centro Histórico, Porto Alegre - RS, 90010-130, Brazil";122;"CONSULTORIOS";"PCA OSVALDO CRUZ, 15/1114"
"-30.0308141";"-51.2283512";"street_address";"R. Gen. Andrade Neves, 155 - Centro Histórico, Porto Alegre - RS, Brazil";123;"CONSULTORIO MEDICO";"R GEN ANDRADE NEVES, 155/143"
"-30.029055";"-51.2055621";"street_address";"R. Mostardeiro, 157 - Independência, Porto Alegre - RS, Brazil";124;"CONSULTORIO DE PSICOLOGIA";"R MOSTARDEIRO, 157/1006"
"-30.0292566";"-51.2097094";"street_address";"Av. Independência, 1125 - Rio Branco, Porto Alegre - RS, 90035-077, Brazil";125;"CONSULTORIO ODONTOLOGICO";"AV INDEPENDENCIA, 1125/501"
"-30.0108121";"-51.1482151";"street_address";"Av. Assis Brasil, 3851 - Passo d'Areia, Porto Alegre - RS, 91010-004, Brazil";126;"OFICINA DE REPARACAO E MANUTENCAO DE ELETRODOMES- TICOS";"AV ASSIS BRASIL, 3851"
"-30.0298422";"-51.2149984";"street_address";"Rua Garibaldi, 1042 - Cais do Porto, Porto Alegre - RS, 90035-050, Brazil";127;"ESCOLA ESPECIAL";"R GARIBALDI, 1042"
"-30.0057216";"-51.1358149";"premise";"R. Eng. Frederico Dahne, 172 - Sarandi, Porto Alegre - RS, 91130-040, Brazil";128;"CONSULTORIO ODONTOLOGICO";"AV ENG FREDERICO DAHNE, 172"
"-30.0210885";"-51.1961054";"premise";"R. Xavier Ferreira, 161 - Auxiliadora, Porto Alegre - RS, 90540-160, Brazil";129;"CONSULTORIO DE PSICOLOGIA";"R XAVIER FERREIRA, 161"
"-30.0635877";"-51.2122669";"street_address";"Av. Dr. Carlos Barbosa, 921 - Medianeira, Porto Alegre - RS, 90880-001, Brazil";130;"CONSULTORIO ODONTOLOGICO";"AV DR CARLOS BARBOSA, 921/202"
"-30.05231";"-51.212586";"street_address";"R. Prof. Oscar Pereira, 123 - Azenha, Porto Alegre - RS, 90160-004, Brazil";131;"CONSULTORIO DE TERAPIAS ALTERNATIVAS";"AV PROF OSCAR PEREIRA, 123"
"-30.0278939";"-51.2254654";"establishment";"R. Vig. José Inácio, 250 - Centro Histórico, Porto Alegre - RS, Brazil";132;"ESCRITORIO DE CONTABILIDADE";"R VIGARIO JOSE IGNACIO, 250/111"
"-30.0289192";"-51.2224713";"street_address";"R. Pinto Bandeira, 525 - Centro Histórico, Porto Alegre - RS, 90030-150, Brazil";133;"OFICINA DE ASSISTENCIA TECNICA";"R PINTO BANDEIRA, 525"
"-30.0300264";"-51.2231452";"street_address";"Praça Dom Feliciano, 36 - Centro Histórico, Porto Alegre - RS, Brazil";134;"SALAO DE BELEZA";"PCA DOM FELICIANO, 36"
"-30.0597741";"-51.2297676";"street_address";"R. José de Alencar, 207 - Menino Deus, Porto Alegre - RS, 90880-481, Brazil";135;"EMPRESA DE LIMPEZA S/ARMAZENAMENTO DE PRODUTOS QUIMICOS";"R JOSE DE ALENCAR, 207/205"
"-30.0369741";"-51.1805022";"street_address";"Av. Lajeado, 991 - Petrópolis, Porto Alegre - RS, 90460-110, Brazil";136;"SALAO DE BELEZA";"AV LAGEADO, 991"
"-30.0096943";"-51.1584283";"establishment";"Rua Domingos Rubbo, 135 - Cristo Redentor, Porto Alegre - RS, 91040-000, Brazil";137;"CONSULTORIO ODONTOLOGICO";"R DOMINGOS RUBBO, 51/503"
"-30.0292029";"-51.1526689";"street_address";"Av. dos Prazeres, 586 - Vila Jardim, Porto Alegre - RS, 91320-150, Brazil";138;"SALAO DE BELEZA";"AV PRAZERES, 586"
"-30.0218384";"-51.1877284";"street_address";"Av. Plínio Brasil Milano, 376 - Auxiliadora, Porto Alegre - RS, 90520-002, Brazil";139;"SALAO DE BELEZA";"AV PLINIO BRASIL MILANO, 376"
"-29.9912617";"-51.1027749";"street_address";"Av. Bernardino Silveira Pastoriza, 581 - Sarandi, Porto Alegre - RS, 91160-310, Brazil";140;"SALAO DE BELEZA";"AV BERNARDINO SILVEIRA PASTORIZA, 581"
"-30.1628193";"-51.1381258";"street_address";"Estrada do Barro Vermelho, 1051 - Restinga, Porto Alegre - RS, 91790-100, Brazil";141;"PROFISSIONAL AUTONOMO";"ESTR BARRO VERMELHO, 1051"
"-30.0290046";"-51.2262223";"street_address";"R. Vig. José Inácio, 371 - Centro Histórico, Porto Alegre - RS, 90020-100, Brazil";142;"SERVICO DE MASSAGEM (MASSAGISTAS, MASSAGEM ESTETI-CA, TERAPEUTICA";"R VIGARIO JOSE IGNACIO, 371/2113"
"-30.0328584";"-51.1779499";"street_address";"Av. Soledade, 569 - Petrópolis, Porto Alegre - RS, Brazil";143;"CONSULTORIO MEDICO";"AV SOLEDADE, 569/1106"
"-30.0586169";"-51.2297356";"street_address";"Av. Praia de Belas, 2266 - Menino Deus, Porto Alegre - RS, 90110-000, Brazil";144;"CONSULTORIO MEDICO";"AV PRAIA DE BELAS, 2266/702"
"-30.0310426";"-51.2193084";"street_address";"R. da Conceição, 389 - Centro Histórico, Porto Alegre - RS, 90030-030, Brazil";145;"SERVICO DE MASSAGEM (MASSAGISTAS, MASSAGEM ESTETI-CA, TERAPEUTICA";"R CONCEICAO, 389/302"
"-30.0332469";"-51.2261976";"street_address";"R. Vig. José Inácio, 843 - Centro Histórico, Porto Alegre - RS, 90020-110, Brazil";146;"SALAO DE BELEZA";"R VIGARIO JOSE IGNACIO, 843"
"-30.0101116";"-51.1539477";"street_address";"Av. Assis Brasil, 3316 - Jardim Lindoia, Porto Alegre - RS, 91010-004, Brazil";147;"CONSULTORIO ODONTOLOGICO";"AV ASSIS BRASIL, 3316/703"
"-30.1149416";"-51.2545302";"establishment";"Av. Wenceslau Escobar, 3033 - Cristal, Porto Alegre - RS, Brazil";148;"CONSULTORIO MEDICO";"AV WENCESLAU ESCOBAR, 3033/302"
"-30.0852056";"-51.2456904";"street_address";"Av. Diário de Notícias, 300 - Cristal, Porto Alegre - RS, Brazil";149;"SALAO DE BELEZA";"AV DIARIO DE NOTICIAS, 300/2124"
"-30.0276515";"-51.221591";"premise";"Av. Alberto Bins, 514 - Centro, Porto Alegre - RS, 90030-140, Brazil";150;"SALAO DE BELEZA";"AV ALBERTO BINS, 514"
"-30.0183657";"-51.2003687";"street_address";"R. Dr. Timóteo, 371 - Floresta, Porto Alegre - RS, 90570-041, Brazil";151;"CONSULTORIO MEDICO";"R DR TIMOTEO, 371/503"
"-30.0227526";"-51.1896903";"street_address";"Av. Plínio Brasil Milano, 143 - Higienópolis, Porto Alegre - RS, 90520-002, Brazil";152;"CONSULTORIO DE PSICOLOGIA";"AV PLINIO BRASIL MILANO, 143/403"
"-30.029678";"-51.2293383";"establishment";"R. dos Andradas, 1234 - Centro Histórico, Porto Alegre - RS, 90010-000, Brazil";153;"CONSULTORIO MEDICO";"R ANDRADAS, 1234/2408"
"-30.0842446";"-51.2465905";"street_address";"0x951978a0d63d500d:0x15716d4550ce8aad - Av. Diário de Notícias, 200 - Cristal, Porto Alegre - RS, Brazil";154;"CONSULTORIO MEDICO";"AV DIARIO DE NOTICIAS, 200/912"
"-30.0227483";"-51.1914629";"street_address";"R. Felipe Neri, 414 - Auxiliadora, Porto Alegre - RS, 90440-150, Brazil";155;"PERSONAL TRAINER";"R FELIPE NERI, 414/402"
"-30.0296896";"-51.2081842";"street_address";"R. Cel. Frederico Linck, 28 - Rio Branco, Porto Alegre - RS, 90035-010, Brazil";156;"SALAO DE BELEZA";"R CEL FREDERICO LINCK, 28"
"-30.0287905";"-51.2287267";"establishment";"R. Uruguai, 240 - Centro Histórico, Porto Alegre - RS, 90010-140, Brazil";157;"CONSULTORIO ODONTOLOGICO";"R URUGUAI, 335/106"
"-30.0091665";"-51.0965074";"street_address";"R. Antônio Francisco Lisboa, 279 - Rubem Berta, Porto Alegre - RS, 91180-040, Brazil";158;"SALAO DE BELEZA";"R ANTONIO FRANCISCO LISBOA, 279"
"-30.122063";"-51.2225317";"street_address";"Av. Eduardo Prado, 275 - Cavalhada, Porto Alegre - RS, Brazil";159;"SALAO DE BELEZA";"AV EDUARDO PRADO, 275"
"-30.127668";"-51.209713";"street_address";"Av. Romeu Samarani Ferreira, 125 - Vila Nova, Porto Alegre - RS, 91750-740, Brazil";160;"PROFISSIONAL AUTONOMO";"AV ROMEU SAMARANI FERREIRA, 125/1"
"-30.0237641";"-51.1618924";"establishment";"Av. João Wallig, 1800 - Passo d'Areia, Porto Alegre - RS, 91340-000, Brazil";161;"SALAO DE BELEZA";"AV JOAO WALLIG, 1800/1269"
"-30.0153069";"-51.184337";"premise";"R. Luzitana, 781 - Higienópolis, Porto Alegre - RS, 90520-080, Brazil";162;"CONSULTORIO MEDICO";"R LUZITANA, 781"
"-30.0319053";"-51.2045749";"establishment";"R. Casemiro de Abreu, 367 - Boa Vista, Porto Alegre - RS, 90420-001, Brazil";163;"CONSULTORIO MEDICO";"R CASEMIRO DE ABREU, 367/602"
"-30.0889051";"-51.2339533";"street_address";"R. Ursa Maior, 510 - Cristal, Porto Alegre - RS, 90820-200, Brazil";164;"SALAO DE BELEZA";"R URSA MAIOR, 510"
"-30.0452763";"-51.2294265";"establishment";"Av. Borges de Medeiros, 2105 - PR Belas, Porto Alegre - RS, Brazil";165;"CONSULTORIO MEDICO";"AV BORGES DE MEDEIROS, 2105/804"
"-30.0292566";"-51.2097094";"street_address";"Av. Independência, 1125 - Rio Branco, Porto Alegre - RS, 90035-077, Brazil";166;"PERSONAL TRAINER";"AV INDEPENDENCIA, 1125/402"
"-30.0288889";"-51.2245859";"street_address";"Rua Doutor Flores, 192 - Centro Histórico, Porto Alegre - RS, 90020-121, Brazil";167;"SALAO DE BELEZA";"R DR FLORES, 192"
"-30.0412779";"-51.2185051";"street_address";"R. Joaquim Nabuco, 20 - Cidade Baixa, Porto Alegre - RS, 90050-340, Brazil";168;"ESCOLA DE ARTE";"R JOAQUIM NABUCO, 20/204"
"-30.0300466";"-51.2033094";"street_address";"R. Dr. Florêncio Ygartua, 391 - Moinhos de Vento, Porto Alegre - RS, 90430-010, Brazil";169;"CONSULTORIO DE PSICOLOGIA";"R DR FLORENCIO YGARTUA, 391/603"
"-30.0602891";"-51.2265351";"street_address";"R. José de Alencar, 521 - Menino Deus, Porto Alegre - RS, 90880-480, Brazil";170;"CONSULTORIO DE PSICOLOGIA";"R JOSE DE ALENCAR, 521/409"
"-30.0343362";"-51.2125467";"street_address";"Rua General João Telles, 542 - Bom Fim, Porto Alegre - RS, 90035-120, Brazil";171;"CONSULTORIO DE PSICOLOGIA";"R GEN JOAO TELLES, 542/506"
"-30.0229632";"-51.200765";"doctor";"R. Tobias da Silva, 99 - Moinhos de Vento, Porto Alegre - RS, 90570-020, Brazil";172;"CONSULTORIO DE PSICOLOGIA";"R TOBIAS DA SILVA, 99/306"
"-30.0250095";"-51.1622202";"street_address";"Av. João Wallig, 1800 - Passo d'Areia, Porto Alegre - RS, Brazil";173;"SALAO DE BELEZA";"AV JOAO WALLIG, 1800/39"
"-30.0241638";"-51.195271";"street_address";"Av. Cel. Lucas de Oliveira, 185 - Auxiliadora, Porto Alegre - RS, 90440-011, Brazil";174;"SALAO DE BELEZA";"AV CEL LUCAS DE OLIVEIRA, 185/1"
"-30.0178748";"-51.1861521";"street_address";"R. Dom Pedro II, 1220 - São João, Porto Alegre - RS, 90550-141, Brazil";175;"ESCRITORIO DE ENGENHARIA";"R DOM PEDRO II, 1220/504"
"-30.0218318";"-51.1885511";"street_address";"R. Felicissimo de Azevedo, 1455 - São João, Porto Alegre - RS, 90540-110, Brazil";176;"CONSULTORIO MEDICO";"R FELICISSIMO DE AZEVEDO, 1455/406"
"-30.059477";"-51.2277088";"street_address";"R. José de Alencar, 386 - Menino Deus, Porto Alegre - RS, 90880-480, Brazil";177;"CONSULTORIO MEDICO";"R JOSE DE ALENCAR, 386/805"
"-30.058258";"-51.2292359";"doctor";"R. Costa, 30 - Menino Deus, Porto Alegre - RS, 90110-270, Brazil";178;"CONSULTORIO MEDICO";"R COSTA, 30/305"
"-30.029678";"-51.2293383";"establishment";"R. dos Andradas, 1234 - Centro Histórico, Porto Alegre - RS, 90010-000, Brazil";179;"CONSULTORIO MEDICO";"R ANDRADAS, 1755/83"
"-30.0537868";"-51.2176125";"establishment";"R. Visc. do Herval, 1083 - Azenha, Porto Alegre - RS, 90130-151, Brazil";180;"ESCRITORIO DE SERVICOS JURIDICOS";"R VISCONDE DO HERVAL, 1083/203"
"-30.0524905";"-51.214331";"street_address";"R. Barão do Triunfo, 720 - Menino Deus, Porto Alegre - RS, 90130-100, Brazil";181;"ESCRITORIO DE PUBLICIDADE E PROPAGANDA";"R BARAO DO TRIUNFO, 720/405"
"-30.0289933";"-51.2031926";"street_address";"R. Dr. Florêncio Ygartua, 271 - Moinhos de Vento, Porto Alegre - RS, Brazil";182;"CONSULTORIO DE PSICOLOGIA";"R DR FLORENCIO YGARTUA, 271/206"
"-30.0428161";"-51.2199758";"street_address";"R. José do Patrocínio, 998 - Cidade Baixa, Porto Alegre - RS, 90050-000, Brazil";183;"SALAO DE BELEZA";"R JOSE DO PATROCINIO, 998"
"-30.0377982";"-51.1524376";"street_address";"R. Souza Lôbo, 721 - Vila Jardim, Porto Alegre - RS, 91320-321, Brazil";184;"SALAO DE BELEZA";"R SOUZA LOBO, 721"
"-30.024388";"-51.1790749";"street_address";"R. Anita Garibaldi, 1681 - Mont'Serrat, Porto Alegre - RS, 90450-001, Brazil";185;"SALAO DE BELEZA";"R ANITA GARIBALDI, 1681"
"-30.0625397";"-51.1766805";"street_address";"R. Ângelo Barcelos, 15 - Vila Joao Pessoa, Porto Alegre - RS, 91520-020, Brazil";186;"SALAO DE BELEZA";"R ANGELO BARCELOS, 15"
"-30.0625255";"-51.1767357";"street_address";"Av. Bento Gonçalves, 3949 - Partenon, Porto Alegre - RS, 90650-002, Brazil";187;"SALAO DE BELEZA";"AV BENTO GONCALVES, 3949"
"-30.011638";"-51.169021";"street_address";"Av. Assis Brasil, 1864 - Passo d'Areia, Porto Alegre - RS, Brazil";188;"ESTUDIO FOTOGRAFICO";"AV ASSIS BRASIL, 1864/17"
"-30.0104202";"-51.1712812";"establishment";"R. Sport Club São José, 67 - Passo d'Areia, Porto Alegre - RS, Brazil";189;"ESCRITORIO DE SERVICOS JURIDICOS";"R SPORT CLUB SAO JOSE, 67/506"
"-30.020924";"-51.1832951";"street_address";"Praça Alberto Ramos, 806 - Higienópolis, Porto Alegre - RS, 90520-050, Brazil";190;"SERVICO DE MASSAGEM (MASSAGISTAS, MASSAGEM ESTETI-CA, TERAPEUTICA";"PCA ALBERTO RAMOS, 806"
"-30.0286276";"-51.2326911";"street_address";"R. Caldas Júnior, 20 - Centro Histórico, Porto Alegre - RS, 90010-260, Brazil";191;"SERVICO DE PODOLOGIA";"R CALDAS JUNIOR, 20/91"
"-30.1375666";"-51.2283979";"premise";"R. Pirajá, 120 - Ipanema, Porto Alegre - RS, 91760-651, Brazil";192;"SERVICO DE PODOLOGIA";"R PIRAJA, 120"
NA;NA;NA;"R WILSON SANT'ANNA VIEIRA 340 RUBEM BERTA Porto Alegre %26&key=AIzaSyBA2Kt4jMYJe3up70J0Kl48Idrm69K6n0I";193;"REPARACAO, INSTALACAO E MANUTENCAO DE EQUIPAMENTOSDE SEGURANCA E A";"R WILSON SANT'ANNA VIEIRA, 340"
"-30.0293446";"-51.2073656";"street_address";"R. Mostardeiro, 5 - Independência, Porto Alegre - RS, Brazil";194;"CONSULTORIO MEDICO";"R MOSTARDEIRO, 5/503"
"-30.0116706";"-51.1692171";"street_address";"Av. Assis Brasil, 1836 - Passo d'Areia, Porto Alegre - RS, Brazil";195;"PROFISSIONAL AUTONOMO";"AV ASSIS BRASIL, 1836/4"
"-30.0301062";"-51.2244968";"street_address";"Rua Doutor Flores, 330 - Centro Histórico, Porto Alegre - RS, 90020-122, Brazil";196;"ESCRITORIO DE SERVICOS JURIDICOS";"R DR FLORES, 330/105"
"-30.0427616";"-51.1985168";"street_address";"R. Felipe de Oliveira, 326 - Petrópolis, Porto Alegre - RS, Brazil";197;"SALAO DE BELEZA";"R FELIPE DE OLIVEIRA, 326"
"-30.025775";"-51.189294";"establishment";"Rua Tenente Coronel Fabricio Pillar, 791 - Mont'Serrat, Porto Alegre - RS, 90450-040, Brazil";198;"SALAO DE BELEZA";"R TEN CEL FABRICIO PILAR, 198"
"-30.0298759";"-51.2019477";"street_address";"Av. Goethe, 71 - Rio Branco, Porto Alegre - RS, 90430-100, Brazil";199;"CONSULTORIO DE FONOAUDIOLOGIA";"AV GOETHE, 71/604"
"-30.029678";"-51.2293383";"establishment";"R. dos Andradas, 1234 - Centro Histórico, Porto Alegre - RS, 90010-000, Brazil";200;"CONSULTORIO MEDICO";"R ANDRADAS, 1781/903"
"-30.023922";"-51.19507";"street_address";"Av. Cel. Lucas de Oliveira, 158 - Auxiliadora, Porto Alegre - RS, 90440-010, Brazil";201;"ESCOLA ESPECIAL";"AV CEL LUCAS DE OLIVEIRA, 158"
"-30.0298759";"-51.2019477";"street_address";"Av. Goethe, 71 - Rio Branco, Porto Alegre - RS, 90430-100, Brazil";202;"CONSULTORIO DE PSICOLOGIA";"AV GOETHE, 71/411"
"-30.0028622";"-51.1342636";"street_address";"R. Zeferino Dias, 5 - Sarandi, Porto Alegre - RS, Brazil";203;"SALAO DE BELEZA";"R ZEFERINO DIAS, 5"
"-30.0747419";"-51.2023705";"street_address";"R. Prof. Oscar Pereira, 2783 - Glória, Porto Alegre - RS, Brazil";204;"SALAO DE BELEZA";"AV PROF OSCAR PEREIRA, 2783/2"
"-30.0419958";"-51.1808676";"establishment";"Av. Caçapava, 537 - Petrópolis, Porto Alegre - RS, 91370-130, Brazil";205;"CONSULTORIO ODONTOLOGICO";"AV CACAPAVA, 537/307"
"-30.0340936";"-51.2054645";"premise";"R. Miguel Tostes, 672 - Rio Branco, Porto Alegre - RS, 90430-060, Brazil";206;"CONSULTORIO MEDICO";"R MIGUEL TOSTES, 672"
"-30.00938";"-51.202999";"bus_station";"São Geraldo, Porto Alegre - RS, 90230-000, Brazil";207;"ESCRITORIO DE VENDAS (PRODUTOS PROPRIOS SEM INTERMDIACAO DE TERCEI";"AV GUIDO MONDIN, 712"
"-30.0127602";"-51.1955676";"street_address";"Av. São Pedro, 1392 - São Geraldo, Porto Alegre - RS, 90230-122, Brazil";208;"GARAGEM E ESTACIONAMENTO PARA VEICULOS, EXCETO OS DE CARGA OU COLE";"AV SAO PEDRO, 1392"
"-30.008475";"-51.203435";"street_address";"Av. Polônia, 530 - São Geraldo, Porto Alegre - RS, 90230-110, Brazil";209;"DECORACAO DE INTERIORES";"AV POLONIA, 530/603"
"-30.0618697";"-51.1710021";"establishment";"Av. Bento Gonçalves, 4485 - São José, Porto Alegre - RS, 90650-001, Brazil";210;"SERVICO DE MASSAGEM (MASSAGISTAS, MASSAGEM ESTETI-CA, TERAPEUTICA";"AV BENTO GONCALVES, 4583"
"-30.0539084";"-51.2273537";"street_address";"R. Botafogo, 316 - Menino Deus, Porto Alegre - RS, 90150-052, Brazil";211;"SALAO DE BELEZA";"R BOTAFOGO, 316"
"-30.048676";"-51.201962";"street_address";"R. Vicente da Fontoura, 1262 - Rio Branco, Porto Alegre - RS, 90640-000, Brazil";212;"SALAO DE BELEZA";"R VICENTE DA FONTOURA, 1262/2"
"-30.0069659";"-51.1805781";"street_address";"Av. Brino, 174 - Santa Maria Goretti, Porto Alegre - RS, 91030-280, Brazil";213;"SALAO DE BELEZA";"AV BRINO, 174"
"-30.0069659";"-51.1805781";"street_address";"Av. Brino, 174 - Santa Maria Goretti, Porto Alegre - RS, 91030-280, Brazil";214;"SALAO DE BELEZA";"AV BRINO, 174"
"-30.0429608";"-51.1833262";"street_address";"Av. Caçapava, 271 - Petrópolis, Porto Alegre - RS, 90460-130, Brazil";215;"SALAO DE BELEZA";"AV CACAPAVA, 271"
"-30.0158098";"-51.188363";"street_address";"R. Gen. Couto de Magalhães, 1294 - São João, Porto Alegre - RS, 90540-131, Brazil";216;"ESTUDIO DE PINTURA,DESENHO E ESCULTURA";"R GEN COUTO DE MAGALHAES, 1294"
"-30.0416161";"-51.1851811";"street_address";"Rua João Abbott, 451 - Petrópolis, Porto Alegre - RS, 90460-150, Brazil";217;"CONSULTORIO MEDICO";"R JOAO ABBOTT, 451/405"
"-30.079892";"-51.2137559";"street_address";"Rua Sepé Tiarajú, 1405 - Teresópolis, Porto Alegre - RS, 90840-360, Brazil";218;"SALAO DE BELEZA";"R SEPE TIARAJU, 1405/2"
"-30.0288336";"-51.2027461";"street_address";"R. Dr. Florêncio Ygartua, 270 - Moinhos de Vento, Porto Alegre - RS, 90430-010, Brazil";219;"CONSULTORIO MEDICO";"R DR FLORENCIO YGARTUA, 270/807"
"-30.0256805";"-51.1523006";"street_address";"Av. Engenheiro Ary de Abreu Lima, 105 - Vila Ipiranga, Porto Alegre - RS, 91360-110, Brazil";220;"PROFISSIONAL AUTONOMO";"AV ENG ARY DE ABREU LIMA, 105/201"
"-30.0352553";"-51.2111729";"street_address";"Rua Fernandes Vieira, 637 - Bom Fim, Porto Alegre - RS, 90035-091, Brazil";221;"CONSULTORIO DE PSICOLOGIA";"R FERNANDES VIEIRA, 637/307"
"-30.0168946";"-51.1762483";"street_address";"R. Dom Pedrito, 445 - Passo d'Areia, Porto Alegre - RS, 90520-010, Brazil";222;"CONSULTORIO DE TERAPIAS ALTERNATIVAS";"R DOM PEDRITO, 445/1"
"-30.0026803";"-51.1308396";"street_address";"R. Zeferino Dias, 367 - Sarandi, Porto Alegre - RS, 91130-480, Brazil";223;"SALAO DE BELEZA";"R ZEFERINO DIAS, 367"
"-30.068687";"-51.145623";"street_address";"Av. Bento Gonçalves, 7043 - Agronomia, Porto Alegre - RS, 91540-000, Brazil";224;"OFICINA MECANICA PARA AUTOMOVEIS";"AV BENTO GONCALVES, 7043"
"-30.0353521";"-51.2085189";"street_address";"R. Ramiro Barcelos, 1839 - Floresta, Porto Alegre - RS, Brazil";225;"SALAO DE BELEZA";"R RAMIRO BARCELOS, 1839"
"-30.0294634";"-51.2045172";"street_address";"R. Mariante, 239 - Rio Branco, Porto Alegre - RS, 90430-181, Brazil";226;"CONSULTORIO ODONTOLOGICO";"R MARIANTE, 239/301"
"-30.112745";"-51.25549";"street_address";"Av. Wenceslau Escobar, 2801 - Tristeza, Porto Alegre - RS, 91900-000, Brazil";227;"SALAO DE BELEZA";"AV WENCESLAU ESCOBAR, 2801"
"-30.0197621";"-51.206848";"street_address";"Av. Cristóvão Colombo, 1370 - Floresta, Porto Alegre - RS, 90560-002, Brazil";228;"CONSULTORIO MEDICO";"AV CRISTOVAO COLOMBO, 1370/203"
"-30.0300466";"-51.2033094";"street_address";"R. Dr. Florêncio Ygartua, 391 - Moinhos de Vento, Porto Alegre - RS, 90430-010, Brazil";229;"ESCRITORIO DE SERVICOS JURIDICOS";"R DR FLORENCIO YGARTUA, 391/307"
"-30.0197621";"-51.206848";"street_address";"Av. Cristóvão Colombo, 1370 - Floresta, Porto Alegre - RS, 90560-002, Brazil";230;"CONSULTORIO MEDICO";"AV CRISTOVAO COLOMBO, 1370/201"
"-30.0375902";"-51.1242985";"route";"Av. Antônio Giudice - Alto Petrópolis, Porto Alegre - RS, 91260-040, Brazil";231;"ESTUDIO DE PINTURA,DESENHO E ESCULTURA";"AV ANTONIO GIUDICE, 329"
"-30.0242995";"-51.2131192";"street_address";"R. Comendador Coruja, 316 - Floresta, Porto Alegre - RS, 90220-180, Brazil";232;"OFICINA DE ASSISTENCIA TECNICA";"R COMENDADOR CORUJA, 316/4"
"-30.0504866";"-51.1704346";"street_address";"R. Prof. Pedro Santa Helena, 144 - Jardim do Salso, Porto Alegre - RS, 91410-150, Brazil";233;"SALAO DE BELEZA";"R PROF PEDRO SANTA HELENA, 144/1"
"-30.1030016";"-51.2331";"street_address";"Av. Otto Niemeyer, 2625 - Tristeza, Porto Alegre - RS, 91910-001, Brazil";234;"REPRESENTACAO COMERCIAL (INTERMEDIARIOS DE VENDAS DE MERCADORIAS A";"AV OTTO NIEMEYER, 2625/302"
"-30.053265";"-51.22134";"street_address";"R. Visc. do Herval, 744 - Menino Deus, Porto Alegre - RS, 90130-150, Brazil";235;"SALAO DE BELEZA";"R VISCONDE DO HERVAL, 744"
"-30.0282363";"-51.2028282";"establishment";"R. Dr. Florêncio Ygartua, 188 - 202 - Moinhos de Vento, Porto Alegre - RS, 90430-010, Brazil";236;"SALAO DE BELEZA";"R DR FLORENCIO YGARTUA, 188/202"
"-30.0418461";"-51.1948866";"street_address";"Av. Cel. Lucas de Oliveira, 2181 - Petrópolis, Porto Alegre - RS, 90440-011, Brazil";237;"CONSULTORIO MEDICO";"AV CEL LUCAS DE OLIVEIRA, 2181/401"
"-30.0276556";"-51.1507281";"street_address";"Av. Saturnino de Brito, 1611 - Vila Jardim, Porto Alegre - RS, 91320-001, Brazil";238;"SALAO DE BELEZA PARA ANIMAIS";"AV SATURNINO DE BRITO, 1611"
"-30.0335719";"-51.2272952";"street_address";"R. Duque de Caxias, 1392 - Centro Histórico, Porto Alegre - RS, Brazil";239;"SALAO DE BELEZA";"R DUQUE DE CAXIAS, 1392"
"-30.0450675";"-51.1925396";"street_address";"Rua Eça de Queiroz, 377 - Petrópolis, Porto Alegre - RS, 90670-020, Brazil";240;"SALAO DE BELEZA";"R ECA DE QUEIROZ, 377"
"-30.1043305";"-51.2538571";"street_address";"Av. Wenceslau Escobar, 1801 - Cristal, Porto Alegre - RS, Brazil";241;"SALAO DE BELEZA";"AV WENCESLAU ESCOBAR, 1801"
"-30.0055855";"-51.1998089";"route";"Av. Brasil, Porto Alegre - RS, Brazil";242;"CONSULTORIO DE FONOAUDIOLOGIA";"AV BRASIL, 1448/104"
"-30.0395765";"-51.1714269";"street_address";"Av. Protásio Alves, 3942 - Alto Petrópolis, Porto Alegre - RS, Brazil";243;"ESTOFARIA";"AV PROTASIO ALVES, 3942"
"-30.1117546";"-51.2549183";"street_address";"R. Dr. Armando Barbedo, 420 - Tristeza, Porto Alegre - RS, 91910-520, Brazil";244;"CONSULTORIO DE TERAPIAS ALTERNATIVAS";"R DR ARMANDO BARBEDO, 420/204"
"-30.0227526";"-51.1896903";"street_address";"Av. Plínio Brasil Milano, 143 - Higienópolis, Porto Alegre - RS, 90520-002, Brazil";245;"SALAO DE BELEZA";"AV PLINIO BRASIL MILANO, 143/605"
"-30.059477";"-51.2277088";"street_address";"R. José de Alencar, 386 - Menino Deus, Porto Alegre - RS, 90880-480, Brazil";246;"SALAO DE BELEZA";"R JOSE DE ALENCAR, 386/2"
"-30.1057892";"-51.254327";"street_address";"Av. Wenceslau Escobar, 1973 - Tristeza, Porto Alegre - RS, 91900-000, Brazil";247;"SALAO DE BELEZA";"AV WENCESLAU ESCOBAR, 1973/3"
"-30.027541";"-51.215302";"street_address";"Av. Cristóvão Colombo, 213 - Floresta, Porto Alegre - RS, 90560-003, Brazil";248;"SALAO DE BELEZA";"AV CRISTOVAO COLOMBO, 213"
"-30.059477";"-51.2277088";"street_address";"R. José de Alencar, 386 - Menino Deus, Porto Alegre - RS, 90880-480, Brazil";249;"SALAO DE BELEZA";"R JOSE DE ALENCAR, 386/2"
"-30.031743";"-51.196697";"street_address";"R. Quintino Bocaiúva, 1530 - Rio Branco, Porto Alegre - RS, 90440-050, Brazil";250;"SALAO DE BELEZA";"R QUINTINO BOCAIUVA, 1530"
"-30.064756";"-51.2244006";"street_address";"R. Barão do Cerro Largo, 767 - Menino Deus, Porto Alegre - RS, 90850-110, Brazil";251;"CONSULTORIO DE TERAPIAS ALTERNATIVAS";"R BARAO DO CERRO LARGO, 767"
"-30.0436098";"-51.1830765";"establishment";"Av. Protásio Alves, 2599 - Petrópolis, Porto Alegre - RS, 90410-003, Brazil";252;"CONSULTORIO DE PSICOLOGIA";"AV PROTASIO ALVES, 2599/502"
"-30.0147568";"-51.1200908";"route";"Av. Baltazar de Oliveira Garcia, Porto Alegre - RS, Brazil";253;"ESTUDIO FOTOGRAFICO";"AV BALTAZAR DE OLIVEIRA GARCIA, 2891/20"
"-30.029678";"-51.2293383";"establishment";"R. dos Andradas, 1234 - Centro Histórico, Porto Alegre - RS, 90010-000, Brazil";254;"CONSULTORIOS";"R ANDRADAS, 1646/72"
"-30.1630705";"-51.18024";"street_address";"R. do Schneider, 310 - Campo Novo, Porto Alegre - RS, 91787-190, Brazil";255;"SALAO DE BELEZA PARA ANIMAIS";"R SCHNEIDER, 310"
"-30.029678";"-51.2293383";"establishment";"R. dos Andradas, 1234 - Centro Histórico, Porto Alegre - RS, 90010-000, Brazil";256;"SALAO DE BELEZA";"R ANDRADAS, 1560/505"
"-30.0255716";"-51.202528";"establishment";"R. Luciana de Abreu, 471 - Moinhos de Vento, Porto Alegre - RS, 90570-060, Brazil";257;"CONSULTORIO MEDICO";"R LUCIANA DE ABREU, 323/305"
"-30.1057892";"-51.254327";"street_address";"Av. Wenceslau Escobar, 1973 - Tristeza, Porto Alegre - RS, 91900-000, Brazil";258;"SALAO DE BELEZA";"AV WENCESLAU ESCOBAR, 1973/3"
"-30.0560686";"-51.2250217";"street_address";"Rua Mucio Teixeira, 1394 - Menino Deus, Porto Alegre - RS, 90150-090, Brazil";259;"TINTURARIA E LAVANDERIA SEM CALDEIRA";"R MUCIO TEIXEIRA, 1394"
"-29.978398";"-51.186037";"street_address";"R. Max Juniman, 155 - Humaitá, Porto Alegre - RS, 90250-060, Brazil";260;"PROFISSIONAL AUTONOMO";"R MAX JUNIMAN, 155/401"
"-30.0111213";"-51.1714111";"street_address";"Av. Tapiaçu, 356 - Passo d'Areia, Porto Alegre - RS, 91030-080, Brazil";261;"SALAO DE BELEZA";"AV TAPIACU, 356/3"
"-30.0634126";"-51.2063882";"street_address";"R. Prof. Oscar Pereira, 1471 - Glória, Porto Alegre - RS, 90660-080, Brazil";262;"ESTUDIO FOTOGRAFICO";"AV PROF OSCAR PEREIRA, 1471"
"-30.034983";"-51.176165";"street_address";"R. João Caetano, 105 - Três Figueiras, Porto Alegre - RS, 90470-260, Brazil";263;"SALAO DE BELEZA";"R JOAO CAETANO, 1055/105"
"-30.038726";"-51.19574";"street_address";"R. Vicente da Fontoura, 2659 - Bela Vista, Porto Alegre - RS, 90640-003, Brazil";264;"SALAO DE BELEZA";"R VICENTE DA FONTOURA, 2659"
"-30.0001067";"-51.151311";"street_address";"Av. Panamericana, 1097 - Jardim Lindoia, Porto Alegre - RS, 91050-001, Brazil";265;"SALAO DE BELEZA";"AV PANAMERICANA, 1097/4"
"-30.0183657";"-51.2003687";"street_address";"R. Dr. Timóteo, 371 - Floresta, Porto Alegre - RS, 90570-041, Brazil";266;"CONSULTORIO MEDICO";"R DR TIMOTEO, 371/706"
"-30.017982";"-51.1911853";"street_address";"Av. Cristóvão Colombo, 2937 - Floresta, Porto Alegre - RS, Brazil";267;"CONSULTORIO MEDICO";"AV CRISTOVAO COLOMBO, 2937/505"
"-30.0295737";"-51.2260865";"street_address";"R. dos Andradas, 1560 - Centro Histórico, Porto Alegre - RS, 90020-012, Brazil";268;"CONSULTORIO DE PSICOLOGIA";"R ANDRADAS, 1560/1312"
"-30.115509";"-51.2537935";"street_address";"Av. Wenceslau Escobar, 3120 - Tristeza, Porto Alegre - RS, 91900-000, Brazil";269;"SALAO DE BELEZA";"AV WENCESLAU ESCOBAR, 3120"
"-30.0223873";"-51.1866844";"street_address";"R. Comendador Rheingantz, 35 - Auxiliadora, Porto Alegre - RS, 90450-020, Brazil";270;"REPARACAO, INSTALACAO E MANUTENCAO DE EQUIPAMENTOSDE SEGURANCA E A";"R COMENDADOR RHEINGANTZ, 35/203"
"-30.029678";"-51.2293383";"establishment";"R. dos Andradas, 1234 - Centro Histórico, Porto Alegre - RS, 90010-000, Brazil";271;"ESCRITORIO DE COBRANCA E AJUSTE DE CONTAS";"R ANDRADAS, 1664/405"
"-30.0520275";"-51.2212267";"street_address";"R. Barão do Triunfo, 74 - Menino Deus, Porto Alegre - RS, 90130-101, Brazil";272;"SALAO DE BELEZA";"R BARAO DO TRIUNFO, 74"
"-30.0714676";"-51.2010902";"street_address";"R. Dom Vital, 270 - Glória, Porto Alegre - RS, Brazil";273;"ESCOLA ESPECIAL";"R DOM VITAL, 270"
"-30.0105073";"-51.1665468";"street_address";"Av. Carneiro da Fontoura, 114 - Jardim Sao Pedro, Porto Alegre - RS, 91040-170, Brazil";274;"SALAO DE BELEZA";"AV CARNEIRO DA FONTOURA, 114/3"
"-30.0470789";"-51.1984851";"street_address";"R. Livramento, 508 - Santana, Porto Alegre - RS, 90640-130, Brazil";275;"LOCACAO DE FITAS DE VIDEO";"R LIVRAMENTO, 508"
"-30.0352378";"-51.1653404";"premise";"Av. Teixeira Mendes, 568 - Chácara das Pedras, Porto Alegre - RS, 91330-390, Brazil";276;"SALAO DE BELEZA";"AV TEIXEIRA MENDES, 568"
"-30.0305192";"-51.2282956";"street_address";"Tv. Eng. Acilino de Carvalho, 30 - Centro Histórico, Porto Alegre - RS, 90010-200, Brazil";277;"SALAO DE BELEZA";"TRAV ENG ACILINO CARVALHO, 30/62"
"-30.0421948";"-51.146689";"route";"Av. Protásio Alves, Porto Alegre - RS, Brazil";278;"SALAO DE BELEZA";"AV PROTASIO ALVES, 8769/8"
"-30.0104307";"-51.1703157";"street_address";"Av. Assis Brasil, 1652 - Passo d'Areia, Porto Alegre - RS, 91010-006, Brazil";279;"PROCESSAMENTO DE DADOS";"AV ASSIS BRASIL, 1652/407"
"-30.0514198";"-51.2093475";"street_address";"Av. Bento Gonçalves, 369 - Partenon, Porto Alegre - RS, 90650-002, Brazil";280;"SALAO DE BELEZA";"AV BENTO GONCALVES, 369"
"-30.0696042";"-51.2109487";"street_address";"R. Gen. Gomes Carneiro, 608 - Medianeira, Porto Alegre - RS, 90870-310, Brazil";281;"CONSULTORIOS";"AV GEN GOMES CARNEIRO, 608/102"
"-30.115509";"-51.2537935";"street_address";"Av. Wenceslau Escobar, 3120 - Tristeza, Porto Alegre - RS, 91900-000, Brazil";282;"CONSULTORIO ODONTOLOGICO";"AV WENCESLAU ESCOBAR, 3120"
"-30.0305244";"-51.2259518";"street_address";"R. Vig. José Inácio, 547 - Centro Histórico, Porto Alegre - RS, 90020-100, Brazil";283;"SALAO DE BELEZA";"R VIGARIO JOSE IGNACIO, 547/609"
"-30.036658";"-51.2104409";"street_address";"Av. José Bonifácio, 725 - Farroupilha, Porto Alegre - RS, Brazil";284;"SALAO DE BELEZA";"AV JOSE BONIFACIO, 725"
"-30.0223194";"-51.2007992";"establishment";"R. Tobias da Silva, 120 - Conjunto 603 - Moinhos de Vento, Porto Alegre - RS, 90570-020, Brazil";285;"CONSULTORIO DE PSICOLOGIA";"R TOBIAS DA SILVA, 253/202"
"-30.026945";"-51.150494";"establishment";"Av. do Forte, 1844 - Vila Ipiranga, Porto Alegre - RS, 91360-001, Brazil";286;"OFICINA DE REPARACAO DE BICICLETAS";"R SAPE, 356"
"-30.014829";"-51.1645361";"street_address";"R. Umbú, 500 - Passo d'Areia, Porto Alegre - RS, 91350-100, Brazil";287;"CONSULTORIO ODONTOLOGICO";"R UMBU, 500/205"
"-30.0310426";"-51.2193084";"street_address";"R. da Conceição, 389 - Centro Histórico, Porto Alegre - RS, 90030-030, Brazil";288;"MINI-SNOOKER";"R CONCEICAO, 389/305"
"-29.978398";"-51.186037";"street_address";"R. Max Juniman, 155 - Humaitá, Porto Alegre - RS, 90250-060, Brazil";289;"PROFISSIONAL AUTONOMO";"R MAX JUNIMAN, 155/217"
"-29.9802193";"-51.1901026";"street_address";"Av. Eng. Felício Lemieszek, 151 - Humaitá, Porto Alegre - RS, 90250-040, Brazil";290;"SALAO DE BELEZA";"AV ENG FELICIO LEMIESZEK, 151/10"
"-30.0624947";"-51.1577433";"street_address";"R. Padre Todesco, 260 - Partenon, Porto Alegre - RS, 91530-360, Brazil";291;"SALAO DE BELEZA";"R PADRE TODESCO, 260"
"-30.0552796";"-51.1733766";"street_address";"Av. Ipiranga, 6690 - Jardim Botânico, Porto Alegre - RS, Brazil";292;"CONSULTORIO MEDICO";"AV IPIRANGA, 6690/304"
"-30.0137134";"-51.1593416";"establishment";"Av. Francisco Trein, 326 - Cristo Redentor, Porto Alegre - RS, 91350-200, Brazil";293;"SALAO DE BELEZA";"AV FRANCISCO TREIN, 218/6"
"-30.0308141";"-51.2283512";"street_address";"R. Gen. Andrade Neves, 155 - Centro Histórico, Porto Alegre - RS, Brazil";294;"CONSULTORIO DE PSICOLOGIA";"R GEN ANDRADE NEVES, 155/63"
"-30.042744";"-51.187157";"street_address";"Av. Taquara, 110 - Petrópolis, Porto Alegre - RS, 90460-210, Brazil";295;"CONSULTORIO DE FONOAUDIOLOGIA";"AV TAQUARA, 110/201"
"-30.097753";"-51.233844";"street_address";"R. Cel. Massot, 1477 - Cavalhada, Porto Alegre - RS, 91910-530, Brazil";296;"SALAO DE BELEZA";"R CEL MASSOT, 1477/2"
"-30.0551152";"-51.2222415";"street_address";"Av. Getúlio Vargas, 1184 - Menino Deus, Porto Alegre - RS, 90150-004, Brazil";297;"CONSULTORIO MEDICO";"AV GETULIO VARGAS, 1184/502"
"-30.019518";"-51.1860164";"street_address";"R. Dom Pedro II, 1390 - São João, Porto Alegre - RS, 90550-141, Brazil";298;"CONSULTORIO MEDICO";"R DOM PEDRO II, 1390"
"-30.0382743";"-51.1308292";"route";"Av. Rachel Wolfrid - Alto Petrópolis, Porto Alegre - RS, Brazil";299;"SALAO DE BELEZA";"AV RACHEL WOLFRID, 300"
"-30.022379";"-51.116137";"street_address";"R. Ruben Berta, 225 - Rubem Berta, Porto Alegre - RS, 91240-310, Brazil";300;"SALAO DE BELEZA";"R RUBEN BERTA, 225/21"
"-30.030476";"-51.226284";"establishment";"Ed. Fleming - R. Gen. Vitorino, 53 - sala 31 - Centro Histórico, Porto Alegre - RS, 90020-170, Brazil";301;"ESCOLA ESPECIAL";"R GEN VITORINO, 129/14"
"-30.0184196";"-51.2030048";"street_address";"Av. Cristóvão Colombo, 1773 - Floresta, Porto Alegre - RS, 90560-003, Brazil";302;"ESCRITORIO DE SERVICOS JURIDICOS";"AV CRISTOVAO COLOMBO, 1773/303"
"-30.0550755";"-51.1868768";"street_address";"Av. Ipiranga, 5200 - Jardim Botânico, Porto Alegre - RS, 90160-001, Brazil";303;"SALAO DE BELEZA";"AV IPIRANGA, 5200/302"
"-30.0290046";"-51.2262223";"street_address";"R. Vig. José Inácio, 371 - Centro Histórico, Porto Alegre - RS, 90020-100, Brazil";304;"SERVICO DE MASSAGEM (MASSAGISTAS, MASSAGEM ESTETI-CA, TERAPEUTICA";"R VIGARIO JOSE IGNACIO, 371/903"
"-30.1085525";"-51.2504804";"street_address";"Av. Otto Niemeyer, 856 - Tristeza, Porto Alegre - RS, 91910-001, Brazil";305;"SALAO DE BELEZA";"AV OTTO NIEMEYER, 856"
"-30.2088506";"-51.1904062";"street_address";"Av. Des. Melo Guimarães, 245 - Belém Novo, Porto Alegre - RS, 91780-280, Brazil";306;"CONSULTORIO DE TERAPIAS ALTERNATIVAS";"AV DESEMBARGADOR MELO GUIMARAES, 245/1"
"-30.0575859";"-51.2225513";"street_address";"R. Saldanha Marinho, 36 - Menino Deus, Porto Alegre - RS, 90160-240, Brazil";307;"OFICINA DE REPARACAO DE ARTIGOS DIVERSOS NAO ESPE-CIFICADOS";"R SALDANHA MARINHO, 36"
"-29.9804502";"-51.1900013";"street_address";"Av. Eng. Felício Lemieszek, 145 - Humaitá, Porto Alegre - RS, 90250-040, Brazil";308;"SALAO DE BELEZA";"AV ENG FELICIO LEMIESZEK, 145/8"
"-30.036356";"-51.2075843";"street_address";"Rua Francisco Ferrer, 453 - Rio Branco, Porto Alegre - RS, Brazil";309;"CONSULTORIO ODONTOLOGICO";"R FRANCISCO FERRER, 453/605"
"-29.993417";"-51.1334307";"street_address";"R. Xavier de Carvalho, 337 - Sarandi, Porto Alegre - RS, Brazil";310;"OFICINA DE TROCA E COLOCACAO DE SURDINAS, MOLAS,  AMORTECEDORES E";"R XAVIER DE CARVALHO, 337"
"-30.0295145";"-51.2281306";"street_address";"Av. Borges de Medeiros, 343 - Centro, Porto Alegre - RS, 90020-022, Brazil";311;"SERVICO DE PODOLOGIA";"AV BORGES DE MEDEIROS, 343/64"
"-30.0414563";"-51.2171709";"street_address";"Av. Venâncio Aires, 302 - Cidade Baixa, Porto Alegre - RS, 90040-190, Brazil";312;"SALAO DE BELEZA";"AV VENANCIO AIRES, 302"
"-30.0250095";"-51.1622202";"street_address";"Av. João Wallig, 1800 - Passo d'Areia, Porto Alegre - RS, Brazil";313;"SALAO DE BELEZA";"AV JOAO WALLIG, 1800/1102"
"-30.0443327";"-51.1896827";"street_address";"R. Prof. Langendonck, 143 - Petrópolis, Porto Alegre - RS, 90630-000, Brazil";314;"SALAO DE BELEZA";"R PROF LANGENDONCK, 143"
"-30.0422631";"-51.1511947";"street_address";"R. Dr. Murtinho, 958 - Bom Jesus, Porto Alegre - RS, 91420-070, Brazil";315;"SALAO DE BELEZA";"R DR MURTINHO, 958"
"-30.0367935";"-51.223586";"street_address";"R. Gen. Lima e Silva, 335 - Centro Histórico, Porto Alegre - RS, 90050-101, Brazil";316;"SALAO DE BELEZA";"R GEN LIMA E SILVA, 335"
"-30.0298722";"-51.2256283";"establishment";"R. dos Andradas, 1593 - Centro Histórico, Porto Alegre - RS, 90010-140, Brazil";317;"SALAO DE BELEZA";"R ANDRADAS, 1454"
"-30.0417589";"-51.124003";"route";"Av. Dr. Alberto Viana Rosa - Protásio Alves, Porto Alegre - RS, Brazil";318;"FOTOCOPIAS, COPIAS HELIOGRAFICAS E PLASTIFICACAO";"AV DR ALBERTO VIANNA ROSA, 339"
"-30.0599281";"-51.2180704";"street_address";"R. José de Alencar, 1352 - Menino Deus, Porto Alegre - RS, 90880-480, Brazil";319;"SALAO DE BELEZA";"R JOSE DE ALENCAR, 1352"
"-30.121979";"-51.2122715";"establishment";"Vila Nova, Porto Alegre - RS, 91750-200, Brazil";320;"ESCRITORIO ADMINISTRATIVO (SEDE ADMINISTRATIVA DE EMPRESA)";"R ATILIO SUPERTTI, 500"
"-30.014142";"-51.2078275";"street_address";"R. Santos Dumont, 840 - Floresta, Porto Alegre - RS, 90230-240, Brazil";321;"MINI-SNOOKER";"R SANTOS DUMONT, 840"
"-30.0180991";"-51.2048456";"street_address";"Av. Cristóvão Colombo, 1636 - Floresta, Porto Alegre - RS, 90560-002, Brazil";322;"CONSULTORIO MEDICO";"AV CRISTOVAO COLOMBO, 1636/203"
"-30.0287907";"-51.2248315";"street_address";"Av. Otávio Rocha, 179 - Centro Histórico, Porto Alegre - RS, 90020-012, Brazil";323;"SALAO DE BELEZA";"AV OTAVIO ROCHA, 179/11"
"-30.0697225";"-51.1557043";"route";"R. Sargento-Expedicionário Geraldo Santana - Partenon, Porto Alegre - RS, 91530-640, Brazil";324;"PROFISSIONAL AUTONOMO";"R SARGENTO EXPED GERALDO SANTANA, 53"
"-30.0249591";"-51.1959153";"street_address";"Rua Eudoro Berlink, 185 - Auxiliadora, Porto Alegre - RS, 90450-030, Brazil";325;"CONSULTORIO DE TERAPIAS ALTERNATIVAS";"R EUDORO BERLINK, 185"
"-30.0298133";"-51.22393";"street_address";"R. dos Andradas, 1755 - Centro Histórico, Porto Alegre - RS, 90020-013, Brazil";326;"SALAO DE BELEZA";"R ANDRADAS, 1755/3"
"-30.031743";"-51.196697";"street_address";"R. Quintino Bocaiúva, 1530 - Rio Branco, Porto Alegre - RS, 90440-050, Brazil";327;"SALAO DE BELEZA";"R QUINTINO BOCAIUVA, 1530"
"-30.104039";"-51.2297037";"street_address";"Av. da Cavalhada, 3160 - Cavalhada, Porto Alegre - RS, 91740-000, Brazil";328;"ESCRITORIO DE SERVICOS JURIDICOS";"AV CAVALHADA, 3160/205"
"-29.9887347";"-51.1302931";"premise";"R. Rodrigues da Costa, 410 - Sarandi, Porto Alegre - RS, 91120-640, Brazil";329;"SERVICO DE TREINAMENTO E ADMINISTRACAO DE PESSOAL";"R RODRIGUES DA COSTA, 410"
"-30.029055";"-51.2055621";"street_address";"R. Mostardeiro, 157 - Independência, Porto Alegre - RS, Brazil";330;"CONSULTORIO MEDICO";"R MOSTARDEIRO, 157/407"
"-30.0340936";"-51.2054645";"premise";"R. Miguel Tostes, 672 - Rio Branco, Porto Alegre - RS, 90430-060, Brazil";331;"CONSULTORIO MEDICO";"R MIGUEL TOSTES, 672"
"-30.0147568";"-51.1200908";"route";"Av. Baltazar de Oliveira Garcia, Porto Alegre - RS, Brazil";332;"ESCRITORIO DE SERVICOS JURIDICOS";"AV BALTAZAR DE OLIVEIRA GARCIA, 2403"
"-30.0295145";"-51.2281306";"street_address";"Av. Borges de Medeiros, 343 - Centro, Porto Alegre - RS, 90020-022, Brazil";333;"ESCRITORIO DE CORRETAGEM DE SEGUROS";"AV BORGES DE MEDEIROS, 343/76"
"-30.0095662";"-51.1808159";"street_address";"R. Dr. Eduardo Chartier, 85 - Passo d'Areia, Porto Alegre - RS, 90520-100, Brazil";334;"ESCRITORIO DE CONTABILIDADE";"R DR EDUARDO CHARTIER, 85"
"-29.9855664";"-51.1628373";"route";"Av. das Indústrias, Porto Alegre - RS, Brazil";335;"ESCRITORIO DE IMPORTACAO E EXPORTACAO";"AV INDUSTRIAS, 110"
"-30.0254076";"-51.1976332";"establishment";"R. Quintino Bocaiúva, 834 - Moinhos de Vento, Porto Alegre - RS, 90440-050, Brazil";336;"PROFISSIONAL AUTONOMO";"R QUINTINO BOCAIUVA, 683/304"
"-30.0534325";"-51.2220262";"street_address";"R. Visc. do Herval, 681 - Menino Deus, Porto Alegre - RS, 90130-151, Brazil";337;"SALAO DE BELEZA";"R VISCONDE DO HERVAL, 681"
"-30.0395226";"-51.2222345";"street_address";"Rua Luiz Afonso, 335 - Cidade Baixa, Porto Alegre - RS, 90050-310, Brazil";338;"CONSULTORIO ODONTOLOGICO";"R LUIZ AFONSO, 335"
"-29.9804498";"-51.1900027";"street_address";"Av. Eng. Felício Lemieszek, 161 - Humaitá, Porto Alegre - RS, 90250-040, Brazil";339;"SALAO DE BELEZA";"AV ENG FELICIO LEMIESZEK, 161"
"-30.0302511";"-51.2303333";"street_address";"R. dos Andradas, 1137 - Centro Histórico, Porto Alegre - RS, 90020-008, Brazil";340;"ESCRITORIO DE SERVICOS JURIDICOS";"R ANDRADAS, 1137/520"
"-30.0289199";"-51.2256121";"street_address";"R. Vig. José Inácio, 368 - Centro Histórico, Porto Alegre - RS, 90020-110, Brazil";341;"CONSULTORIO MEDICO";"R VIGARIO JOSE IGNACIO, 368/1002"
"-30.0279805";"-51.2258238";"street_address";"R. Vig. José Inácio, 263 - Centro Histórico, Porto Alegre - RS, 90020-100, Brazil";342;"ESCRITORIO DE CONTABILIDADE";"R VIGARIO JOSE IGNACIO, 263/91"
"-30.0294756";"-51.1794725";"street_address";"Av. Dr. Nilo Peçanha, 1221 - Boa Vista, Porto Alegre - RS, Brazil";343;"CONSULTORIO MEDICO";"AV DR NILO PECANHA, 1221/901"
"-30.0237186";"-51.2005551";"street_address";"R. 24 de Outubro, 838 - Moinhos de Vento, Porto Alegre - RS, 90510-001, Brazil";344;"CONSULTORIO MEDICO";"R VINTE QUATRO DE OUTUBRO, 838/701"
"-30.0244318";"-51.1900166";"street_address";"R. Silva Jardim, 254 - Auxiliadora, Porto Alegre - RS, 90450-070, Brazil";345;"CONSULTORIO DE TERAPIAS ALTERNATIVAS";"R SILVA JARDIM, 254/201"
"-30.1119261";"-51.2555589";"street_address";"Av. Wenceslau Escobar, 2683 - Cristal, Porto Alegre - RS, Brazil";346;"ESCRITORIO DE ENGENHARIA";"AV WENCESLAU ESCOBAR, 2683"
"-30.0387638";"-51.1774086";"street_address";"Av. Iguaçu, 418 - Petrópolis, Porto Alegre - RS, 90470-430, Brazil";347;"CONSULTORIO DE PSIQUIATRIA";"AV IGUASSU, 418/605"
"-30.0448321";"-51.2179726";"street_address";"R. José do Patrocínio, 1292 - Cidade Baixa, Porto Alegre - RS, 90050-002, Brazil";348;"SALAO DE BELEZA";"R JOSE DO PATROCINIO, 1292"
"-30.0386718";"-51.1759137";"street_address";"Av. Protásio Alves, 3504 - Alto Petrópolis, Porto Alegre - RS, Brazil";349;"CONSULTORIO DE PSICOLOGIA";"AV PROTASIO ALVES, 3504/201"
"-30.0264364";"-51.2095874";"street_address";"R. Ramiro Barcelos, 839 - Floresta, Porto Alegre - RS, 90035-005, Brazil";350;"CONSULTORIO MEDICO";"R RAMIRO BARCELOS, 839"
"-30.0242943";"-51.1998269";"establishment";"R. Dr. Timóteo, 1015 - Moinhos de Vento, Porto Alegre - RS, 91900-240, Brazil";351;"PROFISSIONAL AUTONOMO";"R DR TIMOTEO, 900/101"
"-30.030605";"-51.2249156";"street_address";"Rua Doutor Flores, 381 - Centro Histórico, Porto Alegre - RS, 90020-121, Brazil";352;"SALAO DE BELEZA";"R DR FLORES, 381"
"-30.0432883";"-51.1436325";"car_repair";"Av. Protásio Alves, 6950 - Petrópolis, Porto Alegre - RS, 91310-001, Brazil";353;"DECORACAO DE FESTAS";"AV PROTASIO ALVES, 6602/1"
"-29.9770433";"-51.1676891";"premise";"Av. Fernando Ferrari, 1001 - Anchieta, Porto Alegre - RS, Brazil";354;"ESCRITORIO DE SERVICOS DE DESPACHANTE E PROCURADOR";"AV FERNANDO FERRARI, 1001/3"
"-30.0435905";"-51.1861738";"street_address";"Av. Protásio Alves, 2302 - Alto Petrópolis, Porto Alegre - RS, Brazil";355;"CONSULTORIO MEDICO";"AV PROTASIO ALVES, 2302/306"
"-30.047923";"-51.221678";"street_address";"Av. Getúlio Vargas, 401 - Menino Deus, Porto Alegre - RS, 90150-001, Brazil";356;"TINTURARIA E LAVANDERIA";"AV GETULIO VARGAS, 401"
"-30.0333317";"-51.2361188";"street_address";"R. Riachuelo, 553 - Centro Histórico, Porto Alegre - RS, 90010-273, Brazil";357;"TINTURARIA E LAVANDERIA SEM CALDEIRA";"R RIACHUELO, 553"
"-30.0117499";"-51.1655676";"establishment";"Av. Assis Brasil, 2185 - Passo d'Areia, Porto Alegre - RS, Brazil";358;"CONSULTORIO ODONTOLOGICO";"AV ASSIS BRASIL, 2185/205"
"-30.0250095";"-51.1622202";"street_address";"Av. João Wallig, 1800 - Passo d'Areia, Porto Alegre - RS, Brazil";359;"SALAO DE BELEZA";"AV JOAO WALLIG, 1800/3940"
"-30.0220631";"-51.1936242";"street_address";"R. 24 de Outubro, 1499 - Independência, Porto Alegre - RS, 90510-002, Brazil";360;"SALAO DE BELEZA";"R VINTE QUATRO DE OUTUBRO, 1499"
"-30.0388388";"-51.2069231";"street_address";"R. Ramiro Barcelos, 2350 - Santa Cecilia, Porto Alegre - RS, 90035-007, Brazil";361;"SALAO DE BELEZA";"R RAMIRO BARCELOS, 2350/5"
"-30.0748831";"-51.2106805";"street_address";"R. Prof. Carvalho de Freitas, 6 - Cascata, Porto Alegre - RS, 91720-090, Brazil";362;"REPARACAO DE CALCADOS E DEMAIS ARTIGOS DE COURO";"R PROF CARVALHO FREITAS, 6"
"-30.0253955";"-51.2034903";"street_address";"R. Padre Chagas, 185 - Moinhos de Vento, Porto Alegre - RS, 90570-080, Brazil";363;"CONSULTORIO DE PSICOLOGIA";"R PADRE CHAGAS, 185/604"
"-30.03954";"-51.199756";"street_address";"Av. Protásio Alves, 857 - Santa Cecilia, Porto Alegre - RS, 90410-000, Brazil";364;"SALAO DE BELEZA";"AV PROTASIO ALVES, 857"
"-30.0119142";"-51.2059683";"street_address";"Av. São Paulo, 1041 - São Geraldo, Porto Alegre - RS, 90230-161, Brazil";365;"GARAGEM E ESTACIONAMENTO PARA VEICULOS, EXCETO OS DE CARGA OU COLE";"AV SAO PAULO, 1041"
"-30.0352234";"-51.1776773";"establishment";"Av. Carlos Gomes, 1611 - Auxiliadora, Porto Alegre - RS, 90480-001, Brazil";366;"SALAO DE BELEZA";"AV CARLOS GOMES, 1611"
"-30.0354844";"-51.2107343";"street_address";"Av. Osvaldo Aranha, 1180 - Bom Fim, Porto Alegre - RS, 90035-191, Brazil";367;"SALAO DE BELEZA";"AV OSVALDO ARANHA, 1180/302"
"-30.0237641";"-51.1618924";"establishment";"Av. João Wallig, 1800 - Passo d'Areia, Porto Alegre - RS, 91340-000, Brazil";368;"SALAO DE BELEZA";"AV JOAO WALLIG, 1800/1269"
"-30.1057892";"-51.254327";"street_address";"Av. Wenceslau Escobar, 1973 - Tristeza, Porto Alegre - RS, 91900-000, Brazil";369;"SALAO DE BELEZA";"AV WENCESLAU ESCOBAR, 1973/3"
"-29.9963366";"-51.2005089";"premise";"Tv. São José, 494 - Navegantes, Porto Alegre - RS, 90240-200, Brazil";370;"SALAO DE BELEZA";"TRAV SAO JOSE, 494"
"-30.0237641";"-51.1618924";"establishment";"Av. João Wallig, 1800 - Passo d'Areia, Porto Alegre - RS, 91340-000, Brazil";371;"SERVICO DE PODOLOGIA";"AV JOAO WALLIG, 1800/1269"
"-30.102174";"-51.2320778";"street_address";"Av. Otto Niemeyer, 2974 - Camaquã, Porto Alegre - RS, 91910-001, Brazil";372;"SALAO DE BELEZA";"AV OTTO NIEMEYER, 2974/102"
"-29.977269";"-51.1855486";"street_address";"Av. Clóvis Paim Grivot, 201 - Humaitá, Porto Alegre - RS, 90250-020, Brazil";373;"CONSULTORIO DE PEDAGOGIA";"AV CLOVIS PAIM GRIVOT, 185/201"
"-30.0292409";"-51.2258159";"street_address";"R. Vig. José Inácio, 399 - Centro Histórico, Porto Alegre - RS, 90020-110, Brazil";374;"ESCRITORIO DE SERVICOS JURIDICOS";"R VIGARIO JOSE IGNACIO, 399/911"
"-30.0112646";"-51.1596425";"doctor";"Centro Comercial Francisco Trein - Rua Carlos Silveira Martins Pacheco, 10 sala 411 - Cristo Redentor, Porto Alegre - RS, 91350-300, Brazil";375;"CONSULTORIO DE PSICOLOGIA";"R CARLOS SILVEIRA MARTINS PACHECO, 10"
"-30.0493292";"-51.1964431";"street_address";"Av. Ipiranga, 3435 - Partenon, Porto Alegre - RS, 90610-001, Brazil";376;"SALAO DE BELEZA";"AV IPIRANGA, 3435/4"
"-30.0343362";"-51.2125467";"street_address";"Rua General João Telles, 542 - Bom Fim, Porto Alegre - RS, 90035-120, Brazil";377;"CONSULTORIO MEDICO";"R GEN JOAO TELLES, 542/601"
"-30.029678";"-51.2293383";"establishment";"R. dos Andradas, 1234 - Centro Histórico, Porto Alegre - RS, 90010-000, Brazil";378;"SALAO DE BELEZA";"R ANDRADAS, 1270/42"
"-30.0290427";"-51.2005327";"street_address";"Largo Caixeiros Viajantes, 10 - Rio Branco, Porto Alegre - RS, 90430-070, Brazil";379;"SALAO DE BELEZA";"LG CAIXEIROS VIAJANTES, 10"
"-30.0349339";"-51.211721";"street_address";"Av. Osvaldo Aranha, 1070 - Bom Fim, Porto Alegre - RS, 90035-191, Brazil";380;"CONFECCAO SOB MEDIDA DE ARTIGOS DO VESTUARIO";"AV OSVALDO ARANHA, 1070/308"
"-30.0458439";"-51.213433";"street_address";"Av. João Pessoa, 1831 - Azenha, Porto Alegre - RS, Brazil";381;"SALAO DE BELEZA";"AV JOAO PESSOA, 1831"
"-30.048814";"-51.208663";"street_address";"Av. Princesa Isabel, 395 - Santana, Porto Alegre - RS, 90620-001, Brazil";382;"CONSULTORIO MEDICO";"AV PRINCESA ISABEL, 395"
"-30.0292485";"-51.2206912";"street_address";"Av. Independência, 102 - Centro, Porto Alegre - RS, 90035-070, Brazil";383;"SALAO DE BELEZA";"AV INDEPENDENCIA, 102"
"-30.0186896";"-51.1904898";"street_address";"R. Germano Petersen Júnior, 235 - Higienópolis, Porto Alegre - RS, 90540-140, Brazil";384;"SALAO DE BELEZA";"R GERMANO PETERSEN JUNIOR, 235"
"-30.0303969";"-51.2355468";"street_address";"R. Gen. Bento Martins, 24 - Centro Histórico, Porto Alegre - RS, 90010-080, Brazil";385;"INSTRUTOR DE IOGA";"R GEN BENTO MARTINS, 24/1204"
"-30.0416494";"-51.1971732";"street_address";"R. Dona Eugênia, 811 - Santa Cecilia, Porto Alegre - RS, 90630-150, Brazil";386;"SALAO DE BELEZA";"R DONA EUGENIA, 811"
"-30.0162807";"-51.1672808";"street_address";"R. Jari, 555 - Passo d'Areia, Porto Alegre - RS, 91350-170, Brazil";387;"SALAO DE BELEZA";"R JARY, 555/2"
"-30.0550755";"-51.1868768";"street_address";"Av. Ipiranga, 5200 - Jardim Botânico, Porto Alegre - RS, 90160-001, Brazil";388;"SALAO DE BELEZA";"AV IPIRANGA, 5200/302"
"-30.121979";"-51.2122715";"establishment";"Vila Nova, Porto Alegre - RS, 91750-200, Brazil";389;"ESCRITORIO DE CORRETAGEM DE IMOVEIS";"R ATILIO SUPERTTI, 287"
"-30.0180326";"-51.1144806";"route";"Rua Jandyr Maya Faillace - Rubem Berta, Porto Alegre - RS, 91240-010, Brazil";390;"PROFISSIONAL AUTONOMO";"R JANDYR MAYA FAILLACE, 55/207"
"-30.0109665";"-51.2012682";"street_address";"Av. São Pedro, 817 - São Geraldo, Porto Alegre - RS, 90230-121, Brazil";391;"SALAO DE BELEZA";"AV SAO PEDRO, 817"
"-30.0524905";"-51.214331";"street_address";"R. Barão do Triunfo, 720 - Menino Deus, Porto Alegre - RS, 90130-100, Brazil";392;"PROFISSIONAL AUTONOMO";"R BARAO DO TRIUNFO, 720/311"
"-30.0117499";"-51.1655676";"establishment";"Av. Assis Brasil, 2185 - Passo d'Areia, Porto Alegre - RS, Brazil";393;"SALAO DE BELEZA";"AV ASSIS BRASIL, 2185/307"
"-30.021833";"-51.1625768";"street_address";"Av. Túlio de Rose, 80 - Passo d'Areia, Porto Alegre - RS, Brazil";394;"SALAO DE BELEZA";"AV TULIO DE ROSE, 80/119"
"-30.0669744";"-51.1802386";"route";"R. Cel. José Rodrigues Sobral, Porto Alegre - RS, Brazil";395;"GARAGEM E ESTACIONAMENTO PARA VEICULOS, EXCETO OS DE CARGA OU COLE";"R CEL JOSE RODRIGUES SOBRAL, 209"
"-30.0535277";"-51.2219927";"street_address";"Av. Getúlio Vargas, 1000 - Menino Deus, Porto Alegre - RS, 90150-004, Brazil";396;"CONSULTORIO ODONTOLOGICO";"AV GETULIO VARGAS, 1000/503"
"-30.0407839";"-51.1955286";"street_address";"Av. Protásio Alves, 1281 - Petrópolis, Porto Alegre - RS, 90410-000, Brazil";397;"CONSULTORIO MEDICO";"AV PROTASIO ALVES, 1281/403"
"-30.0847398";"-51.2149056";"street_address";"Av. Nonoai, 31 - Nonoai, Porto Alegre - RS, Brazil";398;"CONSULTORIO MEDICO";"AV NONOAI, 31/3"
"-30.0347443";"-51.2089542";"street_address";"R. Bento Figueiredo, 71 - Rio Branco, Porto Alegre - RS, 90035-130, Brazil";399;"CONSULTORIO DE PSICOLOGIA";"R BENTO FIGUEIREDO, 71/204"
"-30.0947504";"-51.227989";"street_address";"R. Dr. Campos Velho, 1827 - Cristal, Porto Alegre - RS, 90820-001, Brazil";400;"SALAO DE BELEZA";"R DR CAMPOS VELHO, 1827"
"-30.0147568";"-51.1200908";"route";"Av. Baltazar de Oliveira Garcia, Porto Alegre - RS, Brazil";401;"AGENCIAMENTO DE CARGAS";"AV BALTAZAR DE OLIVEIRA GARCIA, 2215/201"
"-30.0273623";"-51.2258292";"street_address";"R. Voluntários da Pátria, 82 - Centro Histórico, Porto Alegre - RS, 90030-001, Brazil";402;"SALAO DE BELEZA";"R VOLUNTARIOS DA PATRIA, 82/6"
"-30.0250095";"-51.1622202";"street_address";"Av. João Wallig, 1800 - Passo d'Areia, Porto Alegre - RS, Brazil";403;"SALAO DE BELEZA";"AV JOAO WALLIG, 1800/1263"
"-30.0443554";"-51.1861198";"street_address";"R. Gen. Souza Doca, 71 - Petrópolis, Porto Alegre - RS, 90630-050, Brazil";404;"CONSULTORIO ODONTOLOGICO";"R GEN SOUZA DOCA, 71/305"
"-30.0753121";"-51.2278795";"street_address";"R. Dormênio, 157 - Santa Tereza, Porto Alegre - RS, 90840-100, Brazil";405;"SALOES DE BELEZA";"R DORMENIO, 157"
"-30.0296896";"-51.2081842";"street_address";"R. Cel. Frederico Linck, 28 - Rio Branco, Porto Alegre - RS, 90035-010, Brazil";406;"SALAO DE BELEZA";"R CEL FREDERICO LINCK, 28"
"-30.0350041";"-51.2116354";"street_address";"Av. Osvaldo Aranha, 1082 - Bom Fim, Porto Alegre - RS, 90035-191, Brazil";407;"ESCRITORIO DE SERVICOS DE ASSESSORIA";"AV OSVALDO ARANHA, 1082/501"
"-30.0310426";"-51.2193084";"street_address";"R. da Conceição, 389 - Centro Histórico, Porto Alegre - RS, 90030-030, Brazil";408;"SERVICO DE MASSAGEM (MASSAGISTAS, MASSAGEM ESTETI-CA, TERAPEUTICA";"R CONCEICAO, 389/205"
"-30.1057892";"-51.254327";"street_address";"Av. Wenceslau Escobar, 1973 - Tristeza, Porto Alegre - RS, 91900-000, Brazil";409;"SALAO DE BELEZA";"AV WENCESLAU ESCOBAR, 1973/3"
"-30.0462452";"-51.194777";"street_address";"Rua Coronel Corte Real, 647 - Petrópolis, Porto Alegre - RS, 90630-080, Brazil";410;"SALAO DE BELEZA";"R CEL CORTE REAL, 647"
"-30.0443327";"-51.1896827";"street_address";"R. Prof. Langendonck, 143 - Petrópolis, Porto Alegre - RS, 90630-000, Brazil";411;"SALAO DE BELEZA";"R PROF LANGENDONCK, 143"
"-29.977269";"-51.1855486";"street_address";"Av. Clóvis Paim Grivot, 201 - Humaitá, Porto Alegre - RS, 90250-020, Brazil";412;"LOCACAO DE FITAS DE VIDEO";"AV CLOVIS PAIM GRIVOT, 201/201"
"-30.0357532";"-51.2085213";"street_address";"R. Ramiro Barcelos, 1893 - Rio Branco, Porto Alegre - RS, 90035-191, Brazil";413;"SALAO DE BELEZA";"R RAMIRO BARCELOS, 1893"
"-30.0311234";"-51.2266742";"street_address";"R. Mal. Floriano Peixoto, 270 - Centro, Porto Alegre - RS, 90020-020, Brazil";414;"AGENCIA DE VIAGENS E TURISMO";"R MARECHAL FLORIANO PEIXOTO, 270/1002"
"-30.035738";"-51.1216579";"street_address";"Av. Manoel Elias, 2260 - Protásio Alves, Porto Alegre - RS, 91240-261, Brazil";415;"BORRACHARIA/VULCANIZADORA";"AV MANOEL ELIAS, 2260"
"-30.0105245";"-51.2042703";"street_address";"Av. Pres. Franklin Roosevelt, 1241 - São Geraldo, Porto Alegre - RS, Brazil";416;"SALAO DE BELEZA";"AV PRESIDENTE FRANKLIN ROOSEVELT, 1241/14"
"-30.0217049";"-51.196938";"street_address";"R. Cel. Bordini, 414 - Auxiliadora, Porto Alegre - RS, 90440-003, Brazil";417;"CONSULTORIO MEDICO";"R CEL BORDINI, 414"
"-30.0290046";"-51.2262223";"street_address";"R. Vig. José Inácio, 371 - Centro Histórico, Porto Alegre - RS, 90020-100, Brazil";418;"CONSULTORIO MEDICO";"R VIGARIO JOSE IGNACIO, 371/412"
"-30.0403514";"-51.2154417";"street_address";"Av. Venâncio Aires, 504 - Cidade Baixa, Porto Alegre - RS, 90040-191, Brazil";419;"CONSULTORIO MEDICO";"AV VENANCIO AIRES, 504/301"
"-30.0270911";"-51.2295283";"street_address";"R. Uruguai, 35 - Centro Histórico, Porto Alegre - RS, 90010-140, Brazil";420;"ESCRITORIO DE CORRETAGEM DE SEGUROS";"R URUGUAI, 35"
"-30.0120555";"-51.1521241";"establishment";"R. Zéca Neto - Cristo Redentor, Porto Alegre - RS, 91370-100, Brazil";421;"CONSULTORIO DE PSICOLOGIA";"R ZECA NETO, 45/305"
"-30.004066";"-51.185806";"street_address";"R. Dona Sebastiana, 142 - São João, Porto Alegre - RS, 91020-010, Brazil";422;"EMPREITEIRA DA CONSTRUCAO CIVIL";"R DONA SEBASTIANA, 142"
"-30.0358525";"-51.2095675";"street_address";"R. Felipe Camarão, 736 - Rio Branco, Porto Alegre - RS, 90035-140, Brazil";423;"CONSULTORIO DE PSICOLOGIA";"R FELIPE CAMARAO, 736/503"
"-30.049779";"-51.2284706";"street_address";"Av. Praia de Belas, 1181 - Praia de Belas, Porto Alegre - RS, 90110-001, Brazil";424;"SALAO DE BELEZA";"AV PRAIA DE BELAS, 1181/1057"
"-30.0240272";"-51.2018431";"street_address";"R. Padre Chagas, 415 - Moinhos de Vento, Porto Alegre - RS, 90570-080, Brazil";425;"SERVICO DE ENGENHARIA, ARQUITETURA, URBANISMO, PAISAGISMO, AGRONOM";"R PADRE CHAGAS, 415/302"
"-30.0307109";"-51.2267736";"street_address";"Av. Sen. Salgado Filho, 86 - Centro Histórico, Porto Alegre - RS, 90010-221, Brazil";426;"SALAO DE BELEZA";"AV SENADOR SALGADO FILHO, 86"
"-30.0770402";"-51.1696772";"establishment";"R. Antônio Simões, 173 - São José, Porto Alegre - RS, 91520-160, Brazil";427;"PROFISSIONAL AUTONOMO";"R ANTONIO SIMOES, 163"
"-30.0213993";"-51.186523";"premise";"R. Dom Pedro II, 1619 - Auxiliadora, Porto Alegre - RS, 90540-100, Brazil";428;"SALAO DE BELEZA";"R DOM PEDRO II, 1619"
"-30.0089463";"-51.18895";"street_address";"R. Barão do Cotegipe, 400 - São João, Porto Alegre - RS, 90540-020, Brazil";429;"SALAO DE BELEZA";"R BARAO DO COTEGIPE, 400/5"
"-30.0028517";"-51.1626598";"street_address";"R. Comendador Duval, 381 - Jardim Floresta, Porto Alegre - RS, 91040-310, Brazil";430;"ESCRITORIO ADMINISTRATIVO (SEDE ADMINISTRATIVA DE EMPRESA)";"R COMENDADOR DUVAL, 381"
"-30.1075312";"-51.2478591";"street_address";"R. Dr. Dias de Carvalho, 408 - Tristeza, Porto Alegre - RS, 91910-270, Brazil";431;"SERVICO DE MASSAGEM (MASSAGISTAS, MASSAGEM ESTETI-CA, TERAPEUTICA";"R DR DIAS DE CARVALHO, 408/201"
"-30.038726";"-51.19574";"street_address";"R. Vicente da Fontoura, 2659 - Bela Vista, Porto Alegre - RS, 90640-003, Brazil";432;"SALAO DE BELEZA";"R VICENTE DA FONTOURA, 2659"
"-30.0062468";"-51.1842183";"street_address";"Av. Assis Brasil, 164 - São João, Porto Alegre - RS, 91010-001, Brazil";433;"SALAO DE BELEZA";"AV ASSIS BRASIL, 164/84"
"-30.0250095";"-51.1622202";"street_address";"Av. João Wallig, 1800 - Passo d'Areia, Porto Alegre - RS, Brazil";434;"SALAO DE BELEZA";"AV JOAO WALLIG, 1800/1263"
"-30.064363";"-51.1571969";"street_address";"Av. Bento Gonçalves, 5844 - Paternon, Porto Alegre - RS, 91540-000, Brazil";435;"SALAO DE BELEZA";"AV BENTO GONCALVES, 5844/102"
"-30.0290046";"-51.2262223";"street_address";"R. Vig. José Inácio, 371 - Centro Histórico, Porto Alegre - RS, 90020-100, Brazil";436;"SALAO DE BELEZA";"R VIGARIO JOSE IGNACIO, 371/120"
"-30.040334";"-51.201327";"street_address";"R. João Guimarães, 155 - Santa Cecilia, Porto Alegre - RS, 90630-170, Brazil";437;"REPRESENTACAO COMERCIAL (INTERMEDIARIOS DE VENDAS DE MERCADORIAS A";"R JOAO GUIMARAES, 155/101"
"-30.029371";"-51.161552";"street_address";"R. Dr. Barbosa Gonçalves, 650 - Chácara das Pedras, Porto Alegre - RS, 91330-320, Brazil";438;"SALAO DE BELEZA";"R DR BARBOSA GONCALVES, 650"
"-30.0347795";"-51.2356531";"street_address";"R. Cel. Fernando Machado, 216 - Centro Histórico, Porto Alegre - RS, 90010-320, Brazil";439;"SALAO DE BELEZA";"R CEL FERNANDO MACHADO, 216"
"-30.029678";"-51.2293383";"establishment";"R. dos Andradas, 1234 - Centro Histórico, Porto Alegre - RS, 90010-000, Brazil";440;"SALAO DE BELEZA";"R ANDRADAS, 1664/807"
"-30.103308";"-51.2544929";"street_address";"Av. Pereira Passos, 1025 - Vila Assunção, Porto Alegre - RS, 91900-240, Brazil";441;"SALAO DE BELEZA";"AV PEREIRA PASSOS, 1025"
"-30.0477333";"-51.2121215";"street_address";"Av. Ipiranga, 1801 - Azenha, Porto Alegre - RS, Brazil";442;"SERVICO DE BUFFET";"AV IPIRANGA, 1801/244"
"-30.0282276";"-51.1579413";"street_address";"Av. Dr. Nilo Peçanha, 3228 - Chácara das Pedras, Porto Alegre - RS, 91330-001, Brazil";443;"SERVICO DE BUFFET";"AV DR NILO PECANHA, 3228"
"-30.015957";"-51.171714";"street_address";"Av. Plínio Brasil Milano, 2205 - Higienópolis, Porto Alegre - RS, 90520-003, Brazil";444;"PROFISSIONAL AUTONOMO";"AV PLINIO BRASIL MILANO, 2205/121"
"-30.0290492";"-51.2182083";"street_address";"Av. Independência, 330 - Independência, Porto Alegre - RS, 90035-072, Brazil";445;"PROCESSAMENTO DE DADOS";"AV INDEPENDENCIA, 330/202"
"-30.02736";"-51.203174";"establishment";"R. Dr. Florêncio Ygartua, 65 - Loja 22 - Moinhos de Vento, Porto Alegre - RS, 90430-010, Brazil";446;"SALAO DE BELEZA";"R DR FLORENCIO YGARTUA, 65/29"
"-30.0184196";"-51.2030048";"street_address";"Av. Cristóvão Colombo, 1773 - Floresta, Porto Alegre - RS, 90560-003, Brazil";447;"CONSULTORIO MEDICO";"AV CRISTOVAO COLOMBO, 1773/203"
"-29.987068";"-51.1556412";"route";"R. Lenea Gaelzer - São João, Porto Alegre - RS, 90200-300, Brazil";448;"ESCRITORIO DE IMPORTACAO E EXPORTACAO";"R LENEA GAELZER, 1170"
"-30.029678";"-51.2293383";"establishment";"R. dos Andradas, 1234 - Centro Histórico, Porto Alegre - RS, 90010-000, Brazil";449;"SERVICO DE MASSAGEM (MASSAGISTAS, MASSAGEM ESTETI-CA, TERAPEUTICA";"R ANDRADAS, 943/2001"
"-30.0289498";"-51.2246448";"route";"Rua Doutor Flores - Centro Histórico, Porto Alegre - RS, Brazil";450;"LABORATORIO DE PROTESE";"R DR FLORES, 105/706"
"-30.0234064";"-51.1828811";"street_address";"R. Campos Sáles, 258 - Auxiliadora, Porto Alegre - RS, 90480-030, Brazil";451;"SALAO DE BELEZA";"R CAMPOS SALES, 258"
"-30.02925";"-51.205962";"street_address";"R. Miguel Tostes, 125 - Rio Branco, Porto Alegre - RS, 90430-061, Brazil";452;"SALAO DE BELEZA";"R MIGUEL TOSTES, 125"
"-30.0391337";"-51.2198468";"street_address";"R. Gen. Lima e Silva, 776 - Cidade Baixa, Porto Alegre - RS, 90050-100, Brazil";453;"SALAO DE BELEZA";"R GEN LIMA E SILVA, 776/10"
"-30.0036489";"-51.191927";"premise";"Rua Pereira Franco, 402 - São João, Porto Alegre - RS, 90240-520, Brazil";454;"SERVICO DE MASSAGEM (MASSAGISTAS, MASSAGEM ESTETI-CA, TERAPEUTICA";"R PEREIRA FRANCO, 402"
"-30.0295145";"-51.2281306";"street_address";"Av. Borges de Medeiros, 343 - Centro, Porto Alegre - RS, 90020-022, Brazil";455;"CONSULTORIO ODONTOLOGICO";"AV BORGES DE MEDEIROS, 343/60"
"-30.0277436";"-51.2243996";"street_address";"Rua Doutor Flores, 62 - Centro Histórico, Porto Alegre - RS, Brazil";456;"CONSULTORIO ODONTOLOGICO";"R DR FLORES, 62/702"
"-30.0312179";"-51.2111037";"street_address";"Rua Fernandes Vieira, 203 - Bom Fim, Porto Alegre - RS, 90035-091, Brazil";457;"CONSULTORIO DE PSICOLOGIA";"R FERNANDES VIEIRA, 203/404"
"-30.027152";"-51.191289";"street_address";"R. Anita Garibaldi, 465 - Mont'Serrat, Porto Alegre - RS, 90450-001, Brazil";458;"CONSULTORIO DE PSICOLOGIA";"R ANITA GARIBALDI, 465"
"-30.02181";"-51.200068";"establishment";"R. Dr. Timóteo, 739 - Moinhos de Vento, Porto Alegre - RS, 90570-041, Brazil";459;"SALAO DE BELEZA";"R DR TIMOTEO, 732"
"-30.0793679";"-51.2292191";"street_address";"R. Dr. Idelfonso Pinto, 366 - Santa Tereza, Porto Alegre - RS, 90810-130, Brazil";460;"PROFISSIONAL AUTONOMO";"R DR ILDEFONSO PINTO, 366"
"-30.029678";"-51.2293383";"establishment";"R. dos Andradas, 1234 - Centro Histórico, Porto Alegre - RS, 90010-000, Brazil";461;"CONSULTORIO MEDICO";"R ANDRADAS, 1781/702"
"-30.029533";"-51.203437";"street_address";"Rua Dona Laura, 226 - Rio Branco, Porto Alegre - RS, 90430-090, Brazil";462;"CONSULTORIO MEDICO";"R DONA LAURA, 226/202"
"-30.0104307";"-51.1703157";"street_address";"Av. Assis Brasil, 1652 - Passo d'Areia, Porto Alegre - RS, 91010-006, Brazil";463;"CONSULTORIO ODONTOLOGICO";"AV ASSIS BRASIL, 1652/501"
"-30.0302511";"-51.2303333";"street_address";"R. dos Andradas, 1137 - Centro Histórico, Porto Alegre - RS, 90020-008, Brazil";464;"CONSULTORIO MEDICO";"R ANDRADAS, 1137/415"
"-30.1143465";"-51.2548713";"street_address";"Av. Wenceslau Escobar, 2961 - Tristeza, Porto Alegre - RS, 91900-000, Brazil";465;"CONSULTORIO MEDICO";"AV WENCESLAU ESCOBAR, 2961"
"-30.0081788";"-51.1585158";"street_address";"Rua Fernando Abbott, 301 - Cristo Redentor, Porto Alegre - RS, 91040-360, Brazil";466;"SALAO DE BELEZA";"R FERNANDO ABBOTT, 301"
"-30.030476";"-51.226284";"establishment";"Ed. Fleming - R. Gen. Vitorino, 53 - sala 31 - Centro Histórico, Porto Alegre - RS, 90020-170, Brazil";467;"SALAO DE BELEZA";"R GEN VITORINO, 305/1"
"-30.0283829";"-51.2032779";"street_address";"R. Mostardeiro, 392 - Independência, Porto Alegre - RS, 90430-001, Brazil";468;"SERVICO DE MASSAGEM (MASSAGISTAS, MASSAGEM ESTETI-CA, TERAPEUTICA";"R MOSTARDEIRO, 392/406"
"-30.0096765";"-51.1028947";"route";"Rua Maestro Léo Won Schneider - Rubem Berta, Porto Alegre - RS, Brazil";469;"PROFISSIONAL AUTONOMO";"R MAESTRO LEO W SCHNEIDER, 265"
"-30.0441583";"-51.1971986";"premise";"R. Vicente da Fontoura, 2046 - Rio Branco, Porto Alegre - RS, 90640-001, Brazil";470;"SALAO DE BELEZA";"R VICENTE DA FONTOURA, 2046"
"-30.046649";"-51.20403";"street_address";"R. Bernardo Píres, 434 - Santana, Porto Alegre - RS, 90620-010, Brazil";471;"CONSULTORIO MEDICO";"R BERNARDO PIRES, 434"
"-30.1149416";"-51.2545302";"establishment";"Av. Wenceslau Escobar, 3033 - Cristal, Porto Alegre - RS, Brazil";472;"CONSULTORIO MEDICO";"AV WENCESLAU ESCOBAR, 3033/702"
"-30.0290781";"-51.2266595";"street_address";"R. Mal. Floriano Peixoto, 38 - Centro Histórico, Porto Alegre - RS, 90020-060, Brazil";473;"OFICINA DE ASSISTENCIA TECNICA";"R MARECHAL FLORIANO PEIXOTO, 38/16"
"-29.9873915";"-51.1278141";"street_address";"R. Jackson de Figueiredo, 523 - Sarandi, Porto Alegre - RS, 91120-380, Brazil";474;"ESCOLA DE ARTE";"R JACKSON DE FIGUEIREDO, 523"
"-30.0244538";"-51.2006209";"street_address";"R. 24 de Outubro, 427 - Independência, Porto Alegre - RS, 90510-002, Brazil";475;"SALAO DE BELEZA";"R VINTE QUATRO DE OUTUBRO, 427"
"-30.0595304";"-51.1526448";"street_address";"Av. Ipiranga, 8423 - Praia de Belas, Porto Alegre - RS, 90160-092, Brazil";476;"SALAO DE BELEZA";"AV IPIRANGA, 8423/12"
"-30.0210885";"-51.1961054";"premise";"R. Xavier Ferreira, 161 - Auxiliadora, Porto Alegre - RS, 90540-160, Brazil";477;"CONSULTORIO DE PSICOLOGIA";"R XAVIER FERREIRA, 161"
"-30.004048";"-51.1470028";"street_address";"R. Lasar Segall, 19 - São Sebastião, Porto Alegre - RS, 91060-530, Brazil";478;"SALAO DE BELEZA";"R LASAR SEGALL, 19/2"
"-30.0018015";"-51.1514415";"street_address";"Av. Panamericana, 901 - Jardim Lindoia, Porto Alegre - RS, 91050-000, Brazil";479;"SALAO DE BELEZA";"AV PANAMERICANA, 901"
"-29.9994577";"-51.1365349";"street_address";"R. Dr. João Dahne, 43 - Sarandi, Porto Alegre - RS, 91110-070, Brazil";480;"AGENCIA DE VIAGENS E TURISMO";"R DR JOAO DAHNE, 43"
"-30.0537781";"-51.2011017";"street_address";"Av. Bento Gonçalves, 1196 - Partenon, Porto Alegre - RS, 90650-001, Brazil";481;"SALAO DE BELEZA";"AV BENTO GONCALVES, 1196"
"-30.0419148";"-51.1793404";"street_address";"Av. Montenegro, 13 - Petrópolis, Porto Alegre - RS, 90460-160, Brazil";482;"CONSULTORIO DE PSICOLOGIA";"AV MONTENEGRO, 13/305"
"-30.0625812";"-51.1766921";"street_address";"R. Ângelo Barcelos, 25 - Vila Joao Pessoa, Porto Alegre - RS, 90650-001, Brazil";483;"SALAO DE BELEZA";"R ANGELO BARCELOS, 25/25"
"-30.0278939";"-51.2254654";"establishment";"R. Vig. José Inácio, 250 - Centro Histórico, Porto Alegre - RS, Brazil";484;"ESCRITORIO DE AGENCIAMENTO DE CARGAS";"R VIGARIO JOSE IGNACIO, 250/55"
"-30.0195248";"-51.1927136";"establishment";"R. Marquês do Pombal, 1127 - Moinhos de Vento, Porto Alegre - RS, 90540-010, Brazil";485;"SALAO DE BELEZA";"R MARQUES DO POMBAL, 645"
"-30.0250095";"-51.1622202";"street_address";"Av. João Wallig, 1800 - Passo d'Areia, Porto Alegre - RS, Brazil";486;"SALAO DE BELEZA";"AV JOAO WALLIG, 1800/1102"
"-30.0578171";"-51.2225956";"street_address";"R. Saldanha Marinho, 33 - Menino Deus, Porto Alegre - RS, 90160-240, Brazil";487;"ESCRITORIO DE EDICAO DE PERIODICOS";"R SALDANHA MARINHO, 33/1103"
"-29.9899506";"-51.1234479";"street_address";"R. Sr. do Bom Fim, 109 - Sarandi, Porto Alegre - RS, 91140-380, Brazil";488;"SALAO DE BELEZA";"R Q VILA SENHOR DO BOM FIM, 109"
"-30.045309";"-51.1838539";"street_address";"R. Felizardo Furtado, 141 - Petrópolis, Porto Alegre - RS, 90670-090, Brazil";489;"SALAO DE BELEZA";"R FELIZARDO FURTADO, 141"
"-30.0904775";"-51.2189376";"street_address";"Av. Nonoai, 774 - Nonoai, Porto Alegre - RS, Brazil";490;"CONFECCAO SOB MEDIDA DE ARTIGOS DO VESTUARIO";"AV NONOAI, 774/404"
"-30.0394966";"-51.2249836";"street_address";"R. da República, 567 - Cidade Baixa, Porto Alegre - RS, 90050-321, Brazil";491;"REPRESENTACAO COMERCIAL (INTERMEDIARIOS DE VENDAS DE MERCADORIAS A";"R REPUBLICA, 567/206"
"-30.0288361";"-51.2294263";"street_address";"Rua 7 de Setembro, 1126 - Centro Histórico, Porto Alegre - RS, 90010-190, Brazil";492;"SALAO DE BELEZA";"R SETE DE SETEMBRO, 1126/10"
"-29.9963677";"-51.1304355";"street_address";"Av. Assis Brasil, 6203 - Sarandi, Porto Alegre - RS, 91010-004, Brazil";493;"ESCRITORIO DE ENGENHARIA";"AV ASSIS BRASIL, 6203/701"
"-30.0279805";"-51.2258238";"street_address";"R. Vig. José Inácio, 263 - Centro Histórico, Porto Alegre - RS, 90020-100, Brazil";494;"ESCRITORIO";"R VIGARIO JOSE IGNACIO, 263/91"
"-30.043568";"-51.188217";"street_address";"Rua Vítor Hugo, 10 - Petrópolis, Porto Alegre - RS, 90630-070, Brazil";495;"SERVICO DE TATUAGEM";"R VITOR HUGO, 10"
"-30.04908";"-51.194242";"street_address";"R. Dário Pederneiras, 566 - Petrópolis, Porto Alegre - RS, 90630-090, Brazil";496;"CONSULTORIO DE TERAPIAS ALTERNATIVAS";"R DARIO PEDERNEIRAS, 566"
"-30.0360578";"-51.2347593";"street_address";"Rua Washington Luiz, 552 - Centro Histórico, Porto Alegre - RS, 90010-460, Brazil";497;"CONSULTORIO DE TERAPIAS ALTERNATIVAS";"R WASHINGTON LUIZ, 552/301"
"-30.0852056";"-51.2456904";"street_address";"Av. Diário de Notícias, 300 - Cristal, Porto Alegre - RS, Brazil";498;"SALAO DE BELEZA";"AV DIARIO DE NOTICIAS, 300/1558"
"-30.1069306";"-51.2371057";"street_address";"R. Dr. Pereira Neto, 1562 - Tristeza, Porto Alegre - RS, 91920-530, Brazil";499;"SALAO DE BELEZA";"R DR PEREIRA NETO, 1562"
"-30.0280987";"-51.2243278";"street_address";"Rua Doutor Flores, 106 - Centro Histórico, Porto Alegre - RS, 90020-120, Brazil";500;"LABORATORIO DE PROTESE";"R DR FLORES, 106/1411"
"-30.1352658";"-51.2245585";"street_address";"R. Comendador Castro, 577 - Ipanema, Porto Alegre - RS, 91760-200, Brazil";501;"LOCACAO DE FITAS DE VIDEO";"R COMENDADOR CASTRO, 577"
"-30.0291962";"-51.208667";"establishment";"Av. Independência, 1211 - Moinho de Vento, Porto Alegre - RS, 90035-077, Brazil";502;"CONSULTORIO MEDICO";"AV INDEPENDENCIA, 1211/201"
"-30.0496236";"-51.2291848";"street_address";"Av. Borges de Medeiros, 2500 - Centro Histórico, Porto Alegre - RS, 90020-024, Brazil";503;"CONSULTORIO MEDICO";"AV BORGES DE MEDEIROS, 2500/1409"
"-30.0317798";"-51.2121944";"street_address";"Rua General João Telles, 260 - Bom Fim, Porto Alegre - RS, 90035-120, Brazil";504;"SALAO DE BELEZA";"R GEN JOAO TELLES, 260"
"-29.9914042";"-51.0953056";"premise";"R. dos Maias, 696 - Rubem Berta, Porto Alegre - RS, 91170-200, Brazil";505;"SALAO DE BELEZA";"R MAIAS, 696"
"-30.0539846";"-51.2243911";"street_address";"R. Botafogo, 590 - Menino Deus, Porto Alegre - RS, 90150-052, Brazil";506;"SALAO DE BELEZA";"R BOTAFOGO, 590/102"
"-30.0278902";"-51.2239908";"establishment";"R. Sr. dos Passos, 87 - Centro Histórico, Porto Alegre - RS, Brazil";507;"SERVICO DE MASSAGEM (MASSAGISTAS, MASSAGEM ESTETI-CA, TERAPEUTICA";"R SENHOR DOS PASSOS, 87/23"
"-30.0973636";"-51.2313654";"street_address";"Av. da Cavalhada, 2351 - Cavalhada, Porto Alegre - RS, 91740-001, Brazil";508;"ESTUDIO FOTOGRAFICO";"AV CAVALHADA, 2351"
"-30.0640241";"-51.1851133";"premise";"Av. Bento Gonçalves, 3045 - Partenon, Porto Alegre - RS, 90650-003, Brazil";509;"SALAO DE BELEZA";"AV BENTO GONCALVES, 3045"
"-30.036128";"-51.1824299";"street_address";"Av. João Obino, 103 - Petrópolis, Porto Alegre - RS, 90470-150, Brazil";510;"CONSULTORIO DE PSICOLOGIA";"AV JOAO OBINO, 103"
"-29.9947405";"-51.1301741";"route";"Av. Assis Brasil, Porto Alegre - RS, Brazil";511;"ESCRITORIO ADMINISTRATIVO (SEDE ADMINISTRATIVA DE EMPRESA)";"AV ASSIS BRASIL, 2464/415"
"-30.030476";"-51.226284";"establishment";"Ed. Fleming - R. Gen. Vitorino, 53 - sala 31 - Centro Histórico, Porto Alegre - RS, 90020-170, Brazil";512;"SALAO DE BELEZA";"R GEN VITORINO, 14/1"
"-30.0382223";"-51.1716516";"premise";"R. Carlos Huber, 121 - Três Figueiras, Porto Alegre - RS, 91330-150, Brazil";513;"CONSULTORIO MEDICO";"R CARLOS HUBER, 121"
"-30.0178748";"-51.1861521";"street_address";"R. Dom Pedro II, 1220 - São João, Porto Alegre - RS, 90550-141, Brazil";514;"CONSULTORIO DE FISIOTERAPIA";"R DOM PEDRO II, 1220/303"
"-30.044328";"-51.2174539";"street_address";"R. Lobo da Costa, 91 - Azenha, Porto Alegre - RS, 90050-110, Brazil";515;"SALAO DE BELEZA";"R LOBO DA COSTA, 91/1"
"-30.0744121";"-51.1639865";"establishment";"R. Padre Mascarenhas, 786 - São José, Porto Alegre - RS, 91520-450, Brazil";516;"PROFISSIONAL AUTONOMO";"R PADRE MASCARENHAS, 78"
"-30.0319053";"-51.2045749";"establishment";"R. Casemiro de Abreu, 367 - Boa Vista, Porto Alegre - RS, 90420-001, Brazil";517;"ESCRITORIO DE PUBLICIDADE E PROPAGANDA";"R CASEMIRO DE ABREU, 367/802"
"-30.039119";"-51.221035";"street_address";"Rua Luiz Afonso, 210 - Cidade Baixa, Porto Alegre - RS, 90050-310, Brazil";518;"CONSULTORIO ODONTOLOGICO";"R LUIZ AFONSO, 210"
"-30.1065592";"-51.257393";"street_address";"R. Srg. Nicolau Dias de Farias, 166 - Tristeza, Porto Alegre - RS, 91900-250, Brazil";519;"SALAO DE BELEZA";"R SARGENTO NICOLAU DIAS DE FARIAS, 166"
"-30.0250095";"-51.1622202";"street_address";"Av. João Wallig, 1800 - Passo d'Areia, Porto Alegre - RS, Brazil";520;"SALAO DE BELEZA";"AV JOAO WALLIG, 1800/1103"
"-30.1026346";"-51.2319696";"street_address";"Av. Otto Niemeyer, 2751 - Cavalhada, Porto Alegre - RS, 91910-001, Brazil";521;"ESCRITORIO DE CONTABILIDADE";"AV OTTO NIEMEYER, 2751/202"
"-30.0369741";"-51.1805022";"street_address";"Av. Lajeado, 991 - Petrópolis, Porto Alegre - RS, 90460-110, Brazil";522;"SALAO DE BELEZA";"AV LAGEADO, 991"
"-30.0327739";"-51.2177984";"establishment";"Av. Osvaldo Aranha, 440 - Bom Fim, Porto Alegre - RS, Brazil";523;"CONSULTORIO MEDICO";"AV OSVALDO ARANHA, 440/804"
"-30.0582161";"-51.2292508";"street_address";"R. Costa, 30 - Menino Deus, Porto Alegre - RS, 90110-270, Brazil";524;"CONSULTORIO MEDICO";"R COSTA, 30/402"
"-30.0509737";"-51.217666";"premise";"Rua General Caldwell, 982 - Menino Deus, Porto Alegre - RS, 90130-050, Brazil";525;"ACADEMIA DE ENSINO E/OU PRATICA DE GINASTICA";"R GEN CALDWELL, 982"
"-30.0149257";"-51.1183434";"street_address";"Av. Baltazar de Oliveira Garcia, 2690 - Jardim Leopoldina, Porto Alegre - RS, 91150-000, Brazil";526;"SALAO DE BELEZA";"AV BALTAZAR DE OLIVEIRA GARCIA, 2690/2"
"-30.015813";"-51.199937";"street_address";"Rua 3 de Maio, 208 - Floresta, Porto Alegre - RS, 90240-670, Brazil";527;"REPRESENTACAO COMERCIAL (INTERMEDIARIOS DE VENDAS DE MERCADORIAS A";"R TRES DE MAIO, 208"
"-30.0287905";"-51.2287267";"establishment";"R. Uruguai, 240 - Centro Histórico, Porto Alegre - RS, 90010-140, Brazil";528;"ESCRITORIO DE SERVICOS JURIDICOS";"R URUGUAI, 335/173"
"-30.0311234";"-51.2266742";"street_address";"R. Mal. Floriano Peixoto, 270 - Centro, Porto Alegre - RS, 90020-020, Brazil";529;"SALAO DE BELEZA";"R MARECHAL FLORIANO PEIXOTO, 270/501"
"-30.0416726";"-51.1794209";"street_address";"Av. Iguaçu, 41 - Petrópolis, Porto Alegre - RS, 90690-430, Brazil";530;"CONSULTORIO DE PSICOLOGIA";"AV IGUASSU, 41/405"
"-30.0129052";"-51.2054104";"street_address";"R. Quintino Bandeira, 21 - São Geraldo, Porto Alegre - RS, 90220-050, Brazil";531;"SALAO DE BELEZA";"R QUINTINO BANDEIRA, 21"
"-30.0520184";"-51.2211159";"street_address";"R. Barão do Triunfo, 80 - Menino Deus, Porto Alegre - RS, Brazil";532;"SALAO DE BELEZA";"R BARAO DO TRIUNFO, 80/3"
"-30.049777";"-51.2219747";"street_address";"R. Marcílio Dias, 763 - Menino Deus, Porto Alegre - RS, Brazil";533;"SALAO DE BELEZA";"R MARCILIO DIAS, 763"
"-30.0392734";"-51.2009007";"street_address";"Av. Protásio Alves, 753 - Rio Branco, Porto Alegre - RS, 90410-004, Brazil";534;"SALAO DE BELEZA";"AV PROTASIO ALVES, 753"
"-30.1285676";"-51.2402211";"street_address";"Av. Cel. Marcos, 1804 - Pedra Redonda, Porto Alegre - RS, Brazil";535;"SALAO DE BELEZA";"AV CEL MARCOS, 1804"
"-30.0475769";"-51.2044392";"street_address";"R. São Luís, 510 - Santana, Porto Alegre - RS, 90620-170, Brazil";536;"SALAO DE BELEZA";"R SAO LUIZ, 510/103"
"-30.0314946";"-51.2242889";"street_address";"Av. Sen. Salgado Filho, 359 - Centro Histórico, Porto Alegre - RS, 90010-490, Brazil";537;"SERVICO DE MASSAGEM (MASSAGISTAS, MASSAGEM ESTETI-CA, TERAPEUTICA";"AV SENADOR SALGADO FILHO, 359/711"
"-30.0267269";"-51.2212797";"street_address";"R. Voluntários da Pátria, 527 - Centro Histórico, Porto Alegre - RS, 90030-002, Brazil";538;"SALAO DE BELEZA";"R VOLUNTARIOS DA PATRIA, 527/38"
"-30.0912972";"-51.2417692";"street_address";"Av. Icaraí, 1426 - Cristal, Porto Alegre - RS, 90810-000, Brazil";539;"OFICINA DE REPARACAO DE APARELHOS ELETRONICOS";"AV ICARAI, 1426"
"-30.0250095";"-51.1622202";"street_address";"Av. João Wallig, 1800 - Passo d'Areia, Porto Alegre - RS, Brazil";540;"SALAO DE BELEZA";"AV JOAO WALLIG, 1800/1263"
"-30.1285676";"-51.2402211";"street_address";"Av. Cel. Marcos, 1804 - Pedra Redonda, Porto Alegre - RS, Brazil";541;"SALAO DE BELEZA";"AV CEL MARCOS, 1804"
"-30.0496236";"-51.2291848";"street_address";"Av. Borges de Medeiros, 2500 - Centro Histórico, Porto Alegre - RS, 90020-024, Brazil";542;"ESCRITORIO DE SERVICOS JURIDICOS";"AV BORGES DE MEDEIROS, 2500/801"
"-30.0284939";"-51.226494";"street_address";"Av. Otávio Rocha, 22 - Centro Histórico, Porto Alegre - RS, 90020-150, Brazil";543;"TELE-ENTREGAS";"AV OTAVIO ROCHA, 22/203"
"-30.0158867";"-51.1271523";"route";"Av. Gomes de Carvalho - Passo das Pedras, Porto Alegre - RS, Brazil";544;"SALAO DE BELEZA";"AV GOMES DE CARVALHO, 819"
"-30.062518";"-51.1753353";"street_address";"Av. Bento Gonçalves, 4085 - Partenon, Porto Alegre - RS, 90650-002, Brazil";545;"SALAO DE BELEZA";"AV BENTO GONCALVES, 4085/203"
"-29.9771156";"-51.1850681";"street_address";"Av. Clóvis Paim Grivot, 225 - Humaitá, Porto Alegre - RS, 90250-020, Brazil";546;"CONSULTORIO ODONTOLOGICO";"AV CLOVIS PAIM GRIVOT, 225/204"
"-30.0255639";"-51.2083465";"street_address";"R. Ramiro Barcelos, 910 - Floresta, Porto Alegre - RS, Brazil";547;"CONSULTORIO MEDICO";"R RAMIRO BARCELOS, 910"
"-30.0399518";"-51.2188011";"street_address";"Rua Octávio Corrêa, 96 - Cidade Baixa, Porto Alegre - RS, 90050-120, Brazil";548;"SALAO DE BELEZA";"R OCTAVIO CORREA, 96"
"-30.0998236";"-51.2483601";"street_address";"Av. Wenceslau Escobar, 1092 - Cristal, Porto Alegre - RS, 90820-020, Brazil";549;"SERVICO DE MASSAGEM (MASSAGISTAS, MASSAGEM ESTETI-CA, TERAPEUTICA";"AV WENCESLAU ESCOBAR, 1092/205"
"-30.0442859";"-51.204798";"establishment";"R. São Manoel, 1197 - Santana, Porto Alegre - RS, 90620-110, Brazil";550;"ESCRITORIO DE CONTABILIDADE E AUDITORIA";"R SAO MANOEL, 1197/501"
"-30.035778";"-51.2039649";"street_address";"R. Mariante, 892 - Rio Branco, Porto Alegre - RS, 90430-180, Brazil";551;"ESCRITORIO DE SERVICOS JURIDICOS";"R MARIANTE, 892/302"
"-30.1065385";"-51.2433437";"premise";"Av. Otto Niemeyer, 1571 - Camaquã, Porto Alegre - RS, 91910-001, Brazil";552;"ESCRITORIO DE IMPORTACAO E EXPORTACAO";"AV OTTO NIEMEYER, 1571"
"-30.0188096";"-51.151905";"street_address";"Av. do Forte, 926 - Vila Ipiranga, Porto Alegre - RS, Brazil";553;"ESCRITORIO DE CONTABILIDADE";"AV FORTE, 926"
"-30.1582592";"-51.1946";"route";"Av. Juca Batista, Porto Alegre - RS, Brazil";554;"SALAO DE BELEZA";"AV JUCA BATISTA, 1448/8"
"-30.0492337";"-51.2139869";"street_address";"R. Prof. Freitas e Castro, 311 - Azenha, Porto Alegre - RS, 90040-400, Brazil";555;"OFICINA DE TROCA E COLOCACAO DE SURDINAS, MOLAS,  AMORTECEDORES E";"R PROF FREITAS E CASTRO, 311"
"-30.0115122";"-51.1416131";"route";"R. Conselheiro Brusque - Jardim Itu-Sabará, Porto Alegre - RS, 91380-350, Brazil";556;"SALAO DE BELEZA";"R CONSELHEIRO BRUSQUE, 27"
"-30.0403817";"-51.2234189";"street_address";"Rua Luiz Afonso, 479 - Cidade Baixa, Porto Alegre - RS, 90050-310, Brazil";557;"SALAO DE BELEZA";"R LUIZ AFONSO, 479"
"-30.0294691";"-51.2207662";"street_address";"Av. Independência, 88 - Centro Histórico, Porto Alegre - RS, 90035-070, Brazil";558;"SALAO DE BELEZA";"AV INDEPENDENCIA, 88"
"-30.0101492";"-51.171109";"street_address";"R. Sport Club São José, 94 - Passo d'Areia, Porto Alegre - RS, 91030-510, Brazil";559;"REPRESENTACAO COMERCIAL (INTERMEDIARIOS DE VENDAS DE MERCADORIAS A";"R SPORT CLUB SAO JOSE, 94/201"
